{"version": 0.6, "generator": "Overpass API 0.7.61.5 4133829e", "osm3s": {"timestamp_osm_base": "2024-03-05T15:06:00Z", "copyright": "The data included in this document is from www.openstreetmap.org. The data is made available under ODbL."}, "elements": [{"type": "node", "id": 27430678, "lat": 58.7093225, "lon": 13.8228754, "tags": {"name": "Mariestad", "name:ru": "\u041c\u0430\u0440\u0438\u0435\u0441\u0442\u0430\u0434", "name:sv": "Mariestad", "place": "town", "population": "16249", "ref:se:pts:postort": "MARIESTAD", "ref:se:scb": "5372", "wikidata": "Q948117", "wikipedia": "sv:Mariestad"}}, {"type": "node", "id": 347635449, "lat": 58.6668348, "lon": 13.8564777, "tags": {"name": "Ullervad", "place": "village", "ref:se:scb": "5488", "wikidata": "Q2711105"}}, {"type": "node", "id": 387041704, "lat": 58.6667708, "lon": 13.5841065, "tags": {"name": "\u00c5rn\u00e4s", "place": "hamlet"}}, {"type": "node", "id": 387041875, "lat": 58.6579937, "lon": 13.7000725, "tags": {"name": "Bj\u00f6rs\u00e4ter", "place": "hamlet"}}, {"type": "node", "id": 486516871, "lat": 58.6886664, "lon": 13.2003533, "tags": {"name": "Spiken", "place": "hamlet", "wikidata": "Q2310574"}}, {"type": "node", "id": 486517211, "lat": 58.6873131, "lon": 13.1354374, "tags": {"name": "Nore", "place": "hamlet"}}, {"type": "node", "id": 584242164, "lat": 58.6543411, "lon": 13.7440657, "tags": {"name": "Pr\u00e4stkvarn", "place": "hamlet"}}, {"type": "node", "id": 804891671, "lat": 58.6522719, "lon": 13.9037065, "tags": {"name": "Jula", "place": "hamlet", "population": "131", "ref:se:scb": "S5437"}}, {"type": "node", "id": 919468279, "lat": 58.7436618, "lon": 13.7453663, "tags": {"name": "Hjorthammaren", "place": "hamlet"}}, {"type": "node", "id": 919471304, "lat": 58.7455577, "lon": 13.7325125, "tags": {"name": "Lapperud", "place": "hamlet"}}, {"type": "node", "id": 2308736068, "lat": 58.681379, "lon": 13.8133016, "tags": {"name": "Leksberg", "place": "hamlet", "population": "55", "ref:se:scb": "S5455"}}, {"type": "node", "id": 2308736070, "lat": 58.7913099, "lon": 13.8030025, "tags": {"name": "Nolby", "official_name": "Nolby (\u00f6stra delen)", "place": "hamlet", "population": "63", "ref:se:scb": "S5565"}}, {"type": "node", "id": 2562116025, "lat": 58.6697962, "lon": 13.139649, "tags": {"name": "Klackeredsb\u00e4cken", "place": "hamlet"}}, {"type": "node", "id": 2562119532, "lat": 58.6741068, "lon": 13.1386623, "tags": {"name": "Skogshall", "place": "hamlet"}}, {"type": "node", "id": 2562120386, "lat": 58.6914834, "lon": 13.1318816, "tags": {"name": "Skaven", "place": "hamlet"}}, {"type": "node", "id": 2562122582, "lat": 58.6968575, "lon": 13.1108639, "tags": {"name": "Navensberg", "place": "hamlet"}}, {"type": "node", "id": 4721007280, "lat": 58.7407974, "lon": 13.7322672, "tags": {"name": "V\u00e4sterg\u00e5rden", "place": "hamlet"}}, {"type": "node", "id": 4729928737, "lat": 58.7351834, "lon": 13.7363631, "tags": {"name": "Steglan", "place": "hamlet"}}, {"type": "node", "id": 4730392159, "lat": 58.7743065, "lon": 13.8139574, "tags": {"name": "Bj\u00f6rk", "place": "hamlet"}}, {"type": "node", "id": 5020986333, "lat": 58.8984558, "lon": 13.2494366, "tags": {"name": "\u00c5kershus", "place": "hamlet", "source": "survey"}}, {"type": "node", "id": 5020987694, "lat": 58.8992317, "lon": 13.2341158, "tags": {"name": "Eken\u00e4s", "place": "hamlet", "source": "survey"}}, {"type": "node", "id": 5023136106, "lat": 58.918058, "lon": 13.2261121, "tags": {"name": "Rosenborg", "place": "hamlet", "source": "survey"}}, {"type": "node", "id": 5027189716, "lat": 58.9391714, "lon": 13.1875741, "tags": {"name": "Gunneryd", "place": "hamlet", "source": "survey"}}, {"type": "node", "id": 5029650654, "lat": 58.9542718, "lon": 13.2045364, "tags": {"name": "God\u00e5s", "place": "hamlet", "source": "survey"}}, {"type": "node", "id": 5040059616, "lat": 58.9393928, "lon": 13.1660414, "tags": {"name": "Eskils\u00e4ter", "place": "village", "source": "survey"}}, {"type": "node", "id": 5065128264, "lat": 58.9726008, "lon": 13.2285905, "tags": {"name": "Gaperhult", "place": "hamlet", "source": "survey"}}, {"type": "node", "id": 5070414666, "lat": 58.9968365, "lon": 13.2183552, "tags": {"name": "Knappa", "place": "hamlet", "source": "survey"}}, {"type": "node", "id": 5152562312, "lat": 58.6817214, "lon": 13.8851942, "tags": {"name": "Bj\u00f6rk\u00e5sen", "place": "hamlet"}}, {"type": "node", "id": 5703300892, "lat": 58.7579131, "lon": 13.7468588, "tags": {"name": "Marieberg", "place": "hamlet"}}, {"type": "node", "id": 5715617364, "lat": 58.6677874, "lon": 13.8874994, "tags": {"name": "Eklunda", "place": "hamlet"}}, {"type": "node", "id": 5715635414, "lat": 58.6595681, "lon": 13.8833097, "tags": {"name": "Segerstad", "place": "hamlet"}}, {"type": "node", "id": 5715648206, "lat": 58.6688522, "lon": 13.9052068, "tags": {"name": "Eketorp", "place": "hamlet"}}, {"type": "node", "id": 5715648210, "lat": 58.6600457, "lon": 13.9222173, "tags": {"name": "\u00d6rnsberg", "place": "hamlet"}}, {"type": "node", "id": 5715648214, "lat": 58.6627886, "lon": 13.9135549, "tags": {"name": "Julaholm", "place": "hamlet"}}, {"type": "node", "id": 5715658954, "lat": 58.6796925, "lon": 13.8849555, "tags": {"name": "Stockholm", "place": "hamlet"}}, {"type": "node", "id": 5715658971, "lat": 58.6782278, "lon": 13.8869677, "tags": {"name": "Arvidstorp", "place": "hamlet"}}, {"type": "node", "id": 5739787128, "lat": 58.6834883, "lon": 13.9234399, "tags": {"name": "Blomsterhult", "place": "hamlet"}}, {"type": "node", "id": 5888718361, "lat": 58.7716673, "lon": 13.8035727, "tags": {"name": "Hov", "place": "hamlet"}}, {"type": "node", "id": 5888718362, "lat": 58.7661362, "lon": 13.805698, "tags": {"name": "Kvarnbacken", "place": "hamlet"}}, {"type": "node", "id": 7449864115, "lat": 58.6770103, "lon": 13.2127639, "tags": {"name": "Lilla Nol\u00e4ngen", "place": "hamlet"}}, {"type": "node", "id": 7472302733, "lat": 59.0159962, "lon": 13.2083914, "tags": {"name": "Norra H\u00f6khult", "place": "hamlet"}}, {"type": "node", "id": 7472409316, "lat": 59.0122472, "lon": 13.2109034, "tags": {"name": "S\u00f6dra H\u00f6khult", "place": "hamlet"}}, {"type": "node", "id": 7472456287, "lat": 59.0180451, "lon": 13.1251778, "tags": {"name": "Norra Averstad", "place": "hamlet"}}, {"type": "node", "id": 7472520764, "lat": 58.988291, "lon": 13.1010761, "tags": {"name": "Hj\u00e4lleskate fritidsomr\u00e5de", "place": "hamlet"}}, {"type": "node", "id": 7472521812, "lat": 59.0480039, "lon": 13.2024882, "tags": {"name": "S\u00f6dra Grimbr\u00e5ten", "place": "hamlet"}}, {"type": "node", "id": 7472543630, "lat": 59.0572604, "lon": 13.2076653, "tags": {"name": "Norra Grimbr\u00e5ten", "place": "hamlet"}}, {"type": "node", "id": 7472991458, "lat": 58.9299424, "lon": 13.2243826, "tags": {"name": "Bj\u00f6rud", "place": "hamlet"}}, {"type": "node", "id": 7472997974, "lat": 59.0735161, "lon": 13.1514137, "tags": {"name": "Prinserud", "place": "hamlet"}}, {"type": "node", "id": 7472998040, "lat": 59.0755242, "lon": 13.1626681, "tags": {"name": "Torserud", "place": "hamlet"}}, {"type": "node", "id": 7472998951, "lat": 58.9207237, "lon": 13.1858038, "tags": {"name": "S\u00e4ter", "place": "hamlet"}}, {"type": "node", "id": 7473008647, "lat": 58.9256559, "lon": 13.1393133, "tags": {"name": "Fl\u00e5vik", "place": "hamlet"}}, {"type": "node", "id": 7473011096, "lat": 58.940587, "lon": 13.1701354, "tags": {"name": "Nolbyn", "place": "hamlet"}}, {"type": "node", "id": 7473018308, "lat": 59.0184767, "lon": 13.1522452, "tags": {"name": "\u00c5s", "place": "hamlet"}}, {"type": "node", "id": 7473018575, "lat": 58.9471483, "lon": 13.1492989, "tags": {"name": "Fl\u00e4skerud", "place": "hamlet"}}, {"type": "node", "id": 7473022741, "lat": 58.9353617, "lon": 13.167146, "tags": {"name": "S\u00f6rbyn", "place": "hamlet"}}, {"type": "node", "id": 7473023534, "lat": 58.9446231, "lon": 13.1813084, "tags": {"name": "Rud", "place": "hamlet"}}, {"type": "node", "id": 7473026500, "lat": 58.9190907, "lon": 13.1563524, "tags": {"name": "K\u00e4rvinge", "place": "hamlet"}}, {"type": "node", "id": 7473028508, "lat": 59.0015739, "lon": 13.1531293, "tags": {"name": "H\u00e4lleshult", "place": "hamlet"}}, {"type": "node", "id": 7473030164, "lat": 58.9966752, "lon": 13.135456, "tags": {"name": "Barud", "place": "hamlet"}}, {"type": "node", "id": 7473031157, "lat": 59.0240431, "lon": 13.1390127, "tags": {"name": "Gullsj\u00f6", "place": "hamlet"}}, {"type": "node", "id": 7473040438, "lat": 59.0545716, "lon": 13.1543245, "tags": {"name": "Backa", "place": "hamlet"}}, {"type": "node", "id": 7473044209, "lat": 59.0360195, "lon": 13.1690493, "tags": {"name": "Olserud", "place": "hamlet"}}, {"type": "node", "id": 7473045563, "lat": 59.0413975, "lon": 13.1592431, "tags": {"name": "Torverud", "place": "hamlet"}}, {"type": "node", "id": 7473048070, "lat": 59.06206, "lon": 13.1643318, "tags": {"name": "Finserud", "place": "hamlet"}}, {"type": "node", "id": 7473055069, "lat": 59.0266373, "lon": 13.1639148, "tags": {"name": "Ekhammar", "place": "hamlet"}}, {"type": "node", "id": 7473055464, "lat": 58.9728541, "lon": 13.0913455, "tags": {"name": "K\u00e5rud", "place": "hamlet"}}, {"type": "node", "id": 7473063823, "lat": 58.975193, "lon": 13.1238128, "tags": {"name": "Torp", "place": "hamlet"}}, {"type": "node", "id": 7473065149, "lat": 58.9524734, "lon": 13.1809613, "tags": {"name": "Valdersrud", "place": "hamlet"}}, {"type": "node", "id": 7473065911, "lat": 58.9479079, "lon": 13.138062, "tags": {"name": "D\u00e5verud", "place": "hamlet"}}, {"type": "node", "id": 7473065927, "lat": 58.9706999, "lon": 13.1081775, "tags": {"name": "V\u00e4nsberg", "place": "hamlet"}}, {"type": "node", "id": 7473070629, "lat": 58.9384047, "lon": 13.1238541, "tags": {"name": "H\u00f6vik", "place": "hamlet"}}, {"type": "node", "id": 7473077608, "lat": 58.9746234, "lon": 13.1811293, "tags": {"name": "Hult", "place": "hamlet"}}, {"type": "node", "id": 7473083432, "lat": 58.9790459, "lon": 13.1320545, "tags": {"name": "Berg", "place": "hamlet"}}, {"type": "node", "id": 7473086156, "lat": 59.0398186, "lon": 13.1370226, "tags": {"name": "Smedstad", "place": "hamlet"}}, {"type": "node", "id": 7473091707, "lat": 59.0161825, "lon": 13.1658915, "tags": {"name": "Byn", "place": "hamlet"}}, {"type": "node", "id": 7473093109, "lat": 58.9598496, "lon": 13.1293344, "tags": {"name": "H\u00e4lle", "place": "hamlet"}}, {"type": "node", "id": 7473093213, "lat": 58.9718001, "lon": 13.1941883, "tags": {"name": "Bodaholm", "place": "hamlet"}}, {"type": "node", "id": 7473096738, "lat": 58.9964098, "lon": 13.1176038, "tags": {"name": "T\u00e5rsta", "place": "hamlet"}}, {"type": "node", "id": 7473097442, "lat": 58.993226, "lon": 13.1489884, "tags": {"name": "G\u00f6tterstad", "place": "hamlet"}}, {"type": "node", "id": 7473471144, "lat": 59.0664934, "lon": 13.1105171, "tags": {"name": "Siggerud", "place": "hamlet"}}, {"type": "node", "id": 7492157570, "lat": 58.7816276, "lon": 13.8935522, "tags": {"name": "M\u00f6rtevik", "place": "hamlet"}}, {"type": "node", "id": 7492193660, "lat": 58.7426507, "lon": 13.8651681, "tags": {"name": "Snapen", "place": "hamlet"}}, {"type": "node", "id": 7492397272, "lat": 58.771032, "lon": 13.9055293, "tags": {"name": "Karlsvik", "place": "hamlet"}}, {"type": "node", "id": 7492422547, "lat": 58.7733028, "lon": 13.8957361, "tags": {"name": "Eriksviken", "place": "hamlet"}}, {"type": "node", "id": 7493177040, "lat": 58.7781506, "lon": 13.9037389, "tags": {"name": "Sundsmarken", "place": "hamlet"}}, {"type": "node", "id": 7493307347, "lat": 58.7847164, "lon": 13.8228341, "tags": {"name": "Prosterud", "place": "hamlet"}}, {"type": "node", "id": 7493692714, "lat": 58.8114553, "lon": 13.8578381, "tags": {"name": "Klippingsberg", "place": "hamlet"}}, {"type": "node", "id": 7493735838, "lat": 58.8040643, "lon": 13.8578305, "tags": {"name": "\u00c4leviken", "place": "hamlet"}}, {"type": "node", "id": 7493777986, "lat": 58.8024881, "lon": 13.8828735, "tags": {"name": "Eken\u00e4s", "place": "hamlet"}}, {"type": "node", "id": 7493843051, "lat": 58.7856788, "lon": 13.8432877, "tags": {"name": "Sundet", "place": "hamlet"}}, {"type": "node", "id": 7493871175, "lat": 58.7842812, "lon": 13.8656477, "tags": {"name": "Sunds\u00f6ren", "place": "hamlet"}}, {"type": "node", "id": 7493893432, "lat": 58.789395, "lon": 13.8725971, "tags": {"name": "Hemmingstorp", "place": "hamlet"}}, {"type": "node", "id": 7493905040, "lat": 58.7937278, "lon": 13.8513843, "tags": {"name": "Nolg\u00e5rden", "place": "hamlet"}}, {"type": "node", "id": 7495340664, "lat": 58.6497104, "lon": 13.8277043, "tags": {"name": "Oxhagen", "place": "hamlet"}}, {"type": "node", "id": 7495344758, "lat": 58.6741775, "lon": 13.8464733, "tags": {"name": "Fors", "place": "hamlet"}}, {"type": "node", "id": 7495352368, "lat": 58.6961756, "lon": 13.9074341, "tags": {"name": "Bengtstorp", "place": "hamlet"}}, {"type": "node", "id": 7495362186, "lat": 58.6550676, "lon": 13.8370688, "tags": {"name": "K\u00e4ckestad", "place": "hamlet"}}, {"type": "node", "id": 7495371816, "lat": 58.7037649, "lon": 13.9247908, "tags": {"name": "Torstenstorp", "place": "hamlet"}}, {"type": "node", "id": 7495380204, "lat": 58.7281114, "lon": 13.9095444, "tags": {"name": "Ingarud", "place": "hamlet"}}, {"type": "node", "id": 7495386414, "lat": 58.7154653, "lon": 13.889934, "tags": {"name": "Brodderud", "place": "hamlet"}}, {"type": "node", "id": 7495432305, "lat": 58.7102111, "lon": 13.9273759, "tags": {"name": "Backen", "place": "hamlet"}}, {"type": "node", "id": 7495549453, "lat": 58.6762646, "lon": 13.8064272, "tags": {"name": "Hindsberg", "place": "hamlet"}}, {"type": "node", "id": 7495550478, "lat": 58.6446876, "lon": 13.6474122, "tags": {"name": "K\u00e4llstorp", "place": "hamlet"}}, {"type": "node", "id": 7495551449, "lat": 58.6471572, "lon": 13.6961626, "tags": {"name": "Tredingen", "place": "hamlet"}}, {"type": "node", "id": 7495579988, "lat": 58.6645902, "lon": 13.811613, "tags": {"name": "Karleby", "place": "hamlet"}}, {"type": "node", "id": 7495580414, "lat": 58.6567836, "lon": 13.8103313, "tags": {"name": "Karleby g\u00e5rd", "place": "hamlet"}}, {"type": "node", "id": 7495586923, "lat": 58.6749128, "lon": 13.7621979, "tags": {"name": "Svintorp", "place": "hamlet"}}, {"type": "node", "id": 7495586934, "lat": 58.6513169, "lon": 13.6405527, "tags": {"name": "Tolstorp", "place": "hamlet"}}, {"type": "node", "id": 7495589025, "lat": 58.6639594, "lon": 13.5818679, "tags": {"name": "Bernstorp", "place": "hamlet"}}, {"type": "node", "id": 7495589861, "lat": 58.6728879, "lon": 13.7443045, "tags": {"name": "Ryssatorp", "place": "hamlet"}}, {"type": "node", "id": 7495591298, "lat": 58.6760244, "lon": 13.7585787, "tags": {"name": "F\u00e5gelk\u00e4rr", "place": "hamlet"}}, {"type": "node", "id": 7495591304, "lat": 58.6695941, "lon": 13.657203, "tags": {"name": "Fj\u00e4ll", "place": "hamlet"}}, {"type": "node", "id": 7495595799, "lat": 58.6917013, "lon": 13.6359973, "tags": {"name": "Gullsj\u00f6", "place": "hamlet"}}, {"type": "node", "id": 7495598454, "lat": 58.6696731, "lon": 13.9364563, "tags": {"name": "Bj\u00f6rken\u00e4s", "place": "hamlet"}}, {"type": "node", "id": 7495604823, "lat": 58.669668, "lon": 13.7057683, "tags": {"name": "\u00c5sen", "place": "hamlet"}}, {"type": "node", "id": 7495611516, "lat": 58.6447998, "lon": 13.7410104, "tags": {"name": "Trank\u00e4rr", "place": "hamlet"}}, {"type": "node", "id": 7495611689, "lat": 58.6785178, "lon": 13.6264362, "tags": {"name": "Hallen", "place": "hamlet"}}, {"type": "node", "id": 7495617489, "lat": 58.6747758, "lon": 13.6251999, "tags": {"name": "H\u00f6garud", "place": "hamlet"}}, {"type": "node", "id": 7497434212, "lat": 58.6809168, "lon": 13.1564558, "tags": {"name": "Granvik", "place": "hamlet"}}, {"type": "node", "id": 7497436672, "lat": 58.6744925, "lon": 13.19155, "tags": {"name": "Berg", "place": "hamlet"}}, {"type": "node", "id": 7497437834, "lat": 58.6695228, "lon": 13.1524037, "tags": {"name": "Eke", "place": "hamlet"}}, {"type": "node", "id": 7498203596, "lat": 58.6459701, "lon": 13.5545014, "tags": {"name": "Bj\u00f6rstorp", "place": "hamlet"}}, {"type": "node", "id": 7498203597, "lat": 58.6668544, "lon": 13.1873066, "tags": {"name": "Ekebo", "place": "hamlet"}}, {"type": "node", "id": 7498224535, "lat": 58.6509894, "lon": 13.1400242, "tags": {"name": "Ullered", "place": "hamlet"}}, {"type": "node", "id": 7498229292, "lat": 58.6637633, "lon": 13.1496512, "tags": {"name": "L\u00e5k\u00e4lle", "place": "hamlet"}}, {"type": "node", "id": 7498292388, "lat": 58.6805214, "lon": 13.2122714, "tags": {"name": "Husbacken", "place": "hamlet"}}, {"type": "node", "id": 7837957963, "lat": 58.7701749, "lon": 13.7689215, "tags": {"name": "Boda", "place": "hamlet"}}, {"type": "node", "id": 7837966718, "lat": 58.7600011, "lon": 13.7519625, "tags": {"name": "Sandb\u00e4cken", "place": "hamlet"}}, {"type": "node", "id": 7837995141, "lat": 58.7646077, "lon": 13.7610063, "tags": {"name": "Fj\u00e4llag\u00e5rden", "place": "hamlet"}}, {"type": "node", "id": 7837995144, "lat": 58.7728338, "lon": 13.753906, "tags": {"name": "Skr\u00e4ddaretorp", "place": "hamlet"}}, {"type": "node", "id": 7924196561, "lat": 58.8142666, "lon": 13.7185127, "tags": {"name": "Ryan", "place": "hamlet"}}, {"type": "node", "id": 7924206066, "lat": 58.8136835, "lon": 13.7516026, "tags": {"name": "Skogshyddan", "place": "hamlet"}}, {"type": "node", "id": 7924215830, "lat": 58.8157192, "lon": 13.7203846, "tags": {"name": "Backebolet", "place": "hamlet"}}, {"type": "node", "id": 7924233509, "lat": 58.8201522, "lon": 13.734563, "tags": {"name": "Djupbroliden", "place": "hamlet"}}, {"type": "node", "id": 7924241115, "lat": 58.8113748, "lon": 13.7128264, "tags": {"name": "Laxhall", "place": "hamlet"}}, {"type": "node", "id": 8166015947, "lat": 58.6558901, "lon": 13.1639546, "tags": {"name": "Otterstad", "place": "hamlet"}}]}