{"version": 0.6, "generator": "Overpass API 0.7.61.5 4133829e", "osm3s": {"timestamp_osm_base": "2024-03-05T11:04:15Z", "copyright": "The data included in this document is from www.openstreetmap.org. The data is made available under ODbL."}, "elements": [{"type": "node", "id": 1806015006, "lat": 5.9555773, "lon": -1.7385396, "tags": {"name": "Buabenso", "place": "village"}}, {"type": "node", "id": 1806015012, "lat": 5.9678765, "lon": -1.7873448, "tags": {"capital": "6", "name": "Dunkwa-on-Offin", "place": "town", "short_name": "Dunkwa", "wikidata": "Q5315398"}}, {"type": "node", "id": 1806015014, "lat": 5.9177779, "lon": -1.6801652, "tags": {"name": "Kyekyewre", "place": "village"}}, {"type": "node", "id": 1845268501, "lat": 6.0919261, "lon": -1.9852972, "tags": {"place": "village"}}, {"type": "node", "id": 1845268506, "lat": 6.1304053, "lon": -2.0139058, "tags": {"place": "village"}}, {"type": "node", "id": 1845268507, "lat": 6.1522865, "lon": -1.9353383, "tags": {"place": "hamlet"}}, {"type": "node", "id": 1845268520, "lat": 6.1581335, "lon": -2.0043483, "tags": {"place": "village"}}, {"type": "node", "id": 1845268525, "lat": 6.1603009, "lon": -1.9163578, "tags": {"place": "village"}}, {"type": "node", "id": 1845268530, "lat": 6.1608482, "lon": -1.9239039, "tags": {"place": "hamlet"}}, {"type": "node", "id": 1845268531, "lat": 6.1682911, "lon": -1.9634925, "tags": {"place": "village"}}, {"type": "node", "id": 1845268532, "lat": 6.1744604, "lon": -1.9252201, "tags": {"place": "village"}}, {"type": "node", "id": 1845268533, "lat": 6.1875429, "lon": -1.9019404, "tags": {"place": "village"}}, {"type": "node", "id": 1845268547, "lat": 6.1951513, "lon": -1.9936827, "tags": {"place": "village"}}, {"type": "node", "id": 1845268552, "lat": 6.2031074, "lon": -1.9099316, "tags": {"place": "village"}}, {"type": "node", "id": 1845268555, "lat": 6.2094188, "lon": -1.878371, "tags": {"name": "Huu", "place": "village"}}, {"type": "node", "id": 1845268556, "lat": 6.2217746, "lon": -1.8871067, "tags": {"place": "village"}}, {"type": "node", "id": 1845268573, "lat": 6.2467817, "lon": -1.8901196, "tags": {"place": "village"}}, {"type": "node", "id": 1845268578, "lat": 6.2481296, "lon": -1.8868302, "tags": {"place": "village"}}, {"type": "node", "id": 1845268581, "lat": 6.250503, "lon": -1.9159712, "tags": {"place": "village"}}, {"type": "node", "id": 1845268582, "lat": 6.2514296, "lon": -1.8701459, "tags": {"place": "village"}}, {"type": "node", "id": 1845268584, "lat": 6.2582532, "lon": -1.9056608, "tags": {"place": "village"}}, {"type": "node", "id": 1845268603, "lat": 6.2606427, "lon": -1.9352447, "tags": {"place": "village"}}, {"type": "node", "id": 1845268604, "lat": 6.2871065, "lon": -1.8824592, "tags": {"place": "village"}}, {"type": "node", "id": 1845268606, "lat": 6.2923393, "lon": -1.9029449, "tags": {"place": "village"}}, {"type": "node", "id": 2157353481, "lat": 6.2431687, "lon": -1.668447, "tags": {"name": "Adansi Kyekyewere", "place": "village"}}, {"type": "node", "id": 2157353482, "lat": 6.298552, "lon": -1.628858, "tags": {"name": "Akrokerri", "place": "town", "wikidata": "Q4701651"}}, {"type": "node", "id": 2157353483, "lat": 6.283155, "lon": -1.6547758, "tags": {"name": "Kwapia", "place": "village"}}, {"type": "node", "id": 2157354250, "lat": 6.253211, "lon": -1.6285677, "tags": {"name": "Aiyinabrim", "place": "village"}}, {"type": "node", "id": 2159240780, "lat": 6.1557555, "lon": -1.6283526, "tags": {"name": "Gyimiso Kakraba", "place": "village"}}, {"type": "node", "id": 2159240989, "lat": 6.1733541, "lon": -1.6275117, "tags": {"name": "Diewuoso", "place": "village"}}, {"type": "node", "id": 2160830377, "lat": 6.0540445, "lon": -1.7322554, "tags": {"name": "Amponyase", "place": "village"}}, {"type": "node", "id": 2160830386, "lat": 6.1078804, "lon": -1.6915301, "tags": {"name": "Kokotintin", "place": "village"}}, {"type": "node", "id": 2160831707, "lat": 6.0843777, "lon": -1.6972575, "tags": {"alt_name": "Woamasi", "name": "Wuamasi", "place": "village"}}, {"type": "node", "id": 2177559291, "lat": 6.0625895, "lon": -1.9810981, "tags": {"name": "Abora", "place": "village"}}, {"type": "node", "id": 2177559294, "lat": 6.1190957, "lon": -1.65317, "tags": {"capital": "6", "name": "Akrofuom", "place": "town", "wikidata": "Q4701649"}}, {"type": "node", "id": 2177559298, "lat": 6.0279834, "lon": -1.9485443, "tags": {"name": "Bremang", "place": "village"}}, {"type": "node", "id": 2177559299, "lat": 6.0475081, "lon": -1.960759, "tags": {"name": "Domenasi", "place": "village"}}, {"type": "node", "id": 2177559300, "lat": 6.0243012, "lon": -1.946706, "tags": {"name": "Domenose", "place": "hamlet"}}, {"type": "node", "id": 2177559301, "lat": 5.9996621, "lon": -1.9193595, "tags": {"name": "Nkotumso", "place": "village"}}, {"type": "node", "id": 2177559334, "lat": 6.032093, "lon": -1.948939, "tags": {"place": "hamlet"}}, {"type": "node", "id": 2177559340, "lat": 6.0344114, "lon": -1.8825755, "tags": {"name": "Abrobuasen", "place": "village"}}, {"type": "node", "id": 2177559414, "lat": 6.040665, "lon": -2.0101853, "tags": {"place": "village"}}, {"type": "node", "id": 2177559415, "lat": 6.0403385, "lon": -1.8569951, "tags": {"place": "village"}}, {"type": "node", "id": 2177559496, "lat": 6.0726192, "lon": -2.014131, "tags": {"place": "village"}}, {"type": "node", "id": 2177559534, "lat": 6.0896858, "lon": -2.0052038, "tags": {"place": "village"}}, {"type": "node", "id": 2177559685, "lat": 6.1520354, "lon": -1.7000529, "tags": {"name": "Sanso", "place": "village"}}, {"type": "node", "id": 2177559804, "lat": 6.181265, "lon": -1.8849153, "tags": {"place": "village"}}, {"type": "node", "id": 2183486467, "lat": 6.1135911, "lon": -2.0223312, "tags": {"name": "Nyinawonu", "place": "village"}}, {"type": "node", "id": 2183486535, "lat": 6.1494299, "lon": -1.9365972, "tags": {"place": "hamlet"}}, {"type": "node", "id": 2183486751, "lat": 6.189177, "lon": -1.91849, "tags": {"place": "hamlet"}}, {"type": "node", "id": 2183486833, "lat": 6.2144597, "lon": -1.8928388, "tags": {"place": "hamlet"}}, {"type": "node", "id": 2183486858, "lat": 6.2168719, "lon": -1.8974607, "tags": {"place": "hamlet"}}, {"type": "node", "id": 3370038470, "lat": 5.9059572, "lon": -1.8295463, "tags": {"name": "Asikuma", "place": "village"}}, {"type": "node", "id": 3370038471, "lat": 5.9602024, "lon": -1.8951464, "tags": {"name": "Ayanfuri", "place": "town", "wikidata": "Q4830937"}}, {"type": "node", "id": 3370038474, "lat": 5.9071098, "lon": -1.8495605, "tags": {"name": "Merechuso", "place": "village"}}, {"type": "node", "id": 3370038475, "lat": 5.885739, "lon": -1.8575511, "tags": {"name": "Nsuaem", "place": "village"}}, {"type": "node", "id": 3786163713, "lat": 5.9256621, "lon": -1.7011362, "tags": {"name": "Ajuman", "place": "village"}}, {"type": "node", "id": 3786163715, "lat": 5.8764948, "lon": -1.7577807, "tags": {"name": "Buabin", "place": "village"}}, {"type": "node", "id": 3786163716, "lat": 5.8731241, "lon": -1.8134456, "tags": {"name": "Esasi", "place": "village"}}, {"type": "node", "id": 3786163717, "lat": 5.8758806, "lon": -1.8591582, "tags": {"name": "Nsuaem", "place": "village"}}, {"type": "node", "id": 3786165510, "lat": 5.8757201, "lon": -1.7035682, "tags": {"place": "hamlet"}}, {"type": "node", "id": 3786166060, "lat": 5.8869913, "lon": -1.7305203, "tags": {"place": "village"}}, {"type": "node", "id": 3786166504, "lat": 5.9065696, "lon": -1.7143875, "tags": {"place": "hamlet"}}, {"type": "node", "id": 3786166886, "lat": 5.916709, "lon": -1.7168646, "tags": {"place": "hamlet"}}, {"type": "node", "id": 3786166933, "lat": 5.9189404, "lon": -1.7705784, "tags": {"name": "Memmpeasem", "place": "hamlet"}}, {"type": "node", "id": 3786167154, "lat": 5.9241421, "lon": -1.691347, "tags": {"place": "village"}}, {"type": "node", "id": 3786167326, "lat": 5.9279847, "lon": -1.7216865, "tags": {"place": "hamlet"}}, {"type": "node", "id": 3786167430, "lat": 5.9408893, "lon": -1.7634706, "tags": {"name": "Abuakwa Nkwanta", "place": "village"}}, {"type": "node", "id": 3786167623, "lat": 5.9541392, "lon": -1.7562614, "tags": {"name": "Akyempem", "place": "village"}}, {"type": "node", "id": 3786167652, "lat": 5.9562191, "lon": -1.751991, "tags": {"name": "Abuakwa Breman", "place": "village"}}, {"type": "node", "id": 3786167789, "lat": 5.9579675, "lon": -1.759462, "tags": {"place": "hamlet"}}, {"type": "node", "id": 4293849752, "lat": 6.211542, "lon": -1.6894045, "tags": {"capital": "6", "name": "Obuasi", "name:ar": "\u0623\u0648\u0628\u0648\u0627\u0633\u064a", "place": "city", "population": "175000", "wikidata": "Q1020901", "wikipedia": "en:Obuasi"}}, {"type": "node", "id": 4333653652, "lat": 5.9589742, "lon": -1.8358477}, {"type": "node", "id": 4333653653, "lat": 5.9565064, "lon": -1.8368884}, {"type": "node", "id": 4333653659, "lat": 5.96025, "lon": -1.8345785}, {"type": "node", "id": 5045225986, "lat": 6.1330314, "lon": -1.9971147, "tags": {"place": "village"}}, {"type": "node", "id": 5351792886, "lat": 6.1688703, "lon": -1.8205011, "tags": {"name": "Mile Fifteen", "place": "village"}}, {"type": "node", "id": 5351799858, "lat": 6.078713, "lon": -1.8568504, "tags": {"name": "Nimebeso", "place": "village"}}, {"type": "node", "id": 5351799859, "lat": 6.093758, "lon": -1.8435788, "tags": {"place": "village"}}, {"type": "node", "id": 5351799860, "lat": 6.1218227, "lon": -1.8337834, "tags": {"place": "village"}}, {"type": "node", "id": 5351799861, "lat": 6.1306315, "lon": -1.8236902, "tags": {"place": "village"}}, {"type": "node", "id": 5887727282, "lat": 6.1145847, "lon": -1.6640961, "tags": {"name": "Okyerekurom", "place": "village"}}, {"type": "node", "id": 7728441987, "lat": 6.2947418, "lon": -1.6211714, "tags": {"name": "Bobriase", "place": "village"}}, {"type": "node", "id": 7728450611, "lat": 6.2797784, "lon": -1.6445656, "tags": {"name": "Patakro", "place": "village"}}, {"type": "node", "id": 7801769529, "lat": 6.3107478, "lon": -1.9761712, "tags": {"name": "Afraso", "place": "village"}}, {"type": "node", "id": 7801769967, "lat": 6.2352717, "lon": -1.9977683, "tags": {"name": "Bonsaiso", "place": "village"}}, {"type": "node", "id": 7801769979, "lat": 6.2492805, "lon": -1.9948769, "tags": {"name": "Tontokrom", "place": "town"}}, {"type": "node", "id": 8600354961, "lat": 6.1572298, "lon": -1.6555495, "tags": {"alt_name": "Adansi Odumasi", "name": "Odumase", "place": "village"}}, {"type": "node", "id": 8642842947, "lat": 5.9417093, "lon": -1.7718217, "tags": {"name": "Mmradan", "place": "village"}}, {"type": "node", "id": 9193844648, "lat": 5.8931, "lon": -1.7543464, "tags": {"name": "Sobroso", "place": "village"}}, {"type": "node", "id": 9518751655, "lat": 6.2919336, "lon": -1.972081, "tags": {"name": "Datano", "place": "village"}}, {"type": "node", "id": 9529214974, "lat": 5.9739387, "lon": -1.8726812, "tags": {"name": "Wompam", "place": "town"}}, {"type": "node", "id": 11006225424, "lat": 5.959278, "lon": -1.8339112, "tags": {"name": "Kwame Prakrom", "place": "village"}}, {"type": "node", "id": 11034565753, "lat": 5.9594091, "lon": -1.8389683}, {"type": "node", "id": 11034565756, "lat": 5.9571025, "lon": -1.8397537}, {"type": "node", "id": 11050826912, "lat": 5.9608302, "lon": -1.8322944}, {"type": "node", "id": 11050826913, "lat": 5.9607084, "lon": -1.8309573}, {"type": "node", "id": 11050826914, "lat": 5.9580182, "lon": -1.8309369}, {"type": "node", "id": 11050826915, "lat": 5.9555919, "lon": -1.8332947}, {"type": "node", "id": 11050826916, "lat": 5.9544853, "lon": -1.8351116}, {"type": "node", "id": 11050826917, "lat": 5.9539777, "lon": -1.8375919}, {"type": "node", "id": 11050826918, "lat": 5.9551553, "lon": -1.8381124}, {"type": "node", "id": 11050826919, "lat": 5.9596744, "lon": -1.8351114}, {"type": "node", "id": 11050827750, "lat": 5.9594859, "lon": -1.8352657}, {"type": "node", "id": 11050827752, "lat": 5.9602981, "lon": -1.8385469}, {"type": "node", "id": 11050827753, "lat": 5.9608616, "lon": -1.8358432}, {"type": "node", "id": 11050827754, "lat": 5.9607847, "lon": -1.8342382}, {"type": "node", "id": 11050827755, "lat": 5.9557737, "lon": -1.8394481}, {"type": "node", "id": 11050827756, "lat": 5.956431, "lon": -1.8399802}, {"type": "node", "id": 11050827757, "lat": 5.9590262, "lon": -1.8391048}, {"type": "node", "id": 11050827758, "lat": 5.9601103, "lon": -1.8387185}, {"type": "node", "id": 11050827759, "lat": 5.9583335, "lon": -1.8393385}, {"type": "node", "id": 11050827760, "lat": 5.9597098, "lon": -1.8388612}, {"type": "node", "id": 11050827763, "lat": 5.9574117, "lon": -1.8365879}, {"type": "node", "id": 11057135368, "lat": 5.9588115, "lon": -1.8360826}, {"type": "node", "id": 11494128180, "lat": 6.144355, "lon": -1.7187944, "tags": {"name": "Nyamebekyere No.1", "place": "village"}}, {"type": "node", "id": 11494128181, "lat": 6.128978, "lon": -1.751461, "tags": {"name": "Adinkra", "place": "village"}}, {"type": "node", "id": 11494128182, "lat": 6.1402561, "lon": -1.7259023, "tags": {"name": "Suhyenso", "place": "village"}}, {"type": "node", "id": 11494128183, "lat": 6.1453204, "lon": -1.7421725, "tags": {"name": "Tweapease", "place": "village"}}, {"type": "node", "id": 11494128184, "lat": 6.1751103, "lon": -1.7366365, "tags": {"name": "Apitiso No.2", "place": "village"}}, {"type": "node", "id": 11494128185, "lat": 6.220388, "lon": -1.8262652, "tags": {"name": "Mile Fourteen", "place": "village"}}, {"type": "node", "id": 11494128186, "lat": 6.2084557, "lon": -1.7754695, "tags": {"name": "Hia", "place": "village"}}, {"type": "node", "id": 11494128187, "lat": 6.2233157, "lon": -1.7724359, "tags": {"name": "Mile Nine", "place": "village"}}, {"type": "node", "id": 11494128188, "lat": 6.2997293, "lon": -1.838496, "tags": {"name": "Abuakwaa", "place": "village"}}, {"type": "node", "id": 11494128189, "lat": 6.2799871, "lon": -1.6882923, "tags": {"name": "Aketechieso", "place": "village"}}, {"type": "node", "id": 11512013697, "lat": 6.2531573, "lon": -1.6638172, "tags": {"name": "Esikofokrom", "place": "village"}}, {"type": "node", "id": 11512013698, "lat": 6.2498618, "lon": -1.671617, "tags": {"name": "Dadwen", "place": "village"}}, {"type": "node", "id": 11512013699, "lat": 6.3030298, "lon": -1.6811107, "tags": {"name": "Adomanu", "place": "village"}}, {"type": "node", "id": 11512013700, "lat": 6.3007583, "lon": -1.6631144, "tags": {"name": "Achiasi", "place": "village"}}, {"type": "node", "id": 11512013701, "lat": 6.3009396, "lon": -1.6586888, "tags": {"name": "Abedwum", "place": "village"}}, {"type": "node", "id": 11512013702, "lat": 6.2809362, "lon": -1.6615333, "tags": {"name": "Wiawso", "place": "village"}}, {"type": "node", "id": 11619978385, "lat": 6.1634458, "lon": -1.7104484, "tags": {"name": "Anwona", "place": "village"}}, {"type": "node", "id": 11619978390, "lat": 6.2069335, "lon": -1.7387245, "tags": {"name": "Ntosua", "place": "village"}}, {"type": "node", "id": 11619978392, "lat": 6.2359288, "lon": -1.7149976, "tags": {"name": "Mammiriwa No.1", "place": "village"}}, {"type": "node", "id": 11619978393, "lat": 6.2309705, "lon": -1.7120987, "tags": {"name": "Mammiriwa No.2", "place": "village"}}, {"type": "node", "id": 11619978394, "lat": 6.2458728, "lon": -1.7008848, "tags": {"name": "Adaase", "place": "village"}}, {"type": "node", "id": 11620065608, "lat": 6.1643661, "lon": -1.6544132, "tags": {"name": "Kwameduakrom", "place": "village"}}, {"type": "way", "id": 1190145426, "nodes": [11050827752, 11050827753, 11050827754, 4333653659, 11050826919, 11050827750, 4333653652, 11057135368, 11050827763, 4333653653, 11050827755, 11050827756, 11034565756, 11050827759, 11050827757, 11034565753, 11050827760, 11050827758, 11050827752], "tags": {"name": "Mpesiem", "place": "village", "population": "0"}}, {"type": "way", "id": 1190146439, "nodes": [11050827754, 11050826912, 11050826913, 11050826914, 11050826915, 11050826916, 11050826917, 11050826918, 4333653653, 11057135368, 11050826919, 11050827754], "tags": {"name": "Kwameprakrom", "place": "village"}}]}