{"version": 0.6, "generator": "Overpass API 0.7.61.5 4133829e", "osm3s": {"timestamp_osm_base": "2024-03-06T11:11:30Z", "copyright": "The data included in this document is from www.openstreetmap.org. The data is made available under ODbL."}, "elements": [{"type": "node", "id": 2488507067, "lat": 33.900216, "lon": 44.936919, "tags": {"alt_name": "\u0627\u0644\u0645\u0631\u0643\u0632 \u0627\u0644\u0635\u062d\u064a \u0641\u064a \u0627\u0644\u062d\u0645\u064a\u062f\u064a\u0629", "amenity": "hospital", "int_name": "Al Markaz a\u015f \u015ei\u1e29\u1e29\u012b f\u012b al \u1e28am\u012bd\u012byah, \u0627\u0644\u0645\u0631\u0643\u0632 \u0627\u0644\u0635\u062d\u064a \u0641\u064a \u0627\u0644\u062d\u0645\u064a\u062f\u064a\u0629, Al Markaz as Sihhi fi al Hamidiyah, \u0627\u0644\u0645\u0631\u0643\u0632 \u0627\u0644\u0635\u062d\u064a \u0641\u064a \u0627\u0644\u062d\u0645\u064a\u062f\u064a\u0629", "is_in": "Iraq , \u062c\u0645\u0647\u0648\u0631\u064a\u0629 \u0627\u0644\u0639\u0631\u0627\u0642", "name": "\u0627\u0644\u0645\u0631\u0643\u0632 \u0627\u0644\u0635\u062d\u064a \u0641\u064a \u0627\u0644\u062d\u0645\u064a\u062f\u064a\u0629", "name:ar": "\u0627\u0644\u0645\u0631\u0643\u0632 \u0627\u0644\u0635\u062d\u064a \u0641\u064a \u0627\u0644\u062d\u0645\u064a\u062f\u064a\u0629", "name:ar1": "\u0627\u0644\u0645\u0631\u0643\u0632 \u0627\u0644\u0635\u062d\u064a \u0641\u064a \u0627\u0644\u062d\u0645\u064a\u062f\u064a\u0629", "name:de": "Al Markaz as Sihhi fi al Hamidiyah", "name:en": "Al Markaz as Sihhi fi al Hamidiyah", "name:fr": "Al Markaz as Sihhi fi al Hamidiyah"}}, {"type": "node", "id": 2489330417, "lat": 34.0903856, "lon": 45.0627309, "tags": {"alt_name": "\u0645\u0633\u062a\u0648\u0635\u0641 \u0645\u062c\u0645\u0639 \u062d\u0645\u0631\u064a\u0646", "amenity": "hospital", "int_name": "Mustaw\u015faf Mujamma \u1e28amr\u012bn, Mustawsaf Mujamma Hamrin", "is_in": "Iraq , \u062c\u0645\u0647\u0648\u0631\u064a\u0629 \u0627\u0644\u0639\u0631\u0627\u0642", "name": "\u0645\u0633\u062a\u0648\u0635\u0641 \u0645\u062c\u0645\u0639 \u062d\u0645\u0631\u064a\u0646", "name:ar": "\u0645\u0633\u062a\u0648\u0635\u0641 \u0645\u062c\u0645\u0639 \u062d\u0645\u0631\u064a\u0646", "name:ar1": "\u0645\u0633\u062a\u0648\u0635\u0641 \u0645\u062c\u0645\u0639 \u062d\u0645\u0631\u064a\u0646", "name:de": "Mustawsaf Mujamma Hamrin", "name:en": "Mustawsaf Mujamma Hamrin", "name:fr": "Mustawsaf Mujamma Hamrin"}}, {"type": "node", "id": 2489330493, "lat": 34.0901663, "lon": 45.0626686, "tags": {"alt_name": "\u0645\u0633\u062a\u0648\u0635\u0641 \u062c\u0645\u0639 \u062d\u0645\u0631\u064a\u0646", "amenity": "hospital", "int_name": "\u0645\u0633\u062a\u0648\u0635\u0641 \u062c\u0645\u0639 \u062d\u0645\u0631\u064a\u0646, \u0645\u0633\u062a\u0648\u0635\u0641 \u062c\u0645\u0639 \u062d\u0645\u0631\u064a\u0646", "is_in": "Iraq , \u062c\u0645\u0647\u0648\u0631\u064a\u0629 \u0627\u0644\u0639\u0631\u0627\u0642", "name": "\u0645\u0633\u062a\u0648\u0635\u0641 \u062c\u0645\u0639 \u062d\u0645\u0631\u064a\u0646", "name:ar": "\u0645\u0633\u062a\u0648\u0635\u0641 \u062c\u0645\u0639 \u062d\u0645\u0631\u064a\u0646", "name:ar1": "\u0645\u0633\u062a\u0648\u0635\u0641 \u062c\u0645\u0639 \u062d\u0645\u0631\u064a\u0646", "name:de": "\u0645\u0633\u062a\u0648\u0635\u0641 \u062c\u0645\u0639 \u062d\u0645\u0631\u064a\u0646", "name:en": "\u0645\u0633\u062a\u0648\u0635\u0641 \u062c\u0645\u0639 \u062d\u0645\u0631\u064a\u0646", "name:fr": "\u0645\u0633\u062a\u0648\u0635\u0641 \u062c\u0645\u0639 \u062d\u0645\u0631\u064a\u0646"}}, {"type": "node", "id": 4524803189, "lat": 33.9773171, "lon": 44.9339727, "tags": {"amenity": "hospital", "emergency": "yes", "healthcare": "hospital", "name": "\u0627\u0644\u0645\u0633\u062a\u0634\u0641\u0649 \u0627\u0644\u0639\u0627\u0645 \u0627\u0644\u0645\u0642\u062f\u0627\u062f\u064a\u0647 x", "name:ar": "\u0645\u0633\u062a\u0634\u0641\u0649 \u0627\u0644\u0645\u0642\u062f\u0627\u062f\u064a\u0629 \u0627\u0644\u0639\u0627\u0645", "name:en": "\u0645\u0633\u062a\u0634\u0641\u0649"}}, {"type": "node", "id": 5080180523, "lat": 34.0718361, "lon": 44.8654606, "tags": {"amenity": "hospital", "name": "\u0642\u0637\u0627\u0639 \u0627\u0644\u0645\u0646\u0635\u0648\u0631\u064a\u0629 \u0644\u0644\u0631\u0639\u0627\u064a\u0629 \u0627\u0644\u0635\u062d\u064a\u0629 \u0627\u0644\u0627\u0648\u0644\u064a\u0629", "name:ar": "\u0642\u0637\u0627\u0639 \u0627\u0644\u0645\u0646\u0635\u0648\u0631\u064a\u0629 \u0644\u0644\u0631\u0639\u0627\u064a\u0629 \u0627\u0644\u0635\u062d\u064a\u0629 \u0627\u0644\u0627\u0648\u0644\u064a\u0629"}}, {"type": "node", "id": 6129486286, "lat": 34.0746008, "lon": 44.8622874, "tags": {"addr:street": "\u0634\u0627\u0631\u0639 \u0627\u0644\u0644\u0627\u0632", "amenity": "hospital", "name": "\u0645\u0636\u064a\u0641", "name:ar": "\u062f\u0627\u0631 \u0627\u0644\u0636\u064a\u0627\u0641\u0629 \u0627\u0644\u0627\u0632", "name:en": "Break", "name:ku": "\u0627\u0633\u062a\u0631\u0627\u062d\u0647"}}, {"type": "node", "id": 8178298025, "lat": 34.0974123, "lon": 45.0586785, "tags": {"amenity": "hospital", "healthcare": "hospital", "healthcare:speciality": "general", "name": "\u0645\u0631\u0643\u0632 \u0635\u062d\u064a \u0645\u062c\u0645\u0639 \u062d\u0645\u0631\u064a\u0646"}}, {"type": "node", "id": 8919536381, "lat": 34.0333679, "lon": 45.000118, "tags": {"amenity": "hospital", "name:en": "MANSURIYAT AL JABAL HOSPITAL MILITARY"}}, {"type": "node", "id": 9881207381, "lat": 33.9783439, "lon": 44.9325426}, {"type": "node", "id": 9881207382, "lat": 33.9781139, "lon": 44.9325869}, {"type": "node", "id": 9881207383, "lat": 33.9780612, "lon": 44.9321806}, {"type": "node", "id": 9881207384, "lat": 33.9782896, "lon": 44.9321402}, {"type": "way", "id": 1077714313, "nodes": [9881207381, 9881207382, 9881207383, 9881207384, 9881207381], "tags": {"amenity": "hospital", "healthcare": "hospital", "name": "\u0627\u0644\u0627\u0633\u062a\u0634\u0627\u0631\u064a\u0629"}}]}