{"version": 0.6, "generator": "Overpass API 0.7.61.5 4133829e", "osm3s": {"timestamp_osm_base": "2024-03-05T13:52:05Z", "copyright": "The data included in this document is from www.openstreetmap.org. The data is made available under ODbL."}, "elements": [{"type": "node", "id": 3474080637, "lat": 34.6602786, "lon": 61.1101294, "tags": {"name": "\u0627\u0633\u0644\u0627\u0645 \u0642\u0644\u0639\u0647", "name:en": "Islam Qala", "name:ru": "\u0418\u0441\u043b\u0430\u043c\u043a\u0430\u043b\u0430", "place": "town", "wikidata": "Q4115284", "wikipedia": "en:Islam Qala"}}, {"type": "node", "id": 3917393166, "lat": 34.6545962, "lon": 61.2000821, "tags": {"alt_name": "\u06a9\u0648\u0647\u0633\u062a\u0627\u0646;Kuhsan;Kohistan;Kuhestan", "name": "\u06a9\u0647\u0633\u0627\u0646", "name:en": "Kohsan", "name:ps": "\u06a9\u0647\u0633\u0627\u0646", "name:ru": "\u041a\u043e\u0445\u0441\u0430\u043d", "name:uk": "\u041a\u043e\u0433\u0441\u0430\u043d", "place": "town", "source:name": "GNS", "wikidata": "Q6426147", "wikipedia": "en:Kohsan"}}, {"type": "node", "id": 4382929360, "lat": 34.669691, "lon": 61.088773, "tags": {"alt_name": "Komisari", "name": "\u06a9\u0645\u064a\u0633\u0627\u0631\u06cc\u062a", "name:en": "Kumisarit", "name:ps": "\u06a9\u0645\u064a\u0633\u0627\u0631\u06cc\u062a", "place": "village", "source:name": "GNS"}}, {"type": "node", "id": 4382929361, "lat": 34.689173, "lon": 61.097482, "tags": {"alt_name": "Qalat-e Arbad A`zam;Qalat-i-Arbab A`zam", "name": "\u0642\u0644\u0627\u062a \u0627\u0631\u0628\u0627\u0628 \u0639\u0638\u0645", "name:en": "Qalat-e Arbab A`zam", "name:ps": "\u0642\u0644\u0627\u062a \u0627\u0631\u0628\u0627\u0628 \u0639\u0638\u0645", "place": "village", "source:name": "GNS"}}, {"type": "node", "id": 4382929362, "lat": 34.713017, "lon": 61.09531, "tags": {"alt_name": "Qalat-e Ghazi;Qalat-e Qazi", "name": "\u0642\u0644\u0627\u062a \u063a\u0627\u0632\u06cc", "name:en": "Qalat-i-Ghazi", "name:ps": "\u0642\u0644\u0627\u062a \u063a\u0627\u0632\u06cc", "place": "village", "source:name": "GNS"}}, {"type": "node", "id": 4382929363, "lat": 34.6629435, "lon": 61.1599777, "tags": {"alt_name": "Shamsabad", "name": "\u0634\u0645\u0633 \u0622\u0628\u0627\u062f", "name:en": "Sams Abad", "name:ps": "\u0634\u0645\u0633 \u0622\u0628\u0627\u062f", "place": "village", "source:name": "GNS"}}, {"type": "node", "id": 4382929364, "lat": 34.670402, "lon": 61.145469, "tags": {"name": "\u062a\u0647 \u062e\u0645", "name:en": "Tah Kham", "name:ps": "\u062a\u0647 \u062e\u0645", "place": "village", "source:name": "GNS"}}, {"type": "node", "id": 5688081195, "lat": 34.4195439, "lon": 61.0582635}, {"type": "node", "id": 5688081196, "lat": 34.4182427, "lon": 61.0573691}, {"type": "node", "id": 5688081197, "lat": 34.4161768, "lon": 61.0596295}, {"type": "node", "id": 5688081198, "lat": 34.413923, "lon": 61.0654838}, {"type": "node", "id": 5688081199, "lat": 34.4115349, "lon": 61.0601824}, {"type": "node", "id": 5688081200, "lat": 34.4099116, "lon": 61.0635811}, {"type": "node", "id": 5688081201, "lat": 34.4112532, "lon": 61.066866}, {"type": "node", "id": 5688081202, "lat": 34.4129168, "lon": 61.068167}, {"type": "node", "id": 5688081203, "lat": 34.4121521, "lon": 61.0709152}, {"type": "node", "id": 5688081204, "lat": 34.4134534, "lon": 61.0702648}, {"type": "node", "id": 5688081205, "lat": 34.4152377, "lon": 61.0680694}, {"type": "node", "id": 5688081206, "lat": 34.4195573, "lon": 61.0607678}, {"type": "node", "id": 5688081224, "lat": 34.4317381, "lon": 61.0581882}, {"type": "node", "id": 5688081225, "lat": 34.4307469, "lon": 61.0550518}, {"type": "node", "id": 5688081226, "lat": 34.4287644, "lon": 61.0553742}, {"type": "node", "id": 5688081227, "lat": 34.4277126, "lon": 61.0607676}, {"type": "node", "id": 5688081228, "lat": 34.4300337, "lon": 61.0628048}, {"type": "node", "id": 5688081229, "lat": 34.4317261, "lon": 61.0640946}, {"type": "node", "id": 5688081230, "lat": 34.4337206, "lon": 61.0619841}, {"type": "node", "id": 5688081231, "lat": 34.4328986, "lon": 61.0597857}, {"type": "node", "id": 5688081232, "lat": 34.4325964, "lon": 61.058452}, {"type": "node", "id": 5776263373, "lat": 34.4178005, "lon": 61.0637375}, {"type": "node", "id": 8165014457, "lat": 34.4594373, "lon": 61.4309764, "tags": {"name": "Rahzanak", "place": "village"}}, {"type": "way", "id": 597391394, "nodes": [5688081195, 5688081196, 5688081197, 5688081198, 5688081199, 5688081200, 5688081201, 5688081202, 5688081203, 5688081204, 5688081205, 5776263373, 5688081206, 5688081195], "tags": {"place": "hamlet"}}, {"type": "way", "id": 597391396, "nodes": [5688081224, 5688081225, 5688081226, 5688081227, 5688081228, 5688081229, 5688081230, 5688081231, 5688081232, 5688081224], "tags": {"place": "hamlet"}}]}