{"version": 0.6, "generator": "Overpass API 0.7.61.5 4133829e", "osm3s": {"timestamp_osm_base": "2024-03-05T13:48:58Z", "copyright": "The data included in this document is from www.openstreetmap.org. The data is made available under ODbL."}, "elements": [{"type": "node", "id": 583368833, "lat": 37.381745, "lon": 73.1195064, "tags": {"name": "\u0425\u0430\u0440\u0433\u0443\u0448", "name:en": "Khargush", "name:tg": "\u0425\u0430\u0440\u0433\u0443\u0448", "name:zh": "\u54c8\u5c14\u53e4\u4ec0", "place": "hamlet"}}, {"type": "node", "id": 3967870628, "lat": 37.3379203, "lon": 73.2218941, "tags": {"name": "Baytubut", "place": "hamlet"}}, {"type": "node", "id": 5441431120, "lat": 37.2430528, "lon": 73.0567486, "tags": {"name": "Ali Su", "place": "village"}}, {"type": "node", "id": 5635824193, "lat": 37.2898736, "lon": 73.1830307}, {"type": "node", "id": 5635824194, "lat": 37.2894052, "lon": 73.1825087}, {"type": "node", "id": 5635824195, "lat": 37.2888618, "lon": 73.1827641}, {"type": "node", "id": 5635824196, "lat": 37.2887557, "lon": 73.183064}, {"type": "node", "id": 5635824197, "lat": 37.2893345, "lon": 73.1835639}, {"type": "node", "id": 5635824198, "lat": 37.2897057, "lon": 73.1836472}, {"type": "node", "id": 6028675166, "lat": 37.2197284, "lon": 72.7925412, "tags": {"name": "\u0420\u0430\u0447\u0438\u0432", "name:en": "Rachiv", "place": "hamlet"}}, {"type": "node", "id": 9922308948, "lat": 37.1803644, "lon": 72.9096937, "tags": {"name": "Shikarga", "place": "village"}}, {"type": "node", "id": 9922308949, "lat": 37.2439096, "lon": 72.9839587, "tags": {"name": "Manjalaq", "place": "village"}}, {"type": "node", "id": 9922710318, "lat": 37.2731137, "lon": 73.1112134, "tags": {"name": "Jilmasert", "place": "village"}}, {"type": "node", "id": 9926455618, "lat": 37.4170129, "lon": 73.2464075, "tags": {"place": "hamlet"}}, {"type": "node", "id": 9929144236, "lat": 37.2776555, "lon": 73.108499, "tags": {"place": "village"}}, {"type": "node", "id": 9929144237, "lat": 37.2675726, "lon": 73.1167388, "tags": {"place": "village"}}, {"type": "way", "id": 590253966, "nodes": [5635824193, 5635824194, 5635824195, 5635824196, 5635824197, 5635824198, 5635824193], "tags": {"abandoned": "yes", "place": "village"}}]}