{"version": 0.6, "generator": "Overpass API 0.7.61.5 4133829e", "osm3s": {"timestamp_osm_base": "2024-03-06T10:59:15Z", "copyright": "The data included in this document is from www.openstreetmap.org. The data is made available under ODbL."}, "elements": [{"type": "node", "id": 4094072184, "lat": 36.0861668, "lon": 44.6282924, "tags": {"amenity": "bank", "name": "Al Thiqa Bank"}}, {"type": "node", "id": 5038182524, "lat": 36.2382473, "lon": 44.8713309, "tags": {"amenity": "bank", "name": "\u0628\u0627\u0646\u06a9\u06cc \u06a9\u06ce\u0648\u06d5 \u0695\u06d5\u0634", "name:en": "Kewa Rash Bank", "name:ku": "\u0628\u0627\u0646\u06a9\u06cc \u06a9\u06ce\u0648\u06d5 \u0695\u06d5\u0634"}}, {"type": "node", "id": 5528421821, "lat": 36.0950504, "lon": 44.6572653, "tags": {"amenity": "bank", "name:en": "Zanko Bank"}}, {"type": "node", "id": 7215757985, "lat": 36.2547464, "lon": 44.8821535, "tags": {"amenity": "bank", "name": "\u0628\u0627\u0646\u06a9\u06cc \u0631\u0627\u0646\u06cc\u06d5", "name:en": "Ranya Bank", "name:ku": "\u0628\u0627\u0646\u06a9\u06cc \u0695\u06d5\u0634\u06cc\u062f/\u0695\u0627\u0646\u06cc\u06d5"}}, {"type": "node", "id": 10100089717, "lat": 36.2254403, "lon": 44.5485628, "tags": {"amenity": "bank", "name": "\u0645\u0627\u0644\u0649 \u062a\u0648\u0627\u0646\u0627", "name:en": "nazanen"}}]}