{"version": 0.6, "generator": "Overpass API 0.7.61.5 4133829e", "osm3s": {"timestamp_osm_base": "2024-03-06T11:08:30Z", "copyright": "The data included in this document is from www.openstreetmap.org. The data is made available under ODbL."}, "elements": [{"type": "node", "id": 4432250890, "lat": 35.3197384, "lon": 45.6783805, "tags": {"amenity": "clinic", "healthcare": "clinic", "name": "\u0645\u06d5\u06b5\u0628\u06d5\u0646\u062f\u06cc \u062a\u06d5\u0646\u062f\u0631\u0648\u0633\u062a\u06cc \u0632\u0645\u0646\u0627\u06a9\u06c6", "name:en": "Hospital Zmnako"}}, {"type": "node", "id": 4452437892, "lat": 35.3642268, "lon": 45.845053, "tags": {"amenity": "doctors", "name": "\u0645\u0633\u062a\u0634\u0641\u0649", "name:ar": "\u0645\u0633\u062a\u0634\u0641\u0649"}}, {"type": "node", "id": 4523822690, "lat": 35.3551897, "lon": 45.8592222, "tags": {"amenity": "hospital", "name": "\u0639\u06cc\u0627\u062f\u06d5\u06cc \u067e\u0632\u06cc\u0634\u06a9\u06cc \u062e\u06ce\u0631\u062e\u0648\u0627\u0632\u06cc \u0633\u06d5\u06cc\u062f\u0635\u0627\u062f\u0642", "name:en": "Charity Clinical Of Said Sadq", "name:ku": "\u0639\u06cc\u0627\u062f\u06d5\u06cc \u067e\u0632\u06cc\u0634\u06a9\u06cc \u062e\u06cc\u0631\u062e\u0648\u0627\u0632\u06cc \u0633\u06d5\u06cc\u062f\u0635\u0627\u062f\u0642"}}, {"type": "node", "id": 4577159590, "lat": 35.3612416, "lon": 45.8628638, "tags": {"amenity": "doctors", "name": "D.ismail", "name:ku": "D.ismail"}}, {"type": "node", "id": 4815362124, "lat": 35.3509765, "lon": 45.8772793, "tags": {"amenity": "hospital", "name": "\u0646\u0629\u062e\u0648\u0634\u062e\u0627\u0646\u0629\u0649 \u062d\u0629\u0633\u0627\u0631", "name:ar": "\u0645\u0633\u062a\u0634\u0641\u0649 \u062d\u0633\u0627\u0631", "name:en": "Hasar Hospital", "name:ku": "\u0646\u06d5\u062e\u06c6\u0634\u062e\u0627\u0646\u06d5\u06cc \u062d\u06d5\u0633\u0627\u0631"}}, {"type": "node", "id": 4904832823, "lat": 35.3165274, "lon": 45.6958378, "tags": {"amenity": "clinic", "healthcare": "clinic", "name": "\u0646\u06c6\u0631\u06cc\u0646\u06af\u06d5\u06cc \u062f. \u0642\u0627\u0633\u0645", "name:en": "Dr.qasm hawrami"}}, {"type": "node", "id": 4919263823, "lat": 35.322568, "lon": 45.6886237, "tags": {"amenity": "hospital", "name": "\u0646\u06d5\u062e\u06c6\u0634\u062e\u0627\u0646\u06d5\u06cc \u0634\u06d5\u06d5\u06cc\u062f \u0695\u06d5\u0648\u0641 \u0628\u06d5\u06af", "name:ar": "\u0627\u0644\u0645\u0633\u062a\u0634\u0641\u0649 \u0639\u0627\u0645 \u0634\u0647\u064a\u062f (\u0631\u0648\u0624\u0641 \u0628\u0643)", "name:en": "Shahid rauf bag General hospital"}}, {"type": "node", "id": 5006740622, "lat": 35.3141177, "lon": 45.6907893, "tags": {"amenity": "hospital", "name": "\u0646\u06d5\u062e\u06c6\u0634\u062e\u0627\u0646\u06d5\u06cc \u0634\u06d5\u0647\u06cc\u062f \u0633\u06d5\u0631\u062f\u0627\u0631\u06cc \u0626\u06d5\u0646\u062f\u0627\u0632\u06cc\u0627\u0631", "name:en": "Shaid sardar Hospital", "name:ku": "\u0646\u06d5\u062e\u06c6\u0634\u062e\u0627\u0646\u06d5\u06cc \u0634\u06d5\u0647\u06cc\u062f \u0633\u06d5\u0631\u062f\u0627\u0631\u06cc \u0626\u06d5\u0646\u062f\u0627\u0632\u06cc\u0627\u0631"}}, {"type": "node", "id": 5368407822, "lat": 35.6210417, "lon": 45.947346, "tags": {"addr:street": "\u0634\u06d5\u0642\u0627\u0645\u06cc \u06af\u0634\u062a\u06cc", "amenity": "clinic", "email": "omerebdulla9@gmail.com", "internet_access": "wlan", "name": "\u06af\u06cc\u0627 \u062f\u06d5\u0631\u0645\u0627\u0646\u06cc \u0632\u06d5\u06cc\u062a\u0648\u0646", "name:en": "zaytun harbel center", "phone": "009647507959092"}}, {"type": "node", "id": 5403211421, "lat": 35.3012198, "lon": 46.0324763, "tags": {"amenity": "hospital", "name": "\u0646\u06d5\u062e\u06c6\u0634\u062e\u0627\u0646\u06d5\u06cc \u0639\u0644\u06cc \u0634\u06cc\u0639\u06d5", "name:en": "Alli shiae hospital"}}, {"type": "node", "id": 5485483821, "lat": 35.3549214, "lon": 45.8634596, "tags": {"amenity": "hospital", "name": "\u0646\u0627\u062e\u06c6\u0634\u062e\u0627\u0646\u06d5\u06cc (\u0634\u06d5\u06be\u06cc\u062f \u0626\u06d5\u0633\u0639\u06d5\u062f)", "name:ar": "\u0645\u0633\u062a\u0634\u0641\u0649(\u0634\u0647\u064a\u062f \u0626\u0633\u0639\u062f )", "name:en": "hospital (shahid asad)"}}, {"type": "node", "id": 5543333021, "lat": 35.2983482, "lon": 46.0312355, "tags": {"amenity": "doctors", "name": "\u062e\u0644\u064a\u0644 \u0628\u0629\u06af", "name:ku": "khalil bag"}}, {"type": "node", "id": 5849345185, "lat": 35.247333, "lon": 45.9462988, "tags": {"amenity": "hospital", "name": "\u0634\u06d5\u06be\u06cc\u062f \u0626\u06d5\u0645\u062c\u06d5\u062f"}}, {"type": "node", "id": 5897741385, "lat": 35.3122036, "lon": 45.6728452, "tags": {"amenity": "hospital", "healthcare": "hospital", "name": "\u0645\u06d5\u06b5\u0628\u06d5\u0646\u062f\u06cc \u062a\u06d5\u0646\u062f\u0631\u0648\u0648\u0633\u062a\u06cc \u0634\u06d5\u0647\u06cc\u062f \u062f\u06a9\u062a\u06c6\u0631 \u0686\u06cc\u0627", "name:en": "malbande tandruste shahi chya"}}, {"type": "node", "id": 5989283686, "lat": 35.3810398, "lon": 45.7084012, "tags": {"amenity": "hospital", "name:en": "Sarhad qaraman"}}, {"type": "node", "id": 6193540785, "lat": 35.3199355, "lon": 45.6853096, "tags": {"amenity": "doctors"}}, {"type": "node", "id": 6715955785, "lat": 35.317553, "lon": 45.6677185, "tags": {"addr:street": "\u0632\u06d5\u0695\u0627\u06cc\u06d5\u0646 - \u06af\u06d5\u0695\u06d5\u06a9\u06cc \u0695\u0627\u067e\u06d5\u0695\u06cc\u0646", "amenity": "doctors", "internet_access": "wlan", "name": "\u062f\u06d5\u0631\u0645\u0627\u0646\u062e\u0627\u0646\u06d5\u06cc \u0626\u0627\u0633\u0648\u062f\u06d5", "name:en": "darmanxane aswda", "website": "http://zarayannews.blogspot.com/?m=1"}}, {"type": "node", "id": 6771520842, "lat": 35.2293225, "lon": 46.1196404, "tags": {"amenity": "hospital", "healthcare": "hospital"}}, {"type": "node", "id": 6802411186, "lat": 35.3158202, "lon": 45.6704578, "tags": {"addr:street": "\u0632\u06d5\u0695\u0627\u06cc\u06d5\u0646", "amenity": "pharmacy", "email": "younissleman@gmail.com", "name": "\u062f\u06d5\u0631\u0645\u0627\u0646\u062e\u0627\u0646\u06d5\u06cc \u062f\u06d5\u0631\u06cc\u0627", "name:en": "darmanxane darya"}}, {"type": "node", "id": 7040169885, "lat": 35.319698, "lon": 45.6717861, "tags": {"addr:street": "\u0632\u06d5\u0695\u0627\u06cc\u06d5\u0646 - \u0646\u0632\u06cc\u06a9 \u06cc\u0627\u0631\u06cc\u06af\u0627\u06cc \u06a9\u0648\u0631\u062f\u0633\u062a\u0627\u0646", "amenity": "clinic", "name": "\u0646\u0648\u0631\u06cc\u0646\u06af\u06d5\u06cc \u0695\u0627\u06a4\u06cc\u0646", "name:en": "clinic ravin", "name:ku": "\u0646\u06c6\u0631\u06cc\u0646\u06af\u06d5\u06cc \u0695\u0627\u06a4\u06cc\u0646"}}, {"type": "node", "id": 7198238318, "lat": 35.5317073, "lon": 45.6659287, "tags": {"addr:city": "\u06af\u06ce\u06b5\u062f\u06d5\u0631\u06d5", "addr:street": "\u0695\u06ce\u06af\u0627\u06cc \u0628\u06d5\u0631\u0632\u0646\u062c\u06d5-\u062a\u06d5\u06af\u06d5\u0631\u0627\u0646", "amenity": "hospital", "healthcare": "hospital", "name": "\u0646\u06d5\u062e\u06c6\u0634\u062e\u0627\u0646\u06d5\u06cc \u06af\u06ce\u06b5\u062f\u06d5\u0631\u06d5", "name:ar": "\u0645\u0633\u062a\u0634\u0641\u06cc \u06a9\u06cc\u0644\u062f\u0631\u0629", "name:en": "Geldara Hospital"}}, {"type": "node", "id": 7231295552, "lat": 35.6270418, "lon": 45.9451376}, {"type": "node", "id": 7231295553, "lat": 35.6254663, "lon": 45.9438356}, {"type": "node", "id": 7231295554, "lat": 35.6249933, "lon": 45.9447246}, {"type": "node", "id": 7231295555, "lat": 35.626528, "lon": 45.9460464}, {"type": "node", "id": 8287575517, "lat": 35.3556878, "lon": 45.868429, "tags": {"addr:street": "\u062c\u0627\u062f\u06d5\u06cc \u067e\u06ce\u0646\u062c\u0648\u06ce\u0646 ( \u0628\u06d5\u0631\u0627\u0645\u0628\u06d5\u0631 \u0645\u0632\u06af\u06d5\u0648\u062a\u06cc \u0628\u06d5\u0631\u06a9\u06ce\u0648 )", "amenity": "clinic", "name": "\u0645\u06a9\u062a\u0628 \u062c\u0648\u062a\u0627\u0646", "name:en": "nusingay chawtan", "name:ku": "\u0646\u0648\u0648\u0633\u06cc\u0646\u06af\u06d5\u06cc \u0686\u06d5\u0648\u062a\u0627\u0646", "phone": "07501934084"}}, {"type": "node", "id": 8287626317, "lat": 35.3557008, "lon": 45.8684495, "tags": {"addr:street": "\u0634\u06d5\u0642\u0627\u0645\u06cc \u0628\u06d5\u0631\u06a9\u06ce\u0648 \u0628\u06d5\u0631\u0627\u0645\u0628\u06d5\u0631 \u0645\u0632\u06af\u06d5\u0648\u062a\u06cc ( \u0645\u06d5\u0644\u0627 \u062d\u0633\u06ce\u0646)", "amenity": "clinic", "name": "\u0645\u06a9\u062a\u0628 \u062c\u0648\u062a\u0627\u0646", "name:en": "nusingay chawtan( bee shoop)", "name:ku": "\u0646\u0648\u0633\u06cc\u0646\u06af\u06d5\u06cc \u0686\u06d5\u0648\u062a\u0627\u0646 \u0628\u06c6 \u0641\u0631\u06c6\u0634\u062a\u0646\u06cc \u0628\u0627\u0628\u06d5\u062a\u06cc \u0647\u06d5\u0646\u06af\u06d5\u0648\u0627\u0646\u06cc", "phone": "07501934084"}}, {"type": "node", "id": 8842146134, "lat": 35.5990212, "lon": 45.9672797, "tags": {"amenity": "hospital", "name:en": "PENJWIN HOSPITAL PENJWIN"}}, {"type": "node", "id": 8951722610, "lat": 35.3239484, "lon": 45.6859619, "tags": {"amenity": "pharmacy", "dispensing": "yes", "healthcare": "pharmacy", "name": "\u0626\u0627\u0633\u0648\u0648\u062f\u06d5 \u0645\u06ce\u062f\u06cc\u06a9\u0627\u06b5 \u06a9\u0644\u06cc\u0646\u06cc\u06a9", "name:en": "AMC Asuda Medical"}}, {"type": "node", "id": 8953111247, "lat": 35.3239484, "lon": 45.6859619, "tags": {"amenity": "pharmacy", "dispensing": "yes", "healthcare": "pharmacy", "name": "\u0626\u0627\u0633\u0648\u0648\u062f\u06d5 \u0645\u06ce\u062f\u06cc\u06a9\u0627\u06b5 \u06a9\u0644\u06cc\u0646\u06cc\u06a9"}}, {"type": "node", "id": 8971644917, "lat": 35.3237593, "lon": 45.6848311, "tags": {"amenity": "hospital", "name": "\u06a9\u06c6\u0645\u06d5\u06b5\u06af\u0627\u06cc \u067e\u0632\u06cc\u0634\u06a9\u06cc \u0647\u06d5\u06b5\u06d5\u0628\u062c\u06d5", "name:en": "komalgae pzeshke halabja"}}, {"type": "node", "id": 8971644919, "lat": 35.3157394, "lon": 45.6705636, "tags": {"addr:street": "\u0695\u06ce\u06af\u0627\u06cc \u0632\u06d5\u0695\u0627\u06cc\u06d5\u0646 - \u0639\u06d5\u0631\u0628\u06d5\u062a", "amenity": "pharmacy", "name": "\u0646\u06c6\u0631\u06cc\u0646\u06af\u06d5\u06cc \u0634", "name:en": "pharmacy shefa", "name:ku": "\u062f\u06d5\u0631\u0645\u0627\u0646\u062e\u0627\u0646\u06d5\u06cc \u0634\u06cc\u0641\u0627", "website": "http://www.zarayannews"}}, {"type": "node", "id": 8971655818, "lat": 35.3175436, "lon": 45.6756181, "tags": {"addr:housenumber": "402", "addr:street": "\u0634\u06d5\u0642\u0627\u0645\u06cc \u0645\u06d5\u0648\u0644\u06d5\u0648\u06cc", "amenity": "clinic", "healthcare": "clinic", "name": "\u062f\u06d5\u0631\u0645\u0627\u0646\u062e\u0627\u0646\u06d5\u06cc \u0634\u06cc\u0641\u0627"}}, {"type": "node", "id": 9136981317, "lat": 35.6166932, "lon": 45.9538942, "tags": {"amenity": "hospital", "name": "\u0646\u06d5\u062e\u06c6\u0634\u062e\u0627\u0646\u06d5\u06cc \u06af\u0634\u062a\u06cc \u067e\u06ce\u0646\u062c\u0648\u06ce\u0646"}}, {"type": "node", "id": 10007447173, "lat": 35.3164075, "lon": 45.6697855, "tags": {"addr:city": "\u0632\u06d5\u0695\u0627\u06cc\u06d5\u0646", "addr:street": "401 - 11", "amenity": "clinic", "healthcare": "clinic", "name": "\u06a9\u0644\u06cc\u0646\u06cc\u06a9\u06cc \u062f\u0627\u0646\u06cc \u062f\u06a9\u062a\u06c6\u0631 \u0633\u06d5\u0631\u0647\u06d5\u062f", "name:en": "d.sarhad clinic"}}, {"type": "node", "id": 10093576673, "lat": 35.3165734, "lon": 45.6958034, "tags": {"amenity": "pharmacy", "dispensing": "yes", "healthcare": "pharmacy", "name": "\u062f\u06d5\u0631\u0645\u0627\u0646\u062e\u0627\u0646\u06d5\u06cc \u062f. \u0642\u0627\u0633\u0645"}}, {"type": "node", "id": 10776913349, "lat": 35.5442619, "lon": 45.6915332, "tags": {"addr:street": "\u0695\u06ce\u06af\u0627\u06cc \u0628\u06d5\u0631\u0632\u0646\u062c\u06d5", "amenity": "hospital", "emergency": "yes", "healthcare": "hospital", "healthcare:speciality": "general", "name": "\u0646\u06d5\u062e\u06c6\u0634\u062e\u0627\u0646\u06d5\u06cc \u0628\u06d5\u0631\u0632\u0646\u062c\u06d5", "name:en": "Barznja Hospital"}}, {"type": "node", "id": 10991127205, "lat": 35.3470331, "lon": 45.6179101, "tags": {"amenity": "hospital", "name:en": "Hospital Bamo"}}, {"type": "node", "id": 11472542083, "lat": 35.6253372, "lon": 45.9455476}, {"type": "node", "id": 11472542084, "lat": 35.6250139, "lon": 45.9458129}, {"type": "node", "id": 11472542085, "lat": 35.6247769, "lon": 45.9456021}, {"type": "node", "id": 11472542086, "lat": 35.6250635, "lon": 45.9451239}, {"type": "node", "id": 11472542087, "lat": 35.6250357, "lon": 45.9457758}, {"type": "node", "id": 11472542088, "lat": 35.6252161, "lon": 45.9458466}, {"type": "node", "id": 11472542089, "lat": 35.6253427, "lon": 45.9456311}, {"type": "node", "id": 11472542090, "lat": 35.6253069, "lon": 45.9455992}, {"type": "node", "id": 11472542091, "lat": 35.6251689, "lon": 45.9452177}, {"type": "node", "id": 11472542092, "lat": 35.6251369, "lon": 45.9452723}, {"type": "node", "id": 11472542093, "lat": 35.6251423, "lon": 45.9453742}, {"type": "node", "id": 11472542094, "lat": 35.6250563, "lon": 45.9455206}, {"type": "node", "id": 11472542095, "lat": 35.6250003, "lon": 45.9454708}, {"type": "node", "id": 11472542096, "lat": 35.6251238, "lon": 45.9452607}, {"type": "node", "id": 11472542097, "lat": 35.6250284, "lon": 45.9451837}, {"type": "node", "id": 11472542098, "lat": 35.6248461, "lon": 45.9454844}, {"type": "node", "id": 11472542099, "lat": 35.6248759, "lon": 45.9455109}, {"type": "node", "id": 11472542100, "lat": 35.6249355, "lon": 45.9454096}, {"type": "node", "id": 11472542101, "lat": 35.624962, "lon": 45.9454332}, {"type": "node", "id": 11472542102, "lat": 35.6250811, "lon": 45.9452306}, {"type": "node", "id": 11472542103, "lat": 35.6251099, "lon": 45.9457521}, {"type": "node", "id": 11472542104, "lat": 35.6251488, "lon": 45.9456858}, {"type": "node", "id": 11472542105, "lat": 35.6250322, "lon": 45.945582}, {"type": "node", "id": 11472542106, "lat": 35.6249586, "lon": 45.9457072}, {"type": "way", "id": 775102279, "nodes": [7231295552, 7231295553, 7231295554, 7231295555, 7231295552], "tags": {"addr:city": "\u067e\u06ce\u0646\u062c\u0648\u06ce\u0646", "addr:housenumber": "JWGV+9W9", "addr:postcode": "46007", "addr:street": "\u062c\u0627\u062f\u06d5\u06cc \u062e\u06d5\u0633\u062e\u0627\u0646\u06d5\u06a9\u06d5", "amenity": "hospital", "healthcare": "hospital", "name": "\u0646\u06d5\u062e\u06c6\u0634\u062e\u0627\u0646\u06d5\u06cc \u06af\u0634\u062a\u06cc \u0634\u06d5\u0647\u06cc\u062f\u0627\u0646 / \u067e\u06ce\u0646\u062c\u0648\u06ce\u0646", "name:ckb": "\u0646\u06d5\u062e\u06c6\u0634\u062e\u0627\u0646\u06d5\u06cc \u06af\u0634\u062a\u06cc \u0634\u06d5\u0647\u06cc\u062f\u0627\u0646 / \u067e\u06ce\u0646\u062c\u0648\u06ce\u0646"}}, {"type": "way", "id": 1235782369, "nodes": [11472542083, 11472542090, 11472542089, 11472542088, 11472542103, 11472542104, 11472542105, 11472542106, 11472542087, 11472542084, 11472542085, 11472542098, 11472542099, 11472542100, 11472542101, 11472542102, 11472542097, 11472542086, 11472542091, 11472542092, 11472542096, 11472542095, 11472542094, 11472542093, 11472542083], "tags": {"amenity": "clinic", "building": "yes", "healthcare": "clinic", "name": "\u06a9\u0644\u06cc\u0646\u06cc\u06a9\u06cc \u0695\u0627\u0648\u06ce\u0698\u06a9\u0627\u0631\u06cc \u062c\u06d5\u0644\u0627\u0644 \u0645\u06d5\u062d\u0645\u0648\u0648\u062f", "name:ckb": "\u06a9\u0644\u06cc\u0646\u06cc\u06a9\u06cc \u0695\u0627\u0648\u06ce\u0698\u06a9\u0627\u0631\u06cc \u062c\u06d5\u0644\u0627\u0644 \u0645\u06d5\u062d\u0645\u0648\u0648\u062f"}}]}