{"version": 0.6, "generator": "Overpass API 0.7.61.5 4133829e", "osm3s": {"timestamp_osm_base": "2024-03-05T15:10:59Z", "copyright": "The data included in this document is from www.openstreetmap.org. The data is made available under ODbL."}, "elements": [{"type": "node", "id": 26559042, "lat": 56.1244169, "lon": 12.3124485, "tags": {"census": "2013", "name": "Gilleleje", "name:de": "Gilleleje", "name:ru": "\u0413\u0438\u043b\u043b\u043b\u0435\u043b\u0430\u0439\u0435", "place": "village", "population": "6573", "wikidata": "Q2687297", "wikipedia": "da:Gilleleje"}}, {"type": "node", "id": 26559146, "lat": 56.0631535, "lon": 12.2843814, "tags": {"name": "Gr\u00e6sted", "place": "village", "population": "3547", "source": "Statistikbanken Tabel BEF44", "wikidata": "Q847888", "wikipedia": "da:Gr\u00e6sted"}}, {"type": "node", "id": 107329491, "lat": 56.0709111, "lon": 12.3887729, "tags": {"name": "Villinger\u00f8d", "place": "hamlet", "population": "73"}}, {"type": "node", "id": 251445745, "lat": 56.0968983, "lon": 12.2048189, "tags": {"name": "Udsholt", "place": "village", "wikidata": "Q23014718", "wikipedia": "da:Udsholt"}}, {"type": "node", "id": 974024013, "lat": 56.1045595, "lon": 12.3654698, "tags": {"name": "Munkerup", "place": "village", "wikidata": "Q2082400", "wikipedia": "da:Munkerup"}}, {"type": "node", "id": 994418979, "lat": 56.0977464, "lon": 12.3573346, "tags": {"name": "Firh\u00f8j", "place": "hamlet", "wikidata": "Q23014614", "wikipedia": "da:Firh\u00f8j"}}, {"type": "node", "id": 995631797, "lat": 56.0850768, "lon": 12.319006, "tags": {"name": "S\u00f8borg", "place": "village", "population": "225", "source": "Statistikbanken Tabel BEF44", "wikidata": "Q3172579", "wikipedia": "da:S\u00f8borg (Gribskov Kommune)"}}, {"type": "node", "id": 995631798, "lat": 56.0832986, "lon": 12.3658633, "tags": {"name": "Ferle", "place": "hamlet", "population": "2"}}, {"type": "node", "id": 995631801, "lat": 56.0770676, "lon": 12.3492309, "tags": {"name": "Dragstrup", "place": "hamlet", "population": "94"}}, {"type": "node", "id": 1089372196, "lat": 56.0479033, "lon": 12.4550113, "tags": {"mapillary": "954833525268797", "name": "Bistrup", "place": "hamlet", "population": "21", "population:date": "2011-01-01", "source": "Statistikbanken Tabel BEF44"}}, {"type": "node", "id": 1089473592, "lat": 56.0208025, "lon": 12.4518018, "tags": {"census": "2013", "name": "Tik\u00f8b", "name:etymology:wikidata": "Q172713", "place": "village", "population": "706", "source": "Statistikbanken Tabel BEF44", "wikidata": "Q1993903", "wikipedia": "da:Tik\u00f8b"}}, {"type": "node", "id": 1106592259, "lat": 56.0824682, "lon": 12.3889544, "tags": {"name": "Villinger\u00f8d Kirkeby", "place": "hamlet"}}, {"type": "node", "id": 1143935619, "lat": 56.0493059, "lon": 12.3454415, "tags": {"name": "Esb\u00f8nderup", "place": "village", "population": "1131", "source": "Statistikbanken Tabel BEF44", "wikidata": "Q2012520", "wikipedia": "da:Esb\u00f8nderup"}}, {"type": "node", "id": 1259908850, "lat": 56.056617, "lon": 12.325535, "tags": {"name": "Saltrup", "place": "hamlet", "wikidata": "Q12334412", "wikipedia": "da:Saltrup"}}, {"type": "node", "id": 1260154573, "lat": 56.0429574, "lon": 12.4130055, "tags": {"name": "Plejelt", "place": "hamlet", "population": "49", "wikidata": "Q23014680", "wikipedia": "da:Plejelt"}}, {"type": "node", "id": 1559849753, "lat": 56.0468307, "lon": 12.4353433, "tags": {"name": "B\u00f8tterup", "place": "hamlet", "population": "41", "wikidata": "Q23014584", "wikipedia": "da:B\u00f8tterup"}}, {"type": "node", "id": 2584235455, "lat": 55.997769, "lon": 12.2627126, "tags": {"census": "2013", "name": "Kagerup", "place": "village", "population": "418", "wikidata": "Q2303363", "wikipedia": "da:Kagerup (Gribskov Kommune)"}}, {"type": "node", "id": 2584278133, "lat": 56.0869434, "lon": 12.2109823, "tags": {"census": "2013", "name": "Blistrup", "place": "village", "population": "1172", "wikidata": "Q2957020", "wikipedia": "da:Blistrup"}}, {"type": "node", "id": 2584308511, "lat": 56.1147548, "lon": 12.240685, "tags": {"census": "2013", "name": "Smidstrup", "place": "village", "population": "1380", "wikidata": "Q2348417", "wikipedia": "da:Smidstrup (Gribskov Kommune)"}}, {"type": "node", "id": 2603292979, "lat": 56.0376016, "lon": 12.4449686, "tags": {"census": "2013", "name": "Langes\u00f8", "place": "village", "population": "204", "wikidata": "Q2730316", "wikipedia": "da:Langes\u00f8 (Helsing\u00f8r Kommune)"}}, {"type": "node", "id": 2696668488, "lat": 56.0313821, "lon": 12.2319075, "tags": {"name": "Nejlinge", "place": "hamlet"}}, {"type": "node", "id": 2696668787, "lat": 56.0388986, "lon": 12.2443207, "tags": {"name": "Sletelte", "place": "hamlet", "population": "32"}}, {"type": "node", "id": 2696670666, "lat": 56.0840372, "lon": 12.2302967, "tags": {"name": "H\u00f8jelt", "place": "hamlet", "population": "27"}}, {"type": "node", "id": 2937471672, "lat": 56.0103251, "lon": 12.44571, "tags": {"name": "Lille Esb\u00f8nderup", "place": "hamlet", "population": "14"}}, {"type": "node", "id": 2937471673, "lat": 56.0586366, "lon": 12.3995599, "tags": {"name": "Esrum Mark", "place": "hamlet", "population": "11"}}, {"type": "node", "id": 2937476904, "lat": 56.0108149, "lon": 12.4295658, "tags": {"name": "Jonstrup", "place": "hamlet", "population": "15"}}, {"type": "node", "id": 2937476973, "lat": 56.0388865, "lon": 12.4057049, "tags": {"name": "S\u00f8nderborg Huse", "place": "hamlet", "population": "17"}}, {"type": "node", "id": 2937477929, "lat": 56.0057817, "lon": 12.4306628, "tags": {"name": "Fiskedamshuse", "place": "hamlet", "population": "7"}}, {"type": "node", "id": 2937479245, "lat": 56.030482, "lon": 12.4317813, "tags": {"name": "Harresh\u00f8j", "place": "hamlet", "population": "54"}}, {"type": "node", "id": 2937479247, "lat": 56.0541026, "lon": 12.4256919, "tags": {"name": "Holtet", "place": "hamlet", "population": "6"}}, {"type": "node", "id": 2937493415, "lat": 56.0684625, "lon": 12.3488554, "tags": {"name": "\u00d8verup", "place": "hamlet", "population": "9"}}, {"type": "node", "id": 2937496688, "lat": 56.0806967, "lon": 12.405529, "tags": {"name": "Petersborg", "place": "hamlet", "population": "5"}}, {"type": "node", "id": 2937498646, "lat": 56.0706469, "lon": 12.3760369, "tags": {"name": "Sn\u00e6vret", "place": "hamlet", "population": "1"}}, {"type": "node", "id": 2937503304, "lat": 56.0860897, "lon": 12.4001125, "tags": {"name": "Rusland", "place": "hamlet", "population": "1", "wikidata": "Q12333997", "wikipedia": "da:Rusland (Sj\u00e6lland)"}}, {"type": "node", "id": 2937516997, "lat": 56.1025906, "lon": 12.3393846, "tags": {"name": "Bregner\u00f8d", "place": "hamlet", "population": "11"}}, {"type": "node", "id": 2937519015, "lat": 56.105162, "lon": 12.3473346, "tags": {"name": "Lille Bregner\u00f8d", "place": "hamlet", "population": "22"}}, {"type": "node", "id": 2937540488, "lat": 56.0982658, "lon": 12.2936851, "tags": {"name": "P\u00e5rup", "place": "hamlet", "population": "28"}}, {"type": "node", "id": 2937550339, "lat": 56.11029, "lon": 12.2973758, "tags": {"name": "Fjellenstrup", "place": "hamlet", "population": "21"}}, {"type": "node", "id": 2937554076, "lat": 56.1038898, "lon": 12.2673351, "tags": {"name": "H\u00e5gendrup", "place": "hamlet", "population": "18"}}, {"type": "node", "id": 2937554541, "lat": 56.1129602, "lon": 12.2851235, "tags": {"name": "Lille Fjellenstrup", "place": "hamlet", "population": "9"}}, {"type": "node", "id": 2937556902, "lat": 56.0807632, "lon": 12.2765563, "tags": {"name": "Alme Englod", "place": "hamlet", "population": "30"}}, {"type": "node", "id": 2937562959, "lat": 56.0806898, "lon": 12.2909975, "tags": {"name": "Holt", "place": "hamlet", "population": "9"}}, {"type": "node", "id": 2937566424, "lat": 56.0722368, "lon": 12.2540018, "tags": {"name": "Tulstrup", "place": "hamlet", "population": "8"}}, {"type": "node", "id": 2937568481, "lat": 56.0726575, "lon": 12.2186798, "tags": {"name": "\u00d8llemose", "place": "hamlet", "population": "9"}}, {"type": "node", "id": 2937568501, "lat": 56.070602, "lon": 12.2723964, "tags": {"name": "Vestervang", "place": "hamlet", "population": "44"}}, {"type": "node", "id": 2937572585, "lat": 56.0747862, "lon": 12.2208309, "tags": {"name": "Vadshuse", "place": "hamlet", "population": "14"}}, {"type": "node", "id": 2937578169, "lat": 56.0800672, "lon": 12.2130203, "tags": {"name": "Ludsh\u00f8j", "place": "hamlet", "population": "7"}}, {"type": "node", "id": 2937580438, "lat": 56.0966941, "lon": 12.2205842, "tags": {"name": "Kirkeledshuse", "place": "hamlet", "population": "4"}}, {"type": "node", "id": 2937603877, "lat": 56.0517582, "lon": 12.2756714, "tags": {"name": "Faksemose", "place": "hamlet", "population": "12"}}, {"type": "node", "id": 2937605088, "lat": 56.0542678, "lon": 12.261976, "tags": {"name": "D\u00f8nnev\u00e6lde", "old_name": "Pikkerhuse", "place": "hamlet", "population": "22"}}, {"type": "node", "id": 2937605221, "lat": 56.0560805, "lon": 12.242932, "tags": {"name": "Fuglebjergg\u00e5rd", "place": "hamlet", "population": "8"}}, {"type": "node", "id": 2937612287, "lat": 56.0474724, "lon": 12.2456738, "tags": {"name": "Hemmingstrup", "place": "hamlet", "population": "33"}}, {"type": "node", "id": 2937624800, "lat": 56.0443839, "lon": 12.2522381, "tags": {"name": "Tremarksmose", "place": "hamlet", "population": "18"}}, {"type": "node", "id": 2937629926, "lat": 56.0211455, "lon": 12.2632715, "tags": {"name": "Bredeland", "place": "hamlet", "population": "6"}}, {"type": "node", "id": 2937630235, "lat": 56.0217938, "lon": 12.2492838, "tags": {"name": "Neller\u00f8d", "place": "hamlet", "population": "25"}}, {"type": "node", "id": 2937633507, "lat": 56.024079, "lon": 12.2597417, "tags": {"name": "Ravnebjerg", "place": "hamlet", "population": "26"}}, {"type": "node", "id": 2937635704, "lat": 56.0159465, "lon": 12.2726512, "tags": {"name": "Hessemose", "place": "hamlet", "population": "18"}}, {"type": "node", "id": 3228401088, "lat": 56.0476449, "lon": 12.3169613, "tags": {"name": "Boserup", "place": "hamlet", "population": "9"}}, {"type": "node", "id": 3228402165, "lat": 56.0380706, "lon": 12.3001599, "tags": {"name": "Holgersk\u00f8b", "place": "hamlet", "population": "4"}}, {"type": "node", "id": 4557785830, "lat": 56.0391572, "lon": 12.3509845, "tags": {"name": "Esb\u00f8nderup Kohave", "place": "hamlet", "wikidata": "Q12310599"}}, {"type": "node", "id": 5648899160, "lat": 56.0418718, "lon": 12.4462322, "tags": {"name": "Dale", "place": "hamlet"}}, {"type": "node", "id": 8270226195, "lat": 55.9941689, "lon": 12.2687137, "tags": {"name": "Tibberup", "place": "hamlet"}}, {"type": "node", "id": 10165770351, "lat": 56.0616354, "lon": 12.418558, "tags": {"name": "Havreholm", "place": "hamlet", "population": "70", "wikidata": "Q23014625", "wikipedia": "da:Havreholm (Hornb\u00e6k Sogn)"}}, {"type": "node", "id": 10165770352, "lat": 56.0848064, "lon": 12.2640467, "tags": {"name": "Alme", "place": "hamlet", "population": "59"}}, {"type": "node", "id": 10165770357, "lat": 56.0264435, "lon": 12.2804832, "tags": {"census": "2013", "name": "M\u00e5rum", "place": "village", "population": "225", "wikidata": "Q12328042", "wikipedia": "da:M\u00e5rum"}}, {"type": "node", "id": 10165770358, "lat": 56.0165229, "lon": 12.2631669, "tags": {"name": "Ejlstrup", "place": "hamlet", "population": "130"}}, {"type": "node", "id": 10165770359, "lat": 56.0503218, "lon": 12.3785233, "tags": {"census": "2013", "name": "Esrum", "place": "village", "population": "521", "wikidata": "Q2006504", "wikipedia": "da:Esrum"}}, {"type": "node", "id": 10165770360, "lat": 56.084121, "lon": 12.3383224, "tags": {"name": "Lundebakke", "place": "hamlet"}}, {"type": "node", "id": 10165770362, "lat": 56.0947946, "lon": 12.3830403, "tags": {"name": "Dronningm\u00f8lle", "place": "village", "wikidata": "Q2170970", "wikipedia": "da:Dronningm\u00f8lle"}}]}