{"version": 0.6, "generator": "Overpass API 0.7.61.5 4133829e", "osm3s": {"timestamp_osm_base": "2024-03-05T18:56:41Z", "copyright": "The data included in this document is from www.openstreetmap.org. The data is made available under ODbL."}, "elements": [{"type": "node", "id": 3168368408, "lat": 56.5022529, "lon": 12.9990604, "tags": {"name": "Laholm", "name:technical": "Laholms v\u00e4stra", "public_transport": "station", "railway": "station", "ref": "Laov", "wikidata": "Q12323579", "wikipedia": "sv:Laholms station"}}, {"type": "node", "id": 4022213213, "lat": 56.6809309, "lon": 12.8723271, "tags": {"amenity": "shelter", "bench": "yes", "name": "Folkparken", "public_transport": "station", "shelter_type": "public_transport"}}, {"type": "node", "id": 5279994111, "lat": 56.8061665, "lon": 12.971809}, {"type": "node", "id": 5279994112, "lat": 56.8068444, "lon": 12.9721192}, {"type": "node", "id": 5279994113, "lat": 56.8068883, "lon": 12.9717992}, {"type": "node", "id": 5279994114, "lat": 56.8062104, "lon": 12.971489}, {"type": "node", "id": 5279994115, "lat": 56.8061769, "lon": 12.9717335}, {"type": "node", "id": 8476150857, "lat": 56.6692971, "lon": 12.8642537, "tags": {"name": "Halmstad C", "public_transport": "station", "railway": "station", "train": "yes"}}, {"type": "node", "id": 11104504570, "lat": 56.6861159, "lon": 12.8925442, "tags": {"name": "Sannarp", "public_transport": "station", "railway": "halt"}}, {"type": "way", "id": 546379957, "nodes": [5279994115, 5279994114, 5279994113, 5279994112, 5279994111, 5279994115], "tags": {"name": "Oskarstr\u00f6m", "public_transport": "station", "railway": "station", "train": "yes"}}]}