{"version": 0.6, "generator": "Overpass API 0.7.61.5 4133829e", "osm3s": {"timestamp_osm_base": "2024-03-05T15:08:58Z", "copyright": "The data included in this document is from www.openstreetmap.org. The data is made available under ODbL."}, "elements": [{"type": "node", "id": 454154936, "lat": 57.738692, "lon": 18.4055997, "tags": {"name": "Lummelunds Bruk", "note": "Not sure if Lummelunds Bruk is a place or only the water mill.", "place": "hamlet"}}, {"type": "node", "id": 701535301, "lat": 57.7698381, "lon": 18.4548023, "tags": {"name": "Lummelunda", "place": "hamlet"}}, {"type": "node", "id": 814045791, "lat": 57.7924476, "lon": 18.5316379, "tags": {"name": "Stenkyrka", "place": "hamlet"}}, {"type": "node", "id": 814046188, "lat": 57.8912751, "lon": 18.7174072, "tags": {"name": "Hall", "place": "hamlet"}}, {"type": "node", "id": 814046202, "lat": 57.8508227, "lon": 18.7834621, "tags": {"name": "Kappelshamn", "place": "hamlet"}}, {"type": "node", "id": 814046238, "lat": 57.8969186, "lon": 18.8410447, "tags": {"name": "Bl\u00e4se", "place": "hamlet"}}, {"type": "node", "id": 2160656783, "lat": 57.7357591, "lon": 18.6136895, "tags": {"name": "Tingst\u00e4de", "place": "village", "ref:se:pts:postort": "TINGST\u00c4DE", "ref:se:scb": "2542"}}, {"type": "node", "id": 2396448270, "lat": 57.9251749, "lon": 18.7413243, "tags": {"name": "Halls Fiskel\u00e4ge", "place": "hamlet"}}, {"type": "node", "id": 2996058022, "lat": 57.7851621, "lon": 18.7906376, "tags": {"name": "L\u00e4rbro", "place": "village", "population": "484", "ref:se:pts:postort": "L\u00c4RBRO", "ref:se:scb": "2528"}}, {"type": "node", "id": 3663528357, "lat": 57.7942669, "lon": 18.4442479, "tags": {"name": "Burge", "place": "village"}}, {"type": "node", "id": 4598712897, "lat": 57.74902, "lon": 18.4919737, "tags": {"name": "Martebo", "place": "hamlet"}}, {"type": "node", "id": 5285898058, "lat": 57.7197129, "lon": 18.7891531, "tags": {"name": "N\u00e4rs", "place": "hamlet"}}, {"type": "node", "id": 5285898060, "lat": 57.721151, "lon": 18.7956333, "tags": {"name": "\u00d6sterby", "place": "hamlet"}}, {"type": "node", "id": 5285965329, "lat": 57.839583, "lon": 18.6880124, "tags": {"name": "Hangvar", "place": "hamlet"}}, {"type": "node", "id": 5308501365, "lat": 57.7628039, "lon": 18.4149219, "tags": {"name": "Nyhamn", "place": "village"}}, {"type": "node", "id": 5327397254, "lat": 57.7457171, "lon": 18.7377512, "tags": {"name": "Othem", "place": "hamlet"}}, {"type": "node", "id": 6638695738, "lat": 57.8167035, "lon": 18.4602598, "tags": {"name": "Stenkyrkehuk", "place": "village"}}, {"type": "node", "id": 7411483625, "lat": 57.8142244, "lon": 18.5385304, "tags": {"name": "Stora Bj\u00e4rs", "place": "hamlet"}}, {"type": "node", "id": 7411519615, "lat": 57.864099, "lon": 18.6494971, "tags": {"name": "H\u00e4ftings", "place": "hamlet"}}, {"type": "node", "id": 7411763055, "lat": 57.7359532, "lon": 18.7819853, "tags": {"name": "Stenstugu", "place": "hamlet"}}, {"type": "node", "id": 7411776083, "lat": 57.8111451, "lon": 18.5314508, "tags": {"name": "Grausne", "place": "hamlet"}}, {"type": "node", "id": 7411786778, "lat": 57.8205449, "lon": 18.5041404, "tags": {"name": "Ringvide", "place": "hamlet"}}, {"type": "node", "id": 7411789895, "lat": 57.8308597, "lon": 18.787132, "tags": {"name": "Nyhamn", "place": "hamlet"}}, {"type": "node", "id": 7411790296, "lat": 57.7800033, "lon": 18.5053903, "tags": {"name": "Lauhage", "place": "hamlet"}}, {"type": "node", "id": 7411792407, "lat": 57.8318598, "lon": 18.6078591, "tags": {"name": "Ire", "place": "hamlet"}}, {"type": "node", "id": 7411795710, "lat": 57.8135534, "lon": 18.5349208, "tags": {"name": "Garde", "place": "hamlet"}}, {"type": "node", "id": 7411798229, "lat": 57.7568904, "lon": 18.7424932, "tags": {"name": "Barshage", "place": "hamlet"}}, {"type": "node", "id": 7411800735, "lat": 57.8091493, "lon": 18.525114, "tags": {"name": "Suderg\u00e5rds", "place": "hamlet"}}, {"type": "node", "id": 7411804351, "lat": 57.8384218, "lon": 18.5921755, "tags": {"name": "Irevik", "place": "hamlet"}}, {"type": "node", "id": 7411812802, "lat": 57.9040857, "lon": 18.7028227, "tags": {"alt_name": "H\u00e4gvalds?", "name": "H\u00e4gvards", "place": "hamlet"}}, {"type": "node", "id": 9929149130, "lat": 57.8254059, "lon": 18.5139906, "tags": {"name": "Lickershamn", "place": "village"}}]}