{"version": 0.6, "generator": "Overpass API 0.7.61.5 4133829e", "osm3s": {"timestamp_osm_base": "2024-03-05T13:45:59Z", "copyright": "The data included in this document is from www.openstreetmap.org. The data is made available under ODbL."}, "elements": [{"type": "node", "id": 3806576665, "lat": 36.4935941, "lon": 70.7948659, "tags": {"alt_name": "Erghesak", "fixme": "check location (here between visible hamlets, close to GNS location)", "name": "Irghisak", "place": "village", "source": "GNS"}}, {"type": "node", "id": 3818007573, "lat": 36.6388522, "lon": 70.8556382, "tags": {"name": "Eskan", "name:ru": "\u0418\u0441\u043a\u0430\u043d", "place": "village"}}, {"type": "node", "id": 3818042261, "lat": 36.4731731, "lon": 70.7759047, "tags": {"name": "Kalafzar", "place": "village"}}, {"type": "node", "id": 3818049557, "lat": 36.4620996, "lon": 70.7819603, "tags": {"name": "Hazrat Said Centre", "name:ru": "\u0425\u0430\u0437\u0440\u0430\u0442\u0438-\u0421\u0430\u0438\u0434", "place": "village"}}, {"type": "node", "id": 3818061297, "lat": 36.5254116, "lon": 70.795083, "tags": {"name": "Tahdeh", "place": "village"}}, {"type": "node", "id": 3818064572, "lat": 36.7481874, "lon": 70.8267582, "tags": {"name": "Farghamiru", "name:ru": "\u0424\u0430\u0440\u0433\u0430\u043c\u0438\u0440\u0443", "place": "village"}}, {"type": "node", "id": 3818064881, "lat": 36.7065565, "lon": 70.8415761, "tags": {"name": "Shafchan", "place": "village"}}, {"type": "node", "id": 3818070157, "lat": 36.6072469, "lon": 70.7822319, "tags": {"name": "Ashnam", "name:ru": "\u0410\u0448\u043d\u0430\u043c", "place": "village"}}, {"type": "node", "id": 3818074838, "lat": 36.5197059, "lon": 70.9675679, "tags": {"name": "Charmaghzistan", "place": "village"}}, {"type": "node", "id": 3818075857, "lat": 36.7036102, "lon": 70.9371517, "tags": {"name": "Ila", "place": "village"}}, {"type": "node", "id": 3820286638, "lat": 36.3868006, "lon": 70.7446026, "tags": {"name": "Farghamu", "place": "village"}}, {"type": "node", "id": 3831852390, "lat": 36.6795866, "lon": 71.0245331, "tags": {"name": "Layrak", "place": "village"}}, {"type": "node", "id": 3831854676, "lat": 36.5650459, "lon": 70.946995, "tags": {"name": "Jokham", "place": "village"}}, {"type": "node", "id": 3831855545, "lat": 36.4743641, "lon": 71.0023006, "tags": {"name": "Sar Ab", "place": "village"}}, {"type": "node", "id": 3831857329, "lat": 36.4015003, "lon": 70.7667405, "tags": {"name": "Spozhmey", "place": "village"}}, {"type": "node", "id": 3831869957, "lat": 36.529762, "lon": 70.9484897, "tags": {"name": "Kaw", "place": "village"}}, {"type": "node", "id": 3831927557, "lat": 36.4201654, "lon": 70.7623743, "tags": {"name": "Gawhar", "place": "village"}}, {"type": "node", "id": 3973389161, "lat": 36.4560336, "lon": 70.7786632, "tags": {"name": "Ragh", "place": "hamlet"}}, {"type": "node", "id": 3973765551, "lat": 36.4707563, "lon": 70.7814998, "tags": {"name": "Langar", "place": "village"}}, {"type": "node", "id": 3975139402, "lat": 36.5601159, "lon": 70.9316267, "tags": {"name": "Wony", "place": "hamlet"}}, {"type": "node", "id": 3975140154, "lat": 36.5310772, "lon": 70.9937195, "tags": {"name": "Arkhy", "place": "village"}}, {"type": "node", "id": 3975545397, "lat": 36.6819459, "lon": 70.9030978, "tags": {"name": "Awan", "place": "village"}}, {"type": "node", "id": 3975666138, "lat": 36.6797249, "lon": 70.9052328, "tags": {"name": "Khul", "place": "village"}}, {"type": "node", "id": 3975809503, "lat": 36.6657728, "lon": 70.9462115, "tags": {"name": "Sundar", "place": "village"}}, {"type": "node", "id": 4386804163, "lat": 36.493656, "lon": 70.794841, "tags": {"alt_name": "Irghisak", "name": "\u0627\u0631\u063a\u0633\u06a9", "name:en": "Erghesak", "name:ps": "\u0627\u0631\u063a\u0633\u06a9", "place": "village", "source:name": "GNS"}}, {"type": "node", "id": 4386804164, "lat": 36.522204, "lon": 70.790635, "tags": {"alt_name": "\u063a\u0631\u0645\u06cc;Ghowrayd Gharami;Ghoraydgharame;Ghurayd Gharame;Ghurmay;Garm;Gharmi", "name": "\u063a\u0631\u06cc\u062f \u063a\u0631\u0645\u06d0", "name:en": "Gharmai", "name:ps": "\u063a\u0631\u06cc\u062f \u063a\u0631\u0645\u06d0", "place": "village", "source:name": "GNS"}}, {"type": "node", "id": 4386804169, "lat": 36.524111, "lon": 70.838108, "tags": {"name": "\u0646\u0644\u0648\u06cc\u062c", "name:en": "Nalwij", "name:ps": "\u0646\u0644\u0648\u06cc\u062c", "place": "village", "source:name": "GNS"}}, {"type": "node", "id": 4386804171, "lat": 36.488353, "lon": 70.773692, "tags": {"alt_name": "Sarsabil", "name": "\u0633\u0631 \u0633\u0628\u064a\u0644", "name:en": "Sar Sabil", "name:ps": "\u0633\u0631 \u0633\u0628\u064a\u0644", "place": "village", "source:name": "GNS"}}, {"type": "node", "id": 4386804173, "lat": 36.528557, "lon": 70.798986, "tags": {"name": "\u062a\u0647\u062f\u0647", "name:en": "Tahdah", "name:ps": "\u062a\u0647\u062f\u0647", "place": "village", "source:name": "GNS"}}, {"type": "node", "id": 4386804175, "lat": 36.516627, "lon": 70.7951743, "tags": {"name": "\u064a\u0645\u06af\u0627\u0646", "name:ar": "\u064a\u0645\u0642\u0627\u0646", "name:en": "Yamgan", "name:ml": "\u0d2f\u0d02\u0d17\u0d3e\u0d7b", "name:ps": "\u062a\u0647\u062f\u0647", "place": "town", "source:name": "GNS"}}, {"type": "node", "id": 4423284614, "lat": 36.62282, "lon": 70.711652, "tags": {"gns:dsg": "RUIN: ruin(s)", "historic": "ruins", "name": "\u0641\u0631\u0645\u0627\u0646\u06af\u0627\u0647", "name:en": "Farmangah", "name:ps": "\u0641\u0631\u0645\u0627\u0646\u06af\u0627\u0647", "place": "village", "source:name": "GNS"}}, {"type": "node", "id": 8780307780, "lat": 36.6893945, "lon": 70.9257442, "tags": {"place": "hamlet"}}]}