{"version": 0.6, "generator": "Overpass API 0.7.61.5 4133829e", "osm3s": {"timestamp_osm_base": "2024-03-05T11:19:45Z", "copyright": "The data included in this document is from www.openstreetmap.org. The data is made available under ODbL."}, "elements": [{"type": "node", "id": 4381912474, "lat": 34.3374946, "lon": 63.739659, "tags": {"alt_name": "Qaryeh-ye Chest-e Sharif;Khwaja Chist;Ceste Sarif;Chest-e Sharif;Chesht-e Sharif;Khvajeh Chesht;Chisht-e Sharif;Chusht-e Sharif", "name": "\u0686\u0634\u062a \u0634\u0631\u06cc\u0641", "name:en": "Chishti Sharif", "name:ps": "\u0686\u0634\u062a \u0634\u0631\u06cc\u0641", "name:ru": "\u0427\u0438\u0448\u0442\u0438-\u0428\u0430\u0440\u0438\u0444", "place": "town", "source:name": "GNS"}}, {"type": "node", "id": 5805079487, "lat": 34.343218, "lon": 63.7517497, "tags": {"name": "\u0628\u0647\u0644\u0643\u0647", "name:en": "Senjetak", "name:ru": "\u0421\u0435\u043d\u0434\u0436\u0435\u0442\u044d\u043a", "place": "hamlet"}}, {"type": "node", "id": 5805079488, "lat": 34.3311134, "lon": 63.7341096, "tags": {"name:en": "Dahane Aw", "name:ru": "\u0414\u0430\u0445\u0430\u043d\u0435 \u0410\u0443", "place": "hamlet"}}, {"type": "node", "id": 7383001431, "lat": 34.1642477, "lon": 64.0950437, "tags": {"place": "hamlet"}}, {"type": "node", "id": 7383001441, "lat": 34.161779, "lon": 64.0941449, "tags": {"place": "hamlet"}}, {"type": "node", "id": 7383001449, "lat": 34.1598402, "lon": 64.0939074, "tags": {"place": "hamlet"}}, {"type": "node", "id": 7383001562, "lat": 34.1597066, "lon": 64.1154133, "tags": {"place": "hamlet"}}, {"type": "node", "id": 7383001605, "lat": 34.1603865, "lon": 64.1190216, "tags": {"place": "hamlet"}}, {"type": "node", "id": 7383001666, "lat": 34.167242, "lon": 64.1351742, "tags": {"place": "hamlet"}}, {"type": "node", "id": 7383001754, "lat": 34.1613201, "lon": 64.1326665, "tags": {"place": "hamlet"}}, {"type": "node", "id": 7383001768, "lat": 34.1594263, "lon": 64.1088474, "tags": {"place": "hamlet"}}, {"type": "node", "id": 8769337587, "lat": 34.1198988, "lon": 63.6323972, "tags": {"place": "village"}}, {"type": "node", "id": 8769337588, "lat": 34.1196276, "lon": 63.6397188, "tags": {"place": "village"}}]}