{"version": 0.6, "generator": "Overpass API 0.7.61.5 4133829e", "osm3s": {"timestamp_osm_base": "2024-03-06T11:45:15Z", "copyright": "The data included in this document is from www.openstreetmap.org. The data is made available under ODbL."}, "elements": [{"type": "node", "id": 44930093, "lat": -0.9666, "lon": 35.6, "tags": {"is_in": "Narok,Kenya", "name": "Masandare", "place": "village", "wikidata": "Q15250013"}}, {"type": "node", "id": 44931277, "lat": -0.6333, "lon": 35.6, "tags": {"created_by": "JOSM", "is_in": "Nakuru,Kenya", "name": "Korikabemitik", "place": "village"}}, {"type": "node", "id": 44998945, "lat": -0.85, "lon": 35.4833, "tags": {"is_in": "Bomet,Kenya", "name": "Iminuet", "place": "village", "wikidata": "Q6004099"}}, {"type": "node", "id": 45001769, "lat": -0.6333, "lon": 35.65, "tags": {"is_in": "Nakuru,Kenya", "name": "Goroba", "place": "village", "wikidata": "Q15221912"}}, {"type": "node", "id": 45003075, "lat": -0.7833, "lon": 35.5, "tags": {"is_in": "Narok,Kenya", "name": "Chemaner", "place": "village", "wikidata": "Q5090317"}}, {"type": "node", "id": 45006172, "lat": -0.7814456, "lon": 35.3434879, "tags": {"is_in:county": "Bomet", "name": "Bomet", "place": "town", "population": "110963", "wikidata": "Q891951"}}, {"type": "node", "id": 1401348170, "lat": -0.7861199, "lon": 35.2997736, "tags": {"name": "Kapkwen", "place": "village"}}, {"type": "node", "id": 1401348173, "lat": -0.8394193, "lon": 35.3581567, "tags": {"name": "Kipsarwet", "place": "village"}}, {"type": "node", "id": 1401348176, "lat": -0.8589555, "lon": 35.3949896, "tags": {"name": "Longisa", "place": "village"}}, {"type": "node", "id": 2032138386, "lat": -0.5731293, "lon": 35.6148361, "tags": {"name": "Kiptagich", "place": "village"}}, {"type": "node", "id": 2460294487, "lat": -0.7449239, "lon": 35.3612332, "tags": {"name": "Tenwek", "place": "village"}}, {"type": "node", "id": 2460294526, "lat": -0.7839525, "lon": 35.4021218, "tags": {"place": "village"}}, {"type": "node", "id": 2460296103, "lat": -0.7298854, "lon": 35.3457845, "tags": {"place": "village"}}, {"type": "node", "id": 2569670986, "lat": -0.6084678, "lon": 35.6633076, "tags": {"name": "Ambusket", "place": "village"}}, {"type": "node", "id": 2569670987, "lat": -0.5818101, "lon": 35.6490651, "tags": {"name": "Chepteuch", "place": "village"}}, {"type": "node", "id": 2569670988, "lat": -0.6186089, "lon": 35.6016951, "tags": {"name": "Emitik", "place": "village"}}, {"type": "node", "id": 2569670989, "lat": -0.6908749, "lon": 35.6363366, "tags": {"name": "Forest", "place": "village"}}, {"type": "node", "id": 2569670990, "lat": -0.5941746, "lon": 35.5895348, "tags": {"name": "Murwangwa", "place": "village"}}, {"type": "node", "id": 6191765246, "lat": -0.7697939, "lon": 35.4586931, "tags": {"name": "Riosiri Town Center", "place": "town"}}, {"type": "node", "id": 6374112003, "lat": -0.938405, "lon": 35.4216997, "tags": {"name": "Mulot", "place": "town"}}, {"type": "node", "id": 9757376609, "lat": -0.5761075, "lon": 35.6689643, "tags": {"name": "Cheptangulgei", "place": "village"}}, {"type": "node", "id": 9757376611, "lat": -0.5776747, "lon": 35.6764912, "tags": {"name": "Kiptaragon South", "place": "village"}}, {"type": "node", "id": 9757376614, "lat": -0.5908843, "lon": 35.680015, "tags": {"name": "Kiptaragon Town", "place": "village"}}, {"type": "node", "id": 9757397325, "lat": -0.6320485, "lon": 35.6806388, "tags": {"name": "Kitoben", "place": "village"}}, {"type": "node", "id": 9757397326, "lat": -0.623816, "lon": 35.6725377, "tags": {"name": "Singorwet", "place": "village"}}, {"type": "node", "id": 9757397327, "lat": -0.6131652, "lon": 35.6723728, "tags": {"name": "Chesoen B", "place": "village"}}, {"type": "node", "id": 9757397328, "lat": -0.6041905, "lon": 35.6715295, "tags": {"name": "Chesoen A", "place": "village"}}, {"type": "node", "id": 9757397329, "lat": -0.6118283, "lon": 35.6611658, "tags": {"name": "Saptet", "place": "village"}}, {"type": "node", "id": 9757397330, "lat": -0.5908355, "lon": 35.6692271, "tags": {"name": "Pangani", "place": "village"}}, {"type": "node", "id": 9757397331, "lat": -0.5841766, "lon": 35.6627652, "tags": {"name": "Chelalang", "place": "village"}}, {"type": "node", "id": 9757397332, "lat": -0.5712163, "lon": 35.6642767, "tags": {"name": "Kwendo", "place": "village"}}, {"type": "node", "id": 9757397334, "lat": -0.6323383, "lon": 35.6647791, "tags": {"name": "Kabigeriet", "place": "village"}}, {"type": "node", "id": 9757397335, "lat": -0.626957, "lon": 35.6482086, "tags": {"name": "Ambusket", "place": "village"}}, {"type": "node", "id": 9757397336, "lat": -0.6353481, "lon": 35.6285322, "tags": {"name": "Kimugul B", "place": "village"}}, {"type": "node", "id": 9757397337, "lat": -0.6464142, "lon": 35.6168957, "tags": {"name": "Kimugul A", "place": "village"}}, {"type": "node", "id": 9757397338, "lat": -0.6499914, "lon": 35.6220903, "tags": {"name": "Kaplamboi B", "place": "village"}}, {"type": "node", "id": 9757397339, "lat": -0.6365171, "lon": 35.6383376, "tags": {"name": "Kebooet", "place": "village"}}, {"type": "node", "id": 9757397340, "lat": -0.6544079, "lon": 35.6284838, "tags": {"name": "Taachasis", "place": "village"}}, {"type": "node", "id": 9757397341, "lat": -0.6517044, "lon": 35.6346452, "tags": {"name": "Nukiat", "place": "village"}}, {"type": "node", "id": 9757397342, "lat": -0.6548964, "lon": 35.6413339, "tags": {"name": "Senetwet", "place": "village"}}, {"type": "node", "id": 9757397343, "lat": -0.6415756, "lon": 35.6573793, "tags": {"name": "Ndasiata", "place": "village"}}, {"type": "node", "id": 9757397344, "lat": -0.6554093, "lon": 35.6515993, "tags": {"name": "Sigowet A", "place": "village"}}, {"type": "node", "id": 9757397345, "lat": -0.6663028, "lon": 35.6500516, "tags": {"name": "Sigowet B", "place": "village"}}, {"type": "node", "id": 9757397346, "lat": -0.6686335, "lon": 35.6349299, "tags": {"name": "Saosa", "place": "village"}}, {"type": "node", "id": 9757397347, "lat": -0.6633738, "lon": 35.6203369, "tags": {"name": "Kaplamboi A", "place": "village"}}, {"type": "node", "id": 9757397348, "lat": -0.6704966, "lon": 35.6155094, "tags": {"name": "Kapkures", "place": "village"}}, {"type": "node", "id": 9757397349, "lat": -0.6467542, "lon": 35.6744718, "tags": {"name": "Nyambugo", "place": "village"}}, {"type": "node", "id": 9757397350, "lat": -0.6568095, "lon": 35.6629048, "tags": {"name": "Longet B", "place": "village"}}, {"type": "node", "id": 9757397351, "lat": -0.6725669, "lon": 35.6551121, "tags": {"name": "Lelaitich B", "place": "village"}}, {"type": "node", "id": 9757397352, "lat": -0.6913086, "lon": 35.6460564, "tags": {"name": "Mutito", "place": "village"}}, {"type": "node", "id": 9757397353, "lat": -0.6737936, "lon": 35.6430497, "tags": {"name": "Korofa A", "place": "village"}}, {"type": "node", "id": 9757397354, "lat": -0.6786842, "lon": 35.6272859, "tags": {"name": "Baregeiywet", "place": "village"}}, {"type": "node", "id": 9757397355, "lat": -0.6590749, "lon": 35.6677566, "tags": {"name": "Longet A", "place": "village"}}, {"type": "node", "id": 9757397356, "lat": -0.6776394, "lon": 35.6589843, "tags": {"name": "Lelaitich A", "place": "village"}}, {"type": "node", "id": 9757397357, "lat": -0.6853249, "lon": 35.6386577, "tags": {"name": "Korofa B", "place": "village"}}, {"type": "node", "id": 9759322655, "lat": -0.6049777, "lon": 35.6557792, "tags": {"name": "Ketitui", "place": "village"}}, {"type": "node", "id": 9759322656, "lat": -0.5961194, "lon": 35.655349, "tags": {"name": "Oromoit", "place": "village"}}, {"type": "node", "id": 9759322657, "lat": -0.5907228, "lon": 35.6485676, "tags": {"name": "Cheptuech Central", "place": "village"}}, {"type": "node", "id": 9759322658, "lat": -0.5895598, "lon": 35.640106, "tags": {"name": "Banana", "place": "village"}}, {"type": "node", "id": 9759322661, "lat": -0.5774347, "lon": 35.6531326, "tags": {"name": "Irongo", "place": "village"}}, {"type": "node", "id": 9759322663, "lat": -0.5871714, "lon": 35.633162, "tags": {"name": "Chepnyalilo", "place": "village"}}, {"type": "node", "id": 9759322664, "lat": -0.5866184, "lon": 35.6243938, "tags": {"name": "Wamkong Central", "place": "village"}}, {"type": "node", "id": 9759322665, "lat": -0.5909975, "lon": 35.6163787, "tags": {"name": "Wamkong Original", "place": "village"}}, {"type": "node", "id": 9759322671, "lat": -0.5715271, "lon": 35.6374353, "tags": {"name": "Kimugul", "place": "village"}}, {"type": "node", "id": 9759322672, "lat": -0.5819398, "lon": 35.62694, "tags": {"name": "Wamkong Kongasis", "place": "village"}}, {"type": "node", "id": 9759322673, "lat": -0.5782626, "lon": 35.6190441, "tags": {"name": "Kiletien", "place": "village"}}, {"type": "node", "id": 9759322674, "lat": -0.5706414, "lon": 35.613337, "tags": {"name": "Kiptagich Centre", "place": "village"}}, {"type": "node", "id": 9759322675, "lat": -0.5740253, "lon": 35.6301224, "tags": {"name": "Ushindi", "place": "village"}}, {"type": "node", "id": 9759322685, "lat": -0.5777863, "lon": 35.5546558, "tags": {"name": "Tarachet", "place": "village"}}, {"type": "node", "id": 9759322688, "lat": -0.5696471, "lon": 35.5778486, "tags": {"name": "Sagaisoi", "place": "village"}}, {"type": "node", "id": 9759322689, "lat": -0.5899614, "lon": 35.5631503, "tags": {"name": "Lelbanga", "place": "village"}}, {"type": "node", "id": 9759322690, "lat": -0.5727896, "lon": 35.6014996, "tags": {"name": "Kondamet", "place": "village"}}, {"type": "node", "id": 9759322691, "lat": -0.5775555, "lon": 35.5911881, "tags": {"name": "Akiba", "place": "village"}}, {"type": "node", "id": 9759322692, "lat": -0.5790116, "lon": 35.5777028, "tags": {"name": "Konoin", "place": "village"}}, {"type": "node", "id": 9759322693, "lat": -0.5889135, "lon": 35.5813171, "tags": {"name": "Singorwet", "place": "village"}}, {"type": "node", "id": 9759322694, "lat": -0.5757676, "lon": 35.6081736, "tags": {"name": "Kiption", "place": "village"}}, {"type": "node", "id": 9759322695, "lat": -0.5835027, "lon": 35.5965618, "tags": {"name": "Chepkiswet", "place": "village"}}, {"type": "node", "id": 9759322696, "lat": -0.5797673, "lon": 35.6123975, "tags": {"name": "Saoset", "place": "village"}}, {"type": "node", "id": 9759322697, "lat": -0.5864299, "lon": 35.6004997, "tags": {"name": "Kimugul", "place": "village"}}, {"type": "node", "id": 9759322698, "lat": -0.5940734, "lon": 35.5848804, "tags": {"name": "Mulango", "place": "village"}}, {"type": "node", "id": 9759322699, "lat": -0.5885021, "lon": 35.6087121, "tags": {"name": "Kipkebe", "place": "village"}}, {"type": "node", "id": 9759322700, "lat": -0.5958298, "lon": 35.6005484, "tags": {"name": "Sukutek", "place": "village"}}, {"type": "node", "id": 9759322701, "lat": -0.5966195, "lon": 35.5923971, "tags": {"name": "Chepkiswet", "place": "village"}}, {"type": "node", "id": 9759322702, "lat": -0.5987681, "lon": 35.6143704, "tags": {"name": "Sitotwet", "place": "village"}}, {"type": "node", "id": 9759322703, "lat": -0.6078028, "lon": 35.5975291, "tags": {"name": "Kibororwo", "place": "village"}}, {"type": "node", "id": 9759322704, "lat": -0.6086345, "lon": 35.6098215, "tags": {"name": "Kimugul", "place": "village"}}, {"type": "node", "id": 9759322705, "lat": -0.6023294, "lon": 35.6427055, "tags": {"name": "Cheptagum", "place": "village"}}, {"type": "node", "id": 9759322706, "lat": -0.6001402, "lon": 35.6311886, "tags": {"name": "Kondamet", "place": "village"}}, {"type": "node", "id": 9759322707, "lat": -0.6099705, "lon": 35.6176428, "tags": {"name": "Kabugunot", "place": "village"}}, {"type": "node", "id": 9759322708, "lat": -0.61959, "lon": 35.600346, "tags": {"name": "Cheptebes", "place": "village"}}, {"type": "node", "id": 9759322709, "lat": -0.6279775, "lon": 35.5997491, "tags": {"name": "Konoito", "place": "village"}}, {"type": "node", "id": 9759322710, "lat": -0.6162543, "lon": 35.6400025, "tags": {"name": "Simotwet", "place": "village"}}, {"type": "node", "id": 9759322711, "lat": -0.6075392, "lon": 35.6351996, "tags": {"name": "Kipsogon", "place": "village"}}, {"type": "node", "id": 9759322712, "lat": -0.6107252, "lon": 35.6260755, "tags": {"name": "Seger", "place": "village"}}, {"type": "node", "id": 9759322713, "lat": -0.620458, "lon": 35.6195752, "tags": {"name": "Seger Saptenok", "place": "village"}}, {"type": "node", "id": 9759322714, "lat": -0.6291839, "lon": 35.6102163, "tags": {"name": "Emitik", "place": "village"}}, {"type": "node", "id": 9759322715, "lat": -0.6374607, "lon": 35.6010573, "tags": {"name": "Lelchwet", "place": "village"}}, {"type": "node", "id": 9759322716, "lat": -0.6243878, "lon": 35.626546, "tags": {"name": "Tuiyobei A", "place": "village"}}, {"type": "node", "id": 9759323317, "lat": -0.6332546, "lon": 35.6176183, "tags": {"name": "Toiyabei B", "place": "village"}}, {"type": "node", "id": 9759323318, "lat": -0.6412585, "lon": 35.6105192, "tags": {"name": "Kipsunyan", "place": "village"}}, {"type": "node", "id": 9759323319, "lat": -0.644173, "lon": 35.6027556, "tags": {"name": "Kapcheluch", "place": "village"}}, {"type": "node", "id": 9759323320, "lat": -0.6513605, "lon": 35.6090267, "tags": {"name": "Toiyon", "place": "village"}}, {"type": "node", "id": 9759323321, "lat": -0.6592263, "lon": 35.6052536, "tags": {"name": "Chikamba", "place": "village"}}]}