{"version": 0.6, "generator": "Overpass API 0.7.61.5 4133829e", "osm3s": {"timestamp_osm_base": "2024-03-05T15:08:58Z", "copyright": "The data included in this document is from www.openstreetmap.org. The data is made available under ODbL."}, "elements": [{"type": "node", "id": 252641786, "lat": 64.5292901, "lon": 19.3456804, "tags": {"name": "\u00c5msele", "place": "village", "ref:se:pts:postort": "\u00c5MSELE", "ref:se:scb": "8392"}}, {"type": "node", "id": 312662739, "lat": 64.2837175, "lon": 19.2167041, "tags": {"name": "Strand\u00e5ker", "place": "hamlet"}}, {"type": "node", "id": 312662751, "lat": 64.2883979, "lon": 19.1992167, "tags": {"name": "Videlund", "place": "hamlet"}}, {"type": "node", "id": 312662758, "lat": 64.3047242, "lon": 19.165249, "tags": {"name": "Vidstrandsn\u00e4s", "place": "hamlet"}}, {"type": "node", "id": 312667451, "lat": 64.3457909, "lon": 19.1488064, "tags": {"name": "Gran\u00f6lund", "place": "hamlet"}}, {"type": "node", "id": 312667513, "lat": 64.3973666, "lon": 19.0457223, "tags": {"name": "Lillsele", "place": "hamlet"}}, {"type": "node", "id": 312667744, "lat": 64.5297254, "lon": 18.7691215, "tags": {"name": "Ringaborg", "place": "hamlet"}}, {"type": "node", "id": 312667750, "lat": 64.5364591, "lon": 18.7613009, "tags": {"name": "Karonsbo", "place": "hamlet"}}, {"type": "node", "id": 332423024, "lat": 64.3076515, "lon": 19.623205, "tags": {"name": "H\u00e4lln\u00e4s", "place": "village", "ref:se:pts:postort": "H\u00c4LLN\u00c4S", "ref:se:scb": "8204", "wikidata": "Q1022428", "wikipedia": "en:H\u00e4lln\u00e4s"}}, {"type": "node", "id": 822583999, "lat": 64.5234269, "lon": 18.7562016, "tags": {"name": "Tannsele", "place": "hamlet"}}, {"type": "node", "id": 822584009, "lat": 64.4488959, "lon": 18.8336209, "tags": {"name": "Norrg\u00e5rd", "place": "hamlet"}}, {"type": "node", "id": 822584010, "lat": 64.4005838, "lon": 18.8334707, "tags": {"name": "G\u00e4ddtr\u00e4sk", "place": "hamlet"}}, {"type": "node", "id": 1418743360, "lat": 64.4114798, "lon": 19.6648803, "tags": {"name": "Yttersj\u00f6n", "place": "hamlet", "source": "survey"}}, {"type": "node", "id": 1818145401, "lat": 64.3249117, "lon": 19.5337416, "tags": {"name": "Avan\u00e4s", "place": "hamlet"}}, {"type": "node", "id": 1818145408, "lat": 64.2868401, "lon": 19.6203319, "tags": {"name": "Bodarna", "place": "hamlet"}}, {"type": "node", "id": 1818145423, "lat": 64.2780229, "lon": 19.6288199, "tags": {"name": "B\u00f6jern", "place": "hamlet"}}, {"type": "node", "id": 1818145427, "lat": 64.3839144, "lon": 19.5190796, "tags": {"name": "Gladaberg", "place": "hamlet"}}, {"type": "node", "id": 1833445510, "lat": 64.3584549, "lon": 19.1411838, "tags": {"name": "Gran\u00f6lund", "place": "hamlet"}}, {"type": "node", "id": 1833445542, "lat": 64.513791, "lon": 18.8685848, "tags": {"name": "Vilan", "place": "hamlet"}}, {"type": "node", "id": 1975807890, "lat": 64.4830349, "lon": 19.4499202, "tags": {"name": "Djupvik", "place": "hamlet"}}, {"type": "node", "id": 2201696212, "lat": 64.4893016, "lon": 19.329933, "tags": {"name": "\u00c5msele station", "place": "hamlet"}}, {"type": "node", "id": 2301652474, "lat": 64.5037286, "lon": 19.2600223, "tags": {"name": "Bjursele", "place": "hamlet"}}, {"type": "node", "id": 2302214141, "lat": 64.5603779, "lon": 18.990723, "tags": {"name": "Arv\u00e5n", "place": "hamlet"}}, {"type": "node", "id": 2302224398, "lat": 64.4998963, "lon": 19.0476936, "tags": {"name": "Ekorrtr\u00e4sk", "place": "hamlet"}}, {"type": "node", "id": 2307567675, "lat": 64.5002655, "lon": 19.3436821, "tags": {"name": "Abborrtr\u00e4sk", "place": "hamlet"}}, {"type": "node", "id": 2708946614, "lat": 64.6979891, "lon": 19.1431296, "tags": {"name": "Siksele", "place": "hamlet"}}, {"type": "node", "id": 2708946696, "lat": 64.7029566, "lon": 19.162618, "tags": {"name": "\u00c5lavan", "place": "hamlet"}}, {"type": "node", "id": 2933926156, "lat": 64.6730317, "lon": 19.3876423, "tags": {"name": "Br\u00e4nnforsliden", "place": "hamlet"}}, {"type": "node", "id": 2933926168, "lat": 64.6603638, "lon": 19.2698455, "tags": {"name": "M\u00e5rdsele", "place": "hamlet"}}, {"type": "node", "id": 2933930349, "lat": 64.5789085, "lon": 19.0349852, "tags": {"name": "Arvtr\u00e4sk", "place": "hamlet"}}, {"type": "node", "id": 2933959514, "lat": 64.6297886, "lon": 18.9871174, "tags": {"name": "Busj\u00f6n", "place": "hamlet"}}, {"type": "node", "id": 2933959535, "lat": 64.7150472, "lon": 18.9264137, "tags": {"name": "Stor-Holmtr\u00e4sk", "place": "hamlet"}}, {"type": "node", "id": 2940631437, "lat": 64.7168688, "lon": 19.1372417, "tags": {"name": "Sikselberg", "place": "hamlet"}}, {"type": "node", "id": 3243809298, "lat": 64.3248161, "lon": 19.6887849, "tags": {"name": "Lillsandsj\u00f6", "place": "hamlet"}}, {"type": "node", "id": 3243809299, "lat": 64.5340509, "lon": 19.6624536, "tags": {"name": "L\u00e5ngtr\u00e4sk", "place": "hamlet"}}, {"type": "node", "id": 4977101822, "lat": 64.3730436, "lon": 19.4084079, "tags": {"name": "Strycksele", "place": "hamlet"}}, {"type": "node", "id": 4996549875, "lat": 64.4411509, "lon": 19.2250442, "tags": {"name": "Ekorrsele", "place": "hamlet"}}, {"type": "node", "id": 6830698669, "lat": 64.5620959, "lon": 19.1160805, "tags": {"name": "Arvsele", "place": "hamlet"}}, {"type": "node", "id": 7467329397, "lat": 64.3084025, "lon": 19.5922829, "tags": {"name": "Hundn\u00e4sg\u00e4rdan", "place": "hamlet"}}, {"type": "node", "id": 7468166951, "lat": 64.3581133, "lon": 19.1416406, "tags": {"name": "Sk\u00e5lboda", "place": "hamlet"}}, {"type": "node", "id": 7468199094, "lat": 64.3354551, "lon": 18.974662, "tags": {"name": "Bysstr\u00e4sk", "place": "hamlet"}}, {"type": "node", "id": 7468202527, "lat": 64.3438852, "lon": 19.455039, "tags": {"name": "Edlunda", "place": "hamlet"}}, {"type": "node", "id": 7468202891, "lat": 64.3457598, "lon": 18.9867039, "tags": {"name": "Bastun\u00e4s", "place": "hamlet"}}, {"type": "node", "id": 7468203997, "lat": 64.2749945, "lon": 19.4125288, "tags": {"name": "Kussj\u00f6", "place": "hamlet"}}, {"type": "node", "id": 7468231122, "lat": 64.2940502, "lon": 19.4319737, "tags": {"name": "Kullsj\u00f6", "place": "hamlet"}}, {"type": "node", "id": 7468231648, "lat": 64.3932755, "lon": 19.3452817, "tags": {"name": "Stryckfors", "place": "hamlet"}}, {"type": "node", "id": 7468232809, "lat": 64.2687624, "lon": 19.6275082, "tags": {"name": "Lund", "place": "hamlet"}}, {"type": "node", "id": 7468242667, "lat": 64.328395, "lon": 19.5956609, "tags": {"name": "Nedre Hjuksk\u00e4len", "place": "hamlet"}}, {"type": "node", "id": 7468244764, "lat": 64.3468401, "lon": 19.6952474, "tags": {"name": "Kvarnbr\u00e5net", "place": "hamlet"}}, {"type": "node", "id": 7468247935, "lat": 64.3288599, "lon": 19.6259633, "tags": {"name": "\u00d6vre Hjuksk\u00e4len", "place": "hamlet"}}, {"type": "node", "id": 7468248301, "lat": 64.3353745, "lon": 19.5030671, "tags": {"name": "Kronlund", "place": "hamlet"}}, {"type": "node", "id": 7468252265, "lat": 64.3405473, "lon": 19.4924468, "tags": {"name": "Bergn\u00e4s", "place": "hamlet"}}, {"type": "node", "id": 7468258090, "lat": 64.3468497, "lon": 19.6892056, "tags": {"name": "Sj\u00f6br\u00e5net", "place": "hamlet"}}, {"type": "node", "id": 7468276192, "lat": 64.4191143, "lon": 19.6684406, "tags": {"name": "Ljustj\u00e4rnbr\u00e4nnan", "place": "hamlet"}}, {"type": "node", "id": 7468278232, "lat": 64.4024991, "lon": 19.6508329, "tags": {"name": "Malsj\u00f6by", "place": "hamlet"}}, {"type": "node", "id": 7468282072, "lat": 64.3913287, "lon": 19.6839087, "tags": {"name": "Malk\u00e4len", "place": "hamlet"}}, {"type": "node", "id": 7469427946, "lat": 64.4098026, "lon": 19.295415, "tags": {"name": "Nybr\u00e4nnan", "place": "hamlet"}}, {"type": "node", "id": 7469428401, "lat": 64.4312453, "lon": 19.2456073, "tags": {"name": "Nedre Ekorrsele", "place": "hamlet"}}, {"type": "node", "id": 7469432236, "lat": 64.5423675, "lon": 19.3386423, "tags": {"name": "Kvarnbr\u00e4nnan", "place": "hamlet"}}, {"type": "node", "id": 7469432746, "lat": 64.4225904, "lon": 19.2638136, "tags": {"name": "Ekorrlund", "place": "hamlet"}}, {"type": "node", "id": 7469447156, "lat": 64.6057293, "lon": 19.1556711, "tags": {"name": "B\u00e4ck", "place": "hamlet"}}, {"type": "node", "id": 7469448291, "lat": 64.5109543, "lon": 19.0150613, "tags": {"name": "Ekorrsj\u00f6", "place": "hamlet"}}, {"type": "node", "id": 7469448292, "lat": 64.486504, "lon": 19.2894364, "tags": {"name": "Bj\u00f6rktr\u00e4sk", "place": "hamlet"}}, {"type": "node", "id": 7469453583, "lat": 64.4514241, "lon": 19.336378, "tags": {"name": "Kroktr\u00e4sk", "place": "hamlet"}}, {"type": "node", "id": 7469455402, "lat": 64.4259699, "lon": 19.2408805, "tags": {"name": "F\u00e4bodarna", "place": "hamlet"}}, {"type": "node", "id": 7469456550, "lat": 64.4964605, "lon": 19.3455492, "tags": {"name": "Flarken", "place": "hamlet"}}, {"type": "node", "id": 7469461014, "lat": 64.4460286, "lon": 19.6321199, "tags": {"name": "Bl\u00e5liden", "place": "hamlet"}}, {"type": "node", "id": 7469463812, "lat": 64.5647421, "lon": 19.671025, "tags": {"name": "Stenb\u00e4cken", "place": "hamlet"}}, {"type": "node", "id": 7469464930, "lat": 64.6014644, "lon": 19.3993586, "tags": {"name": "Holmtr\u00e4sk", "place": "hamlet"}}, {"type": "node", "id": 7469472189, "lat": 64.4730941, "lon": 19.625557, "tags": {"name": "Slipstensj\u00f6n", "place": "hamlet"}}, {"type": "node", "id": 7469473560, "lat": 64.464269, "lon": 19.4324567, "tags": {"name": "Djupsund", "place": "hamlet"}}, {"type": "node", "id": 7469474236, "lat": 64.596011, "lon": 19.5464398, "tags": {"name": "S\u00e4vsj\u00f6n", "place": "hamlet"}}, {"type": "node", "id": 7469474530, "lat": 64.5662379, "lon": 19.6450558, "tags": {"name": "Treh\u00f6rningen", "place": "hamlet"}}, {"type": "node", "id": 7469475240, "lat": 64.4876969, "lon": 19.5729835, "tags": {"name": "Svanaliden", "place": "hamlet"}}, {"type": "node", "id": 7469479969, "lat": 64.5121379, "lon": 19.736037, "tags": {"name": "Ektr\u00e4sk", "place": "hamlet"}}, {"type": "node", "id": 7469483896, "lat": 64.6700869, "lon": 19.6758278, "tags": {"name": "Avaberg", "place": "hamlet"}}, {"type": "node", "id": 7469989872, "lat": 64.6963761, "lon": 19.349993, "tags": {"name": "\u00d6stansj\u00f6", "place": "hamlet"}}, {"type": "node", "id": 7469998356, "lat": 64.7122073, "lon": 19.3035856, "tags": {"name": "Manjaur", "place": "hamlet"}}, {"type": "node", "id": 7470037500, "lat": 64.7095878, "lon": 19.3433741, "tags": {"name": "Kl\u00e4ppen", "place": "hamlet"}}, {"type": "node", "id": 7470037501, "lat": 64.6830699, "lon": 19.488348, "tags": {"name": "Br\u00e4nnan", "place": "hamlet"}}, {"type": "node", "id": 7470048052, "lat": 64.6691601, "lon": 19.3559489, "tags": {"name": "Forsbacka", "place": "hamlet"}}, {"type": "node", "id": 7470058465, "lat": 64.6865435, "lon": 19.4662446, "tags": {"name": "Lossmen", "place": "hamlet"}}, {"type": "node", "id": 7470088390, "lat": 64.6848279, "lon": 19.4854912, "tags": {"name": "Lossmenbr\u00e4nnan", "place": "hamlet"}}, {"type": "node", "id": 7481925871, "lat": 64.3445255, "lon": 19.6694112, "tags": {"name": "\u00c5kerudden", "place": "hamlet"}}, {"type": "node", "id": 8449621623, "lat": 64.419177, "lon": 18.7512989, "tags": {"name": "K\u00f6nigslund", "place": "hamlet"}}, {"type": "node", "id": 8476446675, "lat": 64.2945263, "lon": 18.8315963, "tags": {"name": "L\u00e5ngsele", "place": "hamlet"}}, {"type": "node", "id": 8485956906, "lat": 64.6396252, "lon": 18.9385628, "tags": {"name": "Inner-Busj\u00f6", "place": "hamlet"}}, {"type": "node", "id": 10225311975, "lat": 64.41571, "lon": 19.2488546, "tags": {"name": "Stentr\u00e4sk", "place": "hamlet"}}]}