{"version": 0.6, "generator": "Overpass API 0.7.61.5 4133829e", "osm3s": {"timestamp_osm_base": "2024-03-05T11:05:12Z", "copyright": "The data included in this document is from www.openstreetmap.org. The data is made available under ODbL."}, "elements": [{"type": "node", "id": 318342092, "lat": 7.056139, "lon": -1.40425, "tags": {"capital": "6", "name": "Mampong", "place": "town", "wikidata": "Q992747"}}, {"type": "node", "id": 434482830, "lat": 7.1406497, "lon": -1.4878665, "tags": {"name": "Kofiase", "place": "town"}}, {"type": "node", "id": 434482946, "lat": 7.1195283, "lon": -1.4657222, "tags": {"name": "Asaam", "place": "village", "source": "landsat", "wikidata": "Q4804130"}}, {"type": "node", "id": 443430251, "lat": 6.9732864, "lon": -1.4743803, "tags": {"name": "Jamasi", "place": "town"}}, {"type": "node", "id": 443430377, "lat": 6.9811243, "lon": -1.3523291, "tags": {"name": "Beposo", "place": "town"}}, {"type": "node", "id": 443430400, "lat": 6.9390364, "lon": -1.3863181, "tags": {"name": "Banko", "place": "village"}}, {"type": "node", "id": 443430401, "lat": 6.9035298, "lon": -1.4359014, "tags": {"name": "Asante Asamang", "place": "village"}}, {"type": "node", "id": 443430430, "lat": 6.9208028, "lon": -1.4682005, "tags": {"name": "Akrofonso", "place": "village"}}, {"type": "node", "id": 443430432, "lat": 6.9327369, "lon": -1.4900327, "tags": {"capital": "6", "name": "Agona", "place": "town", "wikidata": "Q395258"}}, {"type": "node", "id": 443430434, "lat": 6.892173, "lon": -1.5015028, "tags": {"alt_name": "Tano Odumase", "name": "Tano Odumasi", "place": "village"}}, {"type": "node", "id": 443430436, "lat": 6.8744489, "lon": -1.5073393, "tags": {"name": "Kona", "place": "village"}}, {"type": "node", "id": 443430512, "lat": 7.05183, "lon": -1.519527, "tags": {"name": "Wiamoase", "place": "village", "wikidata": "Q7998002"}}, {"type": "node", "id": 443430634, "lat": 6.7933367, "lon": -1.4732326, "tags": {"name": "Bonwire", "place": "village", "wikidata": "Q4942679"}}, {"type": "node", "id": 443430970, "lat": 6.8446232, "lon": -1.4663123, "tags": {"name": "Kasaam", "place": "village"}}, {"type": "node", "id": 443431103, "lat": 6.8506256, "lon": -1.3953841, "tags": {"alt_name": "Effiduasi", "capital": "6", "name": "Effiduase", "place": "town", "wikidata": "Q5347451", "wikipedia": "en:Effiduase"}}, {"type": "node", "id": 443431131, "lat": 6.9497718, "lon": -1.508026, "tags": {"name": "Afamanso", "place": "village"}}, {"type": "node", "id": 443431132, "lat": 6.9572693, "lon": -1.5042494, "tags": {"name": "Bedomase", "place": "village"}}, {"type": "node", "id": 443431283, "lat": 6.8156479, "lon": -1.4215086, "tags": {"capital": "6", "name": "Juaben", "place": "town", "wikidata": "Q6298716"}}, {"type": "node", "id": 443431293, "lat": 6.8799025, "lon": -1.3682936, "tags": {"name": "Dadease", "place": "village"}}, {"type": "node", "id": 1797113392, "lat": 7.0841184, "lon": -1.5621975, "tags": {"name": "Bepoase", "place": "village"}}, {"type": "node", "id": 1801606339, "lat": 6.9375831, "lon": -1.2067168, "tags": {"name": "Eduamuyao", "place": "village"}}, {"type": "node", "id": 1818629296, "lat": 6.8132633, "lon": -1.3304616, "tags": {"alt_name": "Asukorkor", "name": "Asukawkaw", "place": "village"}}, {"type": "node", "id": 1818632589, "lat": 6.7752603, "lon": -1.239247, "tags": {"name": "Menam", "place": "village"}}, {"type": "node", "id": 1818632590, "lat": 6.8191342, "lon": -1.2485433, "tags": {"name": "Woraponso", "place": "village"}}, {"type": "node", "id": 1818632591, "lat": 6.8952482, "lon": -1.2357162, "tags": {"name": "Abasi", "place": "town"}}, {"type": "node", "id": 1819076616, "lat": 6.7715525, "lon": -1.4937285, "tags": {"name": "Abira", "place": "village"}}, {"type": "node", "id": 1819076617, "lat": 6.7898584, "lon": -1.4584275, "tags": {"name": "Bamang", "place": "village"}}, {"type": "node", "id": 1819076620, "lat": 7.0918847, "lon": -1.2123087, "tags": {"name": "Jeduako", "place": "village"}}, {"type": "node", "id": 1819556936, "lat": 6.8281866, "lon": -1.4962873, "tags": {"alt_name": "Old Asonomaso", "name": "Asonomaso", "place": "village"}}, {"type": "node", "id": 1819556939, "lat": 7.0266532, "lon": -1.4510144, "tags": {"name": "Mprim", "place": "village"}}, {"type": "node", "id": 1819556940, "lat": 7.0449159, "lon": -1.3549945, "tags": {"name": "Nkwabirem", "place": "village"}}, {"type": "node", "id": 1819556941, "lat": 7.0672632, "lon": -1.4552153, "tags": {"name": "Nyinampong", "place": "village"}}, {"type": "node", "id": 1819556944, "lat": 7.088389, "lon": -1.471369, "tags": {"name": "Benim", "place": "village"}}, {"type": "node", "id": 1819556948, "lat": 7.0930963, "lon": -1.4076905, "tags": {"alt_name": "Kyirimfaso", "name": "Kyeremfaso", "place": "village"}}, {"type": "node", "id": 1819556949, "lat": 7.0961429, "lon": -1.4504306, "tags": {"name": "Penteng", "place": "village"}}, {"type": "node", "id": 2122497580, "lat": 6.8436969, "lon": -1.4818026, "tags": {"name": "Safo", "place": "village"}}, {"type": "node", "id": 2165312304, "lat": 6.8952957, "lon": -1.2527578, "tags": {"name": "Bodomasi", "place": "town"}}, {"type": "node", "id": 2178295428, "lat": 6.7877186, "lon": -1.3034436, "tags": {"name": "Akuakrom", "place": "village"}}, {"type": "node", "id": 2178295429, "lat": 6.8019043, "lon": -1.470021, "tags": {"name": "Amanpe", "place": "village"}}, {"type": "node", "id": 2178295431, "lat": 7.0211869, "lon": -1.3102374, "tags": {"name": "Atonsu", "place": "village"}}, {"type": "node", "id": 2178295434, "lat": 6.9758839, "lon": -1.2715045, "tags": {"name": "Sekyere Kwamang", "place": "town"}}, {"type": "node", "id": 2178295435, "lat": 6.9728226, "lon": -1.2799204, "tags": {"name": "Papease", "place": "village"}}, {"type": "node", "id": 2178296094, "lat": 6.7589707, "lon": -1.409661, "tags": {"name": "Apimso", "place": "village"}}, {"type": "node", "id": 2178296151, "lat": 6.7630858, "lon": -1.4564874, "tags": {"name": "New Bomfa", "place": "village"}}, {"type": "node", "id": 2178296205, "lat": 6.7871551, "lon": -1.4406732, "tags": {"name": "Yaw Nkrumakurom", "place": "village"}}, {"type": "node", "id": 2178296214, "lat": 6.7882656, "lon": -1.5446859, "tags": {"name": "Dumanafo", "place": "village"}}, {"type": "node", "id": 2178296227, "lat": 6.7898315, "lon": -1.5323945, "tags": {"name": "Wadie Adwumakase", "place": "village"}}, {"type": "node", "id": 2178296283, "lat": 6.8094055, "lon": -1.5345897, "tags": {"name": "Gyamfi Wonoo", "place": "village"}}, {"type": "node", "id": 2178296370, "lat": 6.8244688, "lon": -1.5215109, "tags": {"name": "Tewobeb", "place": "village"}}, {"type": "node", "id": 2178296384, "lat": 6.8333998, "lon": -1.601056, "tags": {"name": "Swedru", "place": "village"}}, {"type": "node", "id": 2178296411, "lat": 6.8382353, "lon": -1.5528181, "tags": {"name": "Ejuratia", "place": "village"}}, {"type": "node", "id": 2178296475, "lat": 6.8479984, "lon": -1.5630686, "tags": {"name": "Mpobi", "place": "village"}}, {"type": "node", "id": 2178296511, "lat": 6.8504852, "lon": -1.5914548, "tags": {"alt_name": "Wawase", "name": "Wawasi", "place": "village"}}, {"type": "node", "id": 2178296516, "lat": 6.8494425, "lon": -1.5537307, "tags": {"name": "Dabaa", "place": "village"}}, {"type": "node", "id": 2178296550, "lat": 6.8561956, "lon": -1.5931246, "tags": {"name": "Ahodwo", "place": "hamlet"}}, {"type": "node", "id": 2178296561, "lat": 6.8575946, "lon": -1.5382718, "tags": {"place": "hamlet"}}, {"type": "node", "id": 2178296613, "lat": 6.916114, "lon": -1.3999621, "tags": {"name": "Mampong Akrofoso", "place": "village"}}, {"type": "node", "id": 2178296620, "lat": 6.916886, "lon": -1.2308656, "tags": {"place": "village"}}, {"type": "node", "id": 2178296709, "lat": 6.9340175, "lon": -1.55768, "tags": {"name": "Domeabra", "place": "village"}}, {"type": "node", "id": 2178296915, "lat": 6.9434888, "lon": -1.5647398, "tags": {"place": "hamlet"}}, {"type": "node", "id": 2178296937, "lat": 6.9483762, "lon": -1.4243506, "tags": {"name": "Yonso", "place": "village"}}, {"type": "node", "id": 2178296992, "lat": 6.9508786, "lon": -1.5529354, "tags": {"place": "hamlet"}}, {"type": "node", "id": 2178297033, "lat": 6.9630861, "lon": -1.4539491, "tags": {"name": "Apaah", "place": "village"}}, {"type": "node", "id": 2178297049, "lat": 6.90058, "lon": -1.4322889, "tags": {"name": "Konya Brehoma", "place": "village"}}, {"type": "node", "id": 2178297057, "lat": 6.9659385, "lon": -1.5611327, "tags": {"place": "hamlet"}}, {"type": "node", "id": 2178297078, "lat": 6.9689793, "lon": -1.4437218, "tags": {"name": "Kyekyewere", "place": "village"}}, {"type": "node", "id": 2179005918, "lat": 6.9682308, "lon": -1.6045951, "tags": {"name": "Adukro", "place": "village"}}, {"type": "node", "id": 2179005919, "lat": 6.8922904, "lon": -1.3890611, "tags": {"name": "Oboming", "place": "village"}}, {"type": "node", "id": 2179006395, "lat": 6.953416, "lon": -1.3990466, "tags": {"place": "village"}}, {"type": "node", "id": 2179006500, "lat": 6.9620276, "lon": -1.3923234, "tags": {"place": "village"}}, {"type": "node", "id": 2179006798, "lat": 6.9774279, "lon": -1.3994698, "tags": {"name": "Abaasua", "place": "village"}}, {"type": "node", "id": 2184397705, "lat": 6.9325697, "lon": -1.3349941, "tags": {"name": "Akrochire", "place": "village"}}, {"type": "node", "id": 2184397706, "lat": 6.9117218, "lon": -1.3456223, "tags": {"name": "Asecherewa", "place": "village"}}, {"type": "node", "id": 2184397707, "lat": 6.9912378, "lon": -1.3818582, "tags": {"name": "Asuafu", "place": "village"}}, {"type": "node", "id": 2184397708, "lat": 6.9178089, "lon": -1.3365781, "tags": {"name": "Bawjwiasi", "place": "village"}}, {"type": "node", "id": 2184399264, "lat": 6.9714671, "lon": -1.3721053, "tags": {"alt_name": "Dwansa", "name": "Juansa", "place": "village"}}, {"type": "node", "id": 2199571950, "lat": 7.0843679, "lon": -1.2871739, "tags": {"name": "Didaso", "place": "village"}}, {"type": "node", "id": 2199572017, "lat": 7.1459954, "lon": -1.2881747, "tags": {"name": "Nkujua", "place": "village"}}, {"type": "node", "id": 2199572053, "lat": 7.1596895, "lon": -1.2747647, "tags": {"name": "Mantukwa", "place": "village"}}, {"type": "node", "id": 2200191244, "lat": 7.0327251, "lon": -1.4901216, "tags": {"name": "Boanim", "place": "village"}}, {"type": "node", "id": 2200191249, "lat": 7.1111557, "lon": -1.5679484, "tags": {"name": "Mentukua", "place": "village"}}, {"type": "node", "id": 2200191313, "lat": 7.0473974, "lon": -1.4985686, "tags": {"name": "Amenase", "place": "village"}}, {"type": "node", "id": 2200191331, "lat": 7.0484948, "lon": -1.4900298, "tags": {"name": "Dome", "place": "village"}}, {"type": "node", "id": 2200191539, "lat": 7.1220606, "lon": -1.5777268, "tags": {"place": "hamlet"}}, {"type": "node", "id": 2200191578, "lat": 7.1279973, "lon": -1.4570663, "tags": {"name": "Naama", "place": "village"}}, {"type": "node", "id": 2200191601, "lat": 7.1529545, "lon": -1.3940844, "tags": {"name": "Abuontem", "place": "village"}}, {"type": "node", "id": 2200191730, "lat": 7.1933695, "lon": -1.3967451, "tags": {"name": "Bosomkyekye", "place": "village"}}, {"type": "node", "id": 2200191732, "lat": 7.1934255, "lon": -1.3344921, "tags": {"name": "Bunso", "place": "village"}}, {"type": "node", "id": 2201684751, "lat": 7.0332432, "lon": -1.3897434, "tags": {"name": "Bonkrong", "place": "village"}}, {"type": "node", "id": 2201684758, "lat": 7.0833603, "lon": -1.426091, "tags": {"name": "Krobo", "place": "village"}}, {"type": "node", "id": 2201684765, "lat": 7.0110844, "lon": -1.3829727, "tags": {"capital": "6", "name": "Nsuta", "place": "town", "wikidata": "Q15045457"}}, {"type": "node", "id": 2201684826, "lat": 7.0165861, "lon": -1.3440821, "tags": {"name": "Kyebi", "place": "village"}}, {"type": "node", "id": 2201684948, "lat": 7.033282, "lon": -1.3473084, "tags": {"name": "Kwagyei", "place": "village"}}, {"type": "node", "id": 2201685047, "lat": 7.0412847, "lon": -1.3427568, "tags": {"name": "Mpatuase", "place": "village"}}, {"type": "node", "id": 2201685324, "lat": 7.0686626, "lon": -1.4313848, "tags": {"place": "hamlet"}}, {"type": "node", "id": 2201685335, "lat": 7.0691074, "lon": -1.4380189, "tags": {"name": "Patase", "place": "village"}}, {"type": "node", "id": 2201686055, "lat": 7.1044262, "lon": -1.4582993, "tags": {"place": "hamlet"}}, {"type": "node", "id": 2201686163, "lat": 7.1780104, "lon": -1.5855461, "tags": {"place": "hamlet"}}, {"type": "node", "id": 2643329850, "lat": 6.8883916, "lon": -1.2878819, "tags": {"name": "Abotanso", "place": "village"}}, {"type": "node", "id": 2643534098, "lat": 6.910457, "lon": -1.277911, "tags": {"capital": "6", "name": "Kumawu", "place": "town", "wikidata": "Q6443670"}}, {"type": "node", "id": 2653574330, "lat": 6.812052, "lon": -1.3637602, "tags": {"name": "Ntunkumso", "place": "village"}}, {"type": "node", "id": 2653575256, "lat": 6.8296122, "lon": -1.3510307, "tags": {"name": "Ahwerewa", "place": "village"}}, {"type": "node", "id": 2653575257, "lat": 6.8254576, "lon": -1.3436922, "tags": {"name": "Bomso", "place": "village"}}, {"type": "node", "id": 2653575389, "lat": 6.8139312, "lon": -1.3150033, "tags": {"name": "Putuom", "place": "village"}}, {"type": "node", "id": 2653576052, "lat": 6.7688275, "lon": -1.2707164, "tags": {"name": "Brofoyedu", "place": "village"}}, {"type": "node", "id": 2653577124, "lat": 6.7529101, "lon": -1.2616612, "tags": {"name": "Nkwankwanua", "place": "village"}}, {"type": "node", "id": 4054957542, "lat": 6.7961873, "lon": -1.3837553, "tags": {"alt_name": "Abetrem", "name": "Abetenim", "place": "village"}}, {"type": "node", "id": 5692588204, "lat": 6.8297063, "lon": -1.5199804, "tags": {"name": "Ntonso", "place": "village"}}, {"type": "node", "id": 5692591835, "lat": 6.8125318, "lon": -1.4756719, "tags": {"name": "Adanwomase", "place": "village"}}, {"type": "node", "id": 6677035436, "lat": 6.8187679, "lon": -1.5528965, "tags": {"name": "Hemang", "place": "village"}}, {"type": "node", "id": 6698685076, "lat": 6.8093475, "lon": -1.5381264, "tags": {"name": "Aboaso", "place": "village", "wikidata": "Q4668200"}}, {"type": "node", "id": 7467864515, "lat": 6.75749, "lon": -1.5250477, "tags": {"name": "Antoa", "place": "village"}}, {"type": "node", "id": 7787682597, "lat": 7.126424, "lon": -1.3969912, "tags": {"name": "Nkwanta", "place": "village"}}, {"type": "node", "id": 7787682598, "lat": 7.1387479, "lon": -1.4011593, "tags": {"name": "Timber Nkwanta", "place": "village"}}, {"type": "node", "id": 7787682623, "lat": 7.0375513, "lon": -1.4141506, "tags": {"name": "Bosofour", "place": "village"}}, {"type": "node", "id": 7787682624, "lat": 7.0399035, "lon": -1.4103505, "tags": {"name": "Daaho", "place": "village"}}, {"type": "node", "id": 7787682626, "lat": 7.0052392, "lon": -1.4365486, "tags": {"name": "Ninting", "place": "village"}}, {"type": "node", "id": 8595780638, "lat": 6.7926923, "lon": -1.5780452, "tags": {"name": "Bampanase", "place": "village"}}, {"type": "node", "id": 8963845095, "lat": 6.7864529, "lon": -1.5663592, "tags": {"capital": "6", "name": "Mamponteng", "place": "town", "wikidata": "Q15045455"}}, {"type": "node", "id": 8986123793, "lat": 6.8955393, "lon": -1.2514544, "tags": {"name": "Bodomase", "place": "town"}}, {"type": "node", "id": 9275755531, "lat": 7.0358115, "lon": -1.2441924, "tags": {"name": "Kwamang-Esereso", "place": "village"}}, {"type": "node", "id": 9484689723, "lat": 6.8725401, "lon": -1.2794513, "tags": {"name": "Woraso", "place": "village"}}, {"type": "node", "id": 9993841485, "lat": 6.9638264, "lon": -1.4974134, "tags": {"name": "Agona-Bipoa", "place": "village"}}, {"type": "node", "id": 10865946907, "lat": 6.8691526, "lon": -1.3918192}, {"type": "node", "id": 10865946908, "lat": 6.8689129, "lon": -1.3920016}, {"type": "node", "id": 10865946909, "lat": 6.8688597, "lon": -1.3918246}, {"type": "node", "id": 10865946910, "lat": 6.8690567, "lon": -1.3916583}, {"type": "node", "id": 11365901438, "lat": 6.7916598, "lon": -1.2400952, "tags": {"name": "Nkansakrom", "place": "village"}}, {"type": "node", "id": 11492490475, "lat": 6.8495237, "lon": -1.5492278, "tags": {"name": "Ankaase", "place": "village"}}, {"type": "node", "id": 11492490476, "lat": 6.8155791, "lon": -1.5961531, "tags": {"name": "Adwumakase-Kese", "place": "village"}}, {"type": "node", "id": 11517819612, "lat": 6.9167081, "lon": -1.5824604, "tags": {"name": "Duaponko", "place": "hamlet"}}, {"type": "node", "id": 11519403064, "lat": 6.8154819, "lon": -1.5699479, "tags": {"name": "Abrade", "place": "village"}}, {"type": "node", "id": 11601944146, "lat": 6.7764117, "lon": -1.3546255, "tags": {"name": "Boatenkurom", "place": "village"}}, {"type": "node", "id": 11601944147, "lat": 6.7675849, "lon": -1.3574311, "tags": {"name": "Nkyerepoaso", "place": "village"}}, {"type": "node", "id": 11601944149, "lat": 6.769119, "lon": -1.38991, "tags": {"name": "Kokodie", "place": "village"}}, {"type": "node", "id": 11601944150, "lat": 6.7719104, "lon": -1.3891697, "tags": {"name": "Nsonyameye", "place": "village"}}, {"type": "node", "id": 11601944151, "lat": 6.773378, "lon": -1.3831642, "tags": {"name": "Abesewase", "place": "village"}}, {"type": "node", "id": 11601944152, "lat": 6.7749468, "lon": -1.3770837, "tags": {"name": "Ofoase", "place": "village"}}, {"type": "node", "id": 11601944153, "lat": 6.8146363, "lon": -1.3942713, "tags": {"name": "Asiampa", "place": "hamlet"}}, {"type": "node", "id": 11601944154, "lat": 6.7820955, "lon": -1.4448953, "tags": {"name": "New Yaw Nkrumakurom", "place": "village"}}, {"type": "node", "id": 11601944156, "lat": 6.7568454, "lon": -1.4206427, "tags": {"name": "Afraku", "place": "village"}}, {"type": "node", "id": 11601944157, "lat": 6.8498699, "lon": -1.4621365, "tags": {"name": "Dumakwae", "place": "village"}}, {"type": "node", "id": 11607715912, "lat": 6.8359659, "lon": -1.5166269, "tags": {"name": "New Asonomaso", "place": "village"}}, {"type": "node", "id": 11607715913, "lat": 6.7910392, "lon": -1.5810536, "tags": {"name": "Asamanya", "place": "village"}}, {"type": "node", "id": 11607766100, "lat": 6.7741211, "lon": -1.5424526, "tags": {"name": "Saaman", "place": "village"}}, {"type": "node", "id": 11607766101, "lat": 6.7633898, "lon": -1.5390918, "tags": {"name": "Nwomasi", "place": "village"}}, {"type": "node", "id": 11607766102, "lat": 6.7587832, "lon": -1.5530634, "tags": {"name": "Bosore", "place": "village"}}, {"type": "node", "id": 11607766107, "lat": 6.7592373, "lon": -1.569162, "tags": {"name": "Manhyia", "place": "village"}}, {"type": "node", "id": 11607766108, "lat": 6.7578389, "lon": -1.5647069, "tags": {"name": "Adwuman", "place": "village"}}, {"type": "node", "id": 11607766109, "lat": 6.7649693, "lon": -1.5566522, "tags": {"name": "Sisirase", "place": "village"}}, {"type": "node", "id": 11607766110, "lat": 6.7708823, "lon": -1.5601981, "tags": {"name": "Akyease", "place": "village"}}, {"type": "node", "id": 11607797942, "lat": 6.7959718, "lon": -1.5030831, "tags": {"name": "Sakra Wonoo", "place": "village"}}, {"type": "node", "id": 11607797943, "lat": 6.7816241, "lon": -1.5221456, "tags": {"name": "Akete Bommo", "place": "village"}}, {"type": "node", "id": 11607797944, "lat": 6.7831176, "lon": -1.509275, "tags": {"name": "Ahodwo", "place": "village"}}, {"type": "node", "id": 11607797945, "lat": 6.761544, "lon": -1.4945698, "tags": {"name": "Adense", "place": "village"}}, {"type": "node", "id": 11607797946, "lat": 6.7729425, "lon": -1.504274, "tags": {"name": "Krobo", "place": "village"}}, {"type": "node", "id": 11607797947, "lat": 6.7637813, "lon": -1.5142867, "tags": {"name": "Adeesena", "place": "village"}}, {"type": "node", "id": 11610281468, "lat": 7.1639285, "lon": -1.4804815, "tags": {"alt_name": "Ayankomam", "name": "Ayankamamu", "place": "hamlet"}}, {"type": "node", "id": 11610305069, "lat": 7.0633887, "lon": -1.4638934, "tags": {"name": "Sesease", "place": "hamlet"}}, {"type": "node", "id": 11610305070, "lat": 7.0605139, "lon": -1.4670798, "tags": {"name": "Kokoben", "place": "village"}}, {"type": "node", "id": 11610305071, "lat": 7.0413693, "lon": -1.3965404, "tags": {"name": "New Daamang", "place": "village"}}, {"type": "node", "id": 11610305072, "lat": 7.0088055, "lon": -1.4256236, "tags": {"name": "Hwidiem", "place": "village"}}, {"type": "node", "id": 11610305073, "lat": 7.028219, "lon": -1.4235181, "tags": {"name": "Pampaso", "place": "village"}}, {"type": "node", "id": 11610305076, "lat": 7.1428115, "lon": -1.3992025, "tags": {"name": "Bobin", "place": "village"}}, {"type": "node", "id": 11622621629, "lat": 7.0415929, "lon": -1.3773992, "tags": {"name": "Gyetua", "place": "village"}}, {"type": "node", "id": 11622621630, "lat": 7.0342606, "lon": -1.3736811, "tags": {"name": "Jetiase", "place": "village"}}, {"type": "node", "id": 11622621631, "lat": 7.048104, "lon": -1.3541261, "tags": {"name": "Bimma", "place": "village"}}, {"type": "node", "id": 11622621632, "lat": 7.0174394, "lon": -1.3667575, "tags": {"name": "Anansu", "place": "village"}}, {"type": "node", "id": 11622621633, "lat": 7.0306864, "lon": -1.3343123, "tags": {"name": "Dida", "place": "village"}}, {"type": "node", "id": 11622621634, "lat": 7.0379054, "lon": -1.3299039, "tags": {"name": "Kwaem", "place": "village"}}, {"type": "node", "id": 11622621635, "lat": 6.9945215, "lon": -1.2969917, "tags": {"name": "Tadieso", "place": "hamlet"}}, {"type": "node", "id": 11622621636, "lat": 7.006696, "lon": -1.3028746, "tags": {"name": "Sibaabi", "place": "hamlet"}}, {"type": "node", "id": 11622621637, "lat": 6.9938917, "lon": -1.4023574, "tags": {"name": "Kruwi", "place": "village"}}, {"type": "node", "id": 11622621638, "lat": 6.9514788, "lon": -1.3882109, "tags": {"name": "Anwanya", "place": "village"}}, {"type": "node", "id": 11626738560, "lat": 7.0082864, "lon": -1.2200873, "tags": {"name": "Kwameteng", "place": "hamlet"}}, {"type": "node", "id": 11626738567, "lat": 7.0897962, "lon": -1.2167627, "tags": {"name": "Ntrodo", "place": "village"}}, {"type": "node", "id": 11626738568, "lat": 7.0999824, "lon": -1.2927765, "tags": {"name": "Fawomang", "place": "village"}}, {"type": "node", "id": 11626763869, "lat": 7.092756, "lon": -1.3081536, "tags": {"name": "Nyamebekyere", "place": "village"}}, {"type": "node", "id": 11626763870, "lat": 7.0814144, "lon": -1.3541977, "tags": {"name": "Bonsukrom", "place": "hamlet"}}, {"type": "node", "id": 11626763871, "lat": 7.0927347, "lon": -1.3486576, "tags": {"name": "Owuobuoho", "place": "village"}}, {"type": "node", "id": 11626763872, "lat": 7.0837727, "lon": -1.3194537, "tags": {"name": "Amoamang", "place": "village"}}, {"type": "node", "id": 11626862224, "lat": 7.1764157, "lon": -1.2724292, "tags": {"name": "Asare Nkwanta No.2", "place": "village"}}, {"type": "node", "id": 11626862225, "lat": 7.1789598, "lon": -1.2698892, "tags": {"name": "Asare Nkwanta No.1", "place": "village"}}, {"type": "node", "id": 11626862226, "lat": 7.1403471, "lon": -1.2578139, "tags": {"name": "Ntrodo Dagomba", "place": "hamlet"}}, {"type": "node", "id": 11626862227, "lat": 7.1341167, "lon": -1.2893044, "tags": {"name": "Gariba Nkwan", "place": "village"}}, {"type": "node", "id": 11626862231, "lat": 7.1327647, "lon": -1.2048885, "tags": {"name": "Kurakan", "place": "hamlet"}}, {"type": "node", "id": 11640364619, "lat": 6.7703762, "lon": -1.2775067, "tags": {"name": "Awaham", "place": "village"}}, {"type": "node", "id": 11640364620, "lat": 6.7918702, "lon": -1.3155592, "tags": {"name": "Seniagya", "place": "village"}}, {"type": "node", "id": 11640364621, "lat": 6.8048208, "lon": -1.3196844, "tags": {"name": "Mangoase", "place": "hamlet"}}, {"type": "node", "id": 11640364622, "lat": 6.7967841, "lon": -1.3108546, "tags": {"name": "Oguaa", "place": "village"}}, {"type": "node", "id": 11640364623, "lat": 6.8105056, "lon": -1.3258414, "tags": {"name": "Senchi", "place": "village"}}, {"type": "node", "id": 11640364624, "lat": 6.8265276, "lon": -1.3528794, "tags": {"name": "Feyiase", "place": "village"}}, {"type": "node", "id": 11640364625, "lat": 6.839673, "lon": -1.3646597, "tags": {"name": "Apemso", "place": "village"}}, {"type": "node", "id": 11640364626, "lat": 6.7903734, "lon": -1.3456455, "tags": {"name": "Boiya", "place": "village"}}, {"type": "node", "id": 11640364627, "lat": 6.8449219, "lon": -1.386922, "tags": {"name": "Asokore", "place": "town"}}, {"type": "node", "id": 11640364628, "lat": 6.8793438, "lon": -1.4165524, "tags": {"name": "Adagya No.2", "place": "hamlet"}}, {"type": "node", "id": 11640364629, "lat": 6.8766623, "lon": -1.419189, "tags": {"name": "Adagya No.1", "place": "hamlet"}}, {"type": "node", "id": 11640364630, "lat": 6.8724256, "lon": -1.3978305, "tags": {"name": "Nsutem", "place": "village"}}, {"type": "node", "id": 11640412800, "lat": 6.8365598, "lon": -1.3014641, "tags": {"name": "Atakurom", "place": "village"}}, {"type": "node", "id": 11640412801, "lat": 6.8314292, "lon": -1.3060252, "tags": {"name": "Obaapaninkurom", "place": "village"}}, {"type": "node", "id": 11640412803, "lat": 6.8266768, "lon": -1.3123217, "tags": {"name": "Okaikurom", "place": "village"}}, {"type": "node", "id": 11640412804, "lat": 6.8255502, "lon": -1.3180563, "tags": {"name": "Odurokrom", "place": "village"}}, {"type": "node", "id": 11640412805, "lat": 6.8471283, "lon": -1.3443795, "tags": {"name": "Bima No.2", "place": "hamlet"}}, {"type": "node", "id": 11640412806, "lat": 6.8442508, "lon": -1.3499585, "tags": {"name": "Bima No.1", "place": "hamlet"}}, {"type": "node", "id": 11640412807, "lat": 6.8556274, "lon": -1.3581982, "tags": {"name": "Mahinso", "place": "village"}}, {"type": "node", "id": 11640412808, "lat": 6.8566181, "lon": -1.3445216, "tags": {"name": "Adukrom", "place": "village"}}, {"type": "node", "id": 11640412809, "lat": 6.8542507, "lon": -1.3389426, "tags": {"name": "Amunya", "place": "village"}}, {"type": "node", "id": 11640412810, "lat": 6.8464719, "lon": -1.3152158, "tags": {"name": "Ahensan", "place": "village"}}, {"type": "node", "id": 11640412811, "lat": 6.8525303, "lon": -1.3330954, "tags": {"name": "Akokoaso", "place": "village"}}, {"type": "node", "id": 11640412812, "lat": 6.8597924, "lon": -1.3338679, "tags": {"name": "Nnaama", "place": "village"}}, {"type": "node", "id": 11640412813, "lat": 6.8509938, "lon": -1.3671005, "tags": {"name": "Daakoho", "place": "village"}}, {"type": "node", "id": 11645358419, "lat": 6.9907876, "lon": -1.4744532, "tags": {"name": "Dawu", "place": "village"}}, {"type": "node", "id": 11645358420, "lat": 6.9837698, "lon": -1.4724684, "tags": {"name": "Tabre", "place": "village"}}, {"type": "node", "id": 11645358421, "lat": 6.9285516, "lon": -1.509279, "tags": {"name": "Abrakaso", "place": "village"}}, {"type": "way", "id": 1168356734, "nodes": [10865946907, 10865946908, 10865946909, 10865946910, 10865946907], "tags": {"name": "Westphalian Village", "place": "village", "population": "70+", "population:date": "2023-04-03"}}]}