{"version": 0.6, "generator": "Overpass API 0.7.61.5 4133829e", "osm3s": {"timestamp_osm_base": "2024-03-05T15:07:00Z", "copyright": "The data included in this document is from www.openstreetmap.org. The data is made available under ODbL."}, "elements": [{"type": "node", "id": 30146159, "lat": 57.184902, "lon": 14.0410977, "tags": {"name": "V\u00e4rnamo", "name:ru": "\u0412\u0435\u0440\u043d\u0430\u043c\u0443", "name:sv": "V\u00e4rnamo", "place": "town", "population": "19778", "population:date": "2020-12-31", "ref:se:pts:postort": "V\u00c4RNAMO", "ref:se:scb": "1732", "source:population": "V\u00e4rnamo Kommun", "wikidata": "Q54771", "wikipedia": "sv:V\u00e4rnamo"}}, {"type": "node", "id": 88790094, "lat": 56.8997562, "lon": 14.5546493, "tags": {"name": "Alvesta", "name:ru": "\u0410\u043b\u044c\u0432\u0435\u0441\u0442\u0430", "name:sv": "Alvesta", "place": "town", "population": "8017", "ref:se:pts:postort": "ALVESTA", "ref:se:scb": "1808", "wikidata": "Q2604885", "wikipedia": "sv:Alvesta"}}, {"type": "node", "id": 149267947, "lat": 57.1689031, "lon": 14.5805595, "tags": {"name": "Lammhult", "place": "village", "ref:se:pts:postort": "LAMMHULT", "ref:se:scb": "1908", "wikidata": "Q1025495"}}, {"type": "node", "id": 255853308, "lat": 57.3225698, "lon": 14.3402182, "tags": {"name": "Nydala", "place": "hamlet"}}, {"type": "node", "id": 256436196, "lat": 56.9858568, "lon": 14.0021105, "tags": {"name": "D\u00f6rarp", "place": "hamlet", "wikidata": "Q2033795"}}, {"type": "node", "id": 260278918, "lat": 56.9174629, "lon": 13.9894696, "tags": {"name": "Lagan", "place": "village", "ref:se:pts:postort": "LAGAN", "ref:se:scb": "1904", "wikidata": "Q1800209"}}, {"type": "node", "id": 270233280, "lat": 56.9871882, "lon": 14.3098574, "tags": {"name": "Rydaholm", "place": "village", "ref:se:pts:postort": "RYDAHOLM", "ref:se:scb": "1632"}}, {"type": "node", "id": 271960433, "lat": 57.1126382, "lon": 14.1664625, "tags": {"name": "Bor", "place": "village", "ref:se:pts:postort": "BOR", "ref:se:scb": "1428"}}, {"type": "node", "id": 280343445, "lat": 57.099093, "lon": 14.3055164, "tags": {"name": "Tuddabo", "place": "hamlet"}}, {"type": "node", "id": 300726559, "lat": 56.9594317, "lon": 14.6396858, "tags": {"name": "H\u00e4rl\u00f6v", "place": "hamlet", "wikidata": "Q2337472", "wikipedia": "sv:H\u00e4rl\u00f6v, Alvesta kommun"}}, {"type": "node", "id": 308053648, "lat": 57.2567711, "lon": 14.0564253, "tags": {"name": "H\u00f6rle", "place": "village"}}, {"type": "node", "id": 308055126, "lat": 57.0373677, "lon": 14.2582154, "tags": {"name": "Horda", "place": "village", "population": "368", "ref:se:pts:postort": "HORDA", "ref:se:scb": "1524", "wikidata": "Q1912043", "wikipedia": "sv:Horda"}}, {"type": "node", "id": 345770008, "lat": 56.9319695, "lon": 13.9998981, "tags": {"name": "Hallsj\u00f6", "place": "hamlet"}}, {"type": "node", "id": 395220814, "lat": 57.1341044, "lon": 14.2884328, "tags": {"name": "G\u00e4llaryd", "place": "village"}}, {"type": "node", "id": 395461516, "lat": 56.9352689, "lon": 14.1273707, "tags": {"name": "H\u00f6rda", "place": "hamlet"}}, {"type": "node", "id": 396138977, "lat": 57.1934994, "lon": 14.3317257, "tags": {"alt_name": "Ohs", "name": "Os", "place": "village", "wikidata": "Q3472268", "wikipedia": "sv:Os, V\u00e4rnamo kommun"}}, {"type": "node", "id": 596875068, "lat": 57.1240466, "lon": 14.0085207, "tags": {"name": "\u00c5minne", "place": "hamlet"}}, {"type": "node", "id": 597313694, "lat": 57.1573028, "lon": 14.0306949, "tags": {"name": "Helmershus", "place": "hamlet"}}, {"type": "node", "id": 598532945, "lat": 57.1482186, "lon": 14.4525619, "tags": {"name": "\u00c4lmhult", "place": "hamlet"}}, {"type": "node", "id": 598589874, "lat": 57.1221239, "lon": 14.562232, "tags": {"name": "Aneboda", "place": "hamlet"}}, {"type": "node", "id": 603745134, "lat": 57.3195952, "lon": 14.5911191, "tags": {"name": "Stockaryd", "place": "village", "population": "1047", "ref:se:pts:postort": "STOCKARYD", "ref:se:scb": "1680", "wikidata": "Q1016852", "wikipedia": "sv:Stockaryd"}}, {"type": "node", "id": 609204374, "lat": 57.2372784, "lon": 14.5787369, "tags": {"name": "R\u00f6rvik", "place": "village", "ref:se:pts:postort": "R\u00d6RVIK", "ref:se:scb": "1636"}}, {"type": "node", "id": 626705751, "lat": 57.2737401, "lon": 14.6234883, "tags": {"name": "R\u00e5sen", "place": "hamlet"}}, {"type": "node", "id": 626705760, "lat": 57.2762922, "lon": 14.6364917, "tags": {"name": "Kolsboda", "place": "hamlet"}}, {"type": "node", "id": 626705769, "lat": 57.2768722, "lon": 14.5828046, "tags": {"name": "Horsryda", "place": "hamlet"}}, {"type": "node", "id": 626705778, "lat": 57.2798647, "lon": 14.5737065, "tags": {"name": "Hag", "place": "hamlet"}}, {"type": "node", "id": 626705789, "lat": 57.2862666, "lon": 14.5666684, "tags": {"name": "Fager\u00e4ng", "place": "hamlet"}}, {"type": "node", "id": 626705800, "lat": 57.2958674, "lon": 14.5979966, "tags": {"name": "Stig\u00e5sa", "place": "hamlet"}}, {"type": "node", "id": 626705803, "lat": 57.2871016, "lon": 14.6173943, "tags": {"name": "Bj\u00f6rnhult", "place": "hamlet"}}, {"type": "node", "id": 626705807, "lat": 57.2846431, "lon": 14.6410407, "tags": {"name": "H\u00e4llabo", "place": "hamlet"}}, {"type": "node", "id": 626705817, "lat": 57.2949399, "lon": 14.6411265, "tags": {"name": "Nykulla", "place": "hamlet"}}, {"type": "node", "id": 626705822, "lat": 57.2783801, "lon": 14.6030606, "tags": {"name": "Bodaryd", "place": "hamlet"}}, {"type": "node", "id": 626705838, "lat": 57.3362605, "lon": 14.6389808, "tags": {"name": "\u00c4rnan\u00e4s", "place": "hamlet"}}, {"type": "node", "id": 626705844, "lat": 57.3241449, "lon": 14.6230162, "tags": {"name": "Ormestorp", "place": "hamlet"}}, {"type": "node", "id": 687051268, "lat": 57.0204712, "lon": 14.1865356, "tags": {"name": "Sl\u00e4ttebrohult", "place": "hamlet"}}, {"type": "node", "id": 699950802, "lat": 56.9057578, "lon": 14.0109805, "tags": {"name": "\u00c5by", "place": "hamlet"}}, {"type": "node", "id": 727718599, "lat": 57.2405982, "lon": 14.5717507, "tags": {"name": "Hillaf\u00e4llan", "place": "hamlet"}}, {"type": "node", "id": 727718600, "lat": 57.2520203, "lon": 14.6366724, "tags": {"name": "Allgunnaryd", "place": "hamlet"}}, {"type": "node", "id": 727718602, "lat": 57.2357146, "lon": 14.6143573, "tags": {"name": "Repan\u00e4s", "place": "hamlet"}}, {"type": "node", "id": 727718603, "lat": 57.2542392, "lon": 14.595652, "tags": {"name": "Notholma", "place": "hamlet"}}, {"type": "node", "id": 727718604, "lat": 57.2641191, "lon": 14.5665548, "tags": {"name": "Linnevik", "place": "hamlet"}}, {"type": "node", "id": 727718605, "lat": 57.2318665, "lon": 14.5708756, "tags": {"name": "Enekullen", "place": "hamlet"}}, {"type": "node", "id": 727718606, "lat": 57.2542096, "lon": 14.5661173, "tags": {"name": "Hillavara", "place": "hamlet"}}, {"type": "node", "id": 727718607, "lat": 57.251251, "lon": 14.6075205, "tags": {"name": "K\u00e5lberga", "place": "hamlet"}}, {"type": "node", "id": 727718608, "lat": 57.2520203, "lon": 14.6208112, "tags": {"name": "\u00c4lmeberg", "place": "hamlet"}}, {"type": "node", "id": 735648798, "lat": 57.249103, "lon": 14.5360889, "tags": {"name": "Ryd", "place": "hamlet"}}, {"type": "node", "id": 735648808, "lat": 57.2447733, "lon": 14.511887, "tags": {"name": "Hj\u00e4lmseryd", "place": "hamlet"}}, {"type": "node", "id": 735648820, "lat": 57.244104, "lon": 14.5229441, "tags": {"name": "Boatorp", "place": "hamlet"}}, {"type": "node", "id": 735648824, "lat": 57.2365727, "lon": 14.4948761, "tags": {"name": "G\u00e5daberg", "place": "hamlet"}}, {"type": "node", "id": 735648832, "lat": 57.2352336, "lon": 14.5065904, "tags": {"name": "F\u00f6reberg", "place": "hamlet"}}, {"type": "node", "id": 735648837, "lat": 57.2360915, "lon": 14.5181501, "tags": {"name": "Klerebo", "place": "hamlet"}}, {"type": "node", "id": 773256426, "lat": 57.0813781, "lon": 14.3479812, "tags": {"name": "H\u00f6gakull", "place": "hamlet"}}, {"type": "node", "id": 773256701, "lat": 57.107154, "lon": 14.2669536, "tags": {"name": "V\u00e4rmeshult", "place": "hamlet"}}, {"type": "node", "id": 773256827, "lat": 57.0597997, "lon": 14.3079901, "tags": {"name": "Skaftarp", "place": "hamlet"}}, {"type": "node", "id": 773257002, "lat": 57.0891823, "lon": 14.2592465, "tags": {"name": "L\u00e5ngshult", "place": "hamlet"}}, {"type": "node", "id": 773257913, "lat": 57.0723596, "lon": 14.2698037, "tags": {"name": "L\u00e5ngstorp", "place": "hamlet"}}, {"type": "node", "id": 773258046, "lat": 57.0890285, "lon": 14.3332189, "tags": {"name": "Ivars", "place": "hamlet"}}, {"type": "node", "id": 773258214, "lat": 57.0471057, "lon": 14.3518476, "tags": {"name": "Skyttebo", "place": "hamlet"}}, {"type": "node", "id": 836473090, "lat": 57.1599985, "lon": 14.4178716}, {"type": "node", "id": 836473103, "lat": 57.1174808, "lon": 14.3712966}, {"type": "node", "id": 836473114, "lat": 57.1776629, "lon": 14.446366}, {"type": "node", "id": 836473130, "lat": 57.163626, "lon": 14.443422}, {"type": "node", "id": 836473134, "lat": 57.1185408, "lon": 14.3744407}, {"type": "node", "id": 836473160, "lat": 57.1548464, "lon": 14.4260204}, {"type": "node", "id": 836473199, "lat": 57.1655966, "lon": 14.4367965}, {"type": "node", "id": 836473206, "lat": 57.1580605, "lon": 14.4176563}, {"type": "node", "id": 836473211, "lat": 57.17556, "lon": 14.4493627}, {"type": "node", "id": 836473223, "lat": 57.1173305, "lon": 14.3737889}, {"type": "node", "id": 836473229, "lat": 57.1526909, "lon": 14.4370081}, {"type": "node", "id": 836473232, "lat": 57.1584528, "lon": 14.4177068, "tags": {"name": "M\u00f6cklehult", "traffic_sign": "city_limit"}}, {"type": "node", "id": 836473242, "lat": 57.1736148, "lon": 14.4419499}, {"type": "node", "id": 836473256, "lat": 57.1193126, "lon": 14.3726215}, {"type": "node", "id": 836473268, "lat": 57.162215, "lon": 14.443157, "tags": {"name": "M\u00f6cklehult", "traffic_sign": "city_limit"}}, {"type": "node", "id": 836473274, "lat": 57.1544258, "lon": 14.4309622}, {"type": "node", "id": 836473287, "lat": 57.1623117, "lon": 14.4187128}, {"type": "node", "id": 836473311, "lat": 57.1672009, "lon": 14.4191334}, {"type": "node", "id": 836473319, "lat": 57.1633106, "lon": 14.4443157}, {"type": "node", "id": 836473358, "lat": 57.1601562, "lon": 14.4427911}, {"type": "node", "id": 836473418, "lat": 57.1711965, "lon": 14.4471546}, {"type": "node", "id": 836473430, "lat": 57.1174697, "lon": 14.3724638}, {"type": "node", "id": 836473437, "lat": 57.1551092, "lon": 14.4205528}, {"type": "node", "id": 890684242, "lat": 57.1994291, "lon": 14.5950933, "tags": {"name": "Bj\u00e4rkn\u00e4s", "place": "hamlet"}}, {"type": "node", "id": 890684263, "lat": 57.1895969, "lon": 14.626461, "tags": {"name": "Allgunneberg", "place": "hamlet"}}, {"type": "node", "id": 890697844, "lat": 57.2130596, "lon": 14.6254392, "tags": {"name": "B\u00e5rekulla", "place": "hamlet"}}, {"type": "node", "id": 890697849, "lat": 57.2218261, "lon": 14.6417079, "tags": {"name": "Sandvik", "place": "hamlet"}}, {"type": "node", "id": 890697853, "lat": 57.220327, "lon": 14.5849804, "tags": {"name": "Gr\u00f6nvik", "place": "hamlet"}}, {"type": "node", "id": 890697864, "lat": 57.2170235, "lon": 14.578046, "tags": {"name": "L\u00f6vf\u00e4llan", "place": "hamlet"}}, {"type": "node", "id": 890705194, "lat": 57.2153258, "lon": 14.5685929, "tags": {"name": "Draget", "place": "hamlet"}}, {"type": "node", "id": 890705210, "lat": 57.2234459, "lon": 14.570474, "tags": {"name": "Sisshemmet", "place": "hamlet"}}, {"type": "node", "id": 890705216, "lat": 57.2667413, "lon": 14.6040586, "tags": {"name": "Norra m\u00e5len", "place": "hamlet"}}, {"type": "node", "id": 890705221, "lat": 57.2596811, "lon": 14.5990967, "tags": {"name": "S\u00f6dra m\u00e5len", "place": "hamlet"}}, {"type": "node", "id": 890705229, "lat": 57.2089881, "lon": 14.6405412, "tags": {"name": "L\u00f6nesl\u00e4tt", "place": "hamlet"}}, {"type": "node", "id": 942817414, "lat": 57.2872104, "lon": 14.4293887, "tags": {"name": "Klinthult", "place": "hamlet"}}, {"type": "node", "id": 944500799, "lat": 57.279541, "lon": 14.3839211, "tags": {"name": "L\u00e5ng\u00f6", "place": "hamlet"}}, {"type": "node", "id": 944500810, "lat": 57.2960018, "lon": 14.3728624, "tags": {"name": "Sk\u00e4rvalla", "place": "hamlet"}}, {"type": "node", "id": 963597432, "lat": 57.3060776, "lon": 14.5125775, "tags": {"name": "Gamla Hj\u00e4lmseryd", "place": "hamlet"}}, {"type": "node", "id": 965276740, "lat": 57.2777708, "lon": 14.5576619, "tags": {"name": "Susingstorp", "place": "hamlet"}}, {"type": "node", "id": 965276742, "lat": 57.2910847, "lon": 14.5576251, "tags": {"name": "Anderstorp", "place": "hamlet"}}, {"type": "node", "id": 965276744, "lat": 57.2845975, "lon": 14.4957639, "tags": {"name": "Axaryd", "place": "hamlet"}}, {"type": "node", "id": 965276747, "lat": 57.2940891, "lon": 14.5127389, "tags": {"name": "Broddtorp", "place": "hamlet"}}, {"type": "node", "id": 965276750, "lat": 57.2996596, "lon": 14.4856746, "tags": {"name": "S\u00f6ndra", "place": "hamlet"}}, {"type": "node", "id": 965276753, "lat": 57.3125679, "lon": 14.4931863, "tags": {"name": "N\u00e4ssja", "place": "hamlet"}}, {"type": "node", "id": 965276755, "lat": 57.290448, "lon": 14.5255898, "tags": {"name": "T\u00f6djestorp", "place": "hamlet"}}, {"type": "node", "id": 965276763, "lat": 57.3034321, "lon": 14.5545468, "tags": {"name": "Hetseryd", "place": "hamlet"}}, {"type": "node", "id": 965276767, "lat": 57.2757603, "lon": 14.5314445, "tags": {"name": "Brohult", "place": "hamlet"}}, {"type": "node", "id": 965276771, "lat": 57.3075533, "lon": 14.5282999, "tags": {"name": "V\u00e4sterkvarn", "place": "hamlet"}}, {"type": "node", "id": 1149681004, "lat": 57.0258125, "lon": 14.7786687, "tags": {"name": "\u00c5by", "place": "village", "ref:se:scb": "2028", "source": "Bing", "wikidata": "Q1914653", "wikipedia": "sv:\u00c5by,_V\u00e4xj\u00f6_kommun"}}, {"type": "node", "id": 1257133756, "lat": 57.0387676, "lon": 14.3152396, "tags": {"name": "Hestra", "place": "hamlet"}}, {"type": "node", "id": 1257285741, "lat": 57.1326519, "lon": 14.5188208, "tags": {"name": "F\u00f6rhult", "place": "hamlet"}}, {"type": "node", "id": 1257285750, "lat": 57.1434694, "lon": 14.5131002, "tags": {"name": "Palmhult", "place": "hamlet"}}, {"type": "node", "id": 1257285756, "lat": 57.1416507, "lon": 14.4981721, "tags": {"name": "Sandb\u00e4cken", "place": "hamlet"}}, {"type": "node", "id": 1257285759, "lat": 57.1321812, "lon": 14.4984231, "tags": {"name": "Sand\u00e5sen", "place": "hamlet"}}, {"type": "node", "id": 1279154151, "lat": 57.1524202, "lon": 14.4616996, "tags": {"name": "Lindhult", "place": "hamlet"}}, {"type": "node", "id": 1279154158, "lat": 57.1467866, "lon": 14.5255211, "tags": {"name": "Sk\u00e4rsmo", "place": "hamlet"}}, {"type": "node", "id": 1295112238, "lat": 57.0478732, "lon": 14.3120126, "tags": {"name": "Borningarp", "place": "hamlet"}}, {"type": "node", "id": 1296621942, "lat": 57.0304391, "lon": 14.2881249, "tags": {"name": "Kolvarp", "place": "hamlet"}}, {"type": "node", "id": 1359707105, "lat": 57.034375, "lon": 14.5710085, "tags": {"name": "Torpsbruk", "place": "village", "ref:se:pts:postort": "TORPSBRUK", "ref:se:scb": "1996", "wikidata": "Q1899985"}}, {"type": "node", "id": 1359707106, "lat": 57.0043559, "lon": 14.572811, "tags": {"name": "Moheda", "place": "village", "ref:se:pts:postort": "MOHEDA", "ref:se:scb": "1944", "wikidata": "Q3188859"}}, {"type": "node", "id": 1368384331, "lat": 57.1236503, "lon": 14.4648003, "tags": {"name": "F\u00e4llorna", "place": "hamlet"}}, {"type": "node", "id": 1368411488, "lat": 57.1249193, "lon": 14.5052148, "tags": {"name": "Gyvik", "place": "hamlet"}}, {"type": "node", "id": 1387827698, "lat": 56.9272246, "lon": 14.2842743, "tags": {"name": "Skriperyd", "place": "hamlet"}}, {"type": "node", "id": 1704352289, "lat": 57.1585024, "lon": 14.408049, "tags": {"name": "Ivarsbygget", "place": "hamlet"}}, {"type": "node", "id": 1704352305, "lat": 57.13252, "lon": 14.3740241, "tags": {"name": "Ly\u00e5sa", "place": "hamlet"}}, {"type": "node", "id": 1704352307, "lat": 57.1386273, "lon": 14.3978998, "tags": {"name": "Malem", "place": "hamlet"}}, {"type": "node", "id": 1704352310, "lat": 57.1633746, "lon": 14.4398172, "tags": {"name": "M\u00f6cklehult", "place": "hamlet"}}, {"type": "node", "id": 1833437715, "lat": 57.169059, "lon": 14.5167935, "tags": {"name": "H\u00f6khemmet", "place": "hamlet"}}, {"type": "node", "id": 1833439817, "lat": 57.1538369, "lon": 14.5579922, "tags": {"name": "Stenbro", "place": "hamlet"}}, {"type": "node", "id": 1833439820, "lat": 57.1438056, "lon": 14.5563657, "tags": {"name": "\u00c4sk\u00e5s", "place": "hamlet"}}, {"type": "node", "id": 1833444556, "lat": 57.1092644, "lon": 14.4875789, "tags": {"name": "Gysl\u00e4tt", "place": "hamlet"}}, {"type": "node", "id": 1833465152, "lat": 57.1110343, "lon": 14.6824467, "tags": {"name": "L\u00e4dja", "place": "hamlet"}}, {"type": "node", "id": 1938474940, "lat": 57.3303032, "lon": 14.755368, "tags": {"name": "Karstorp", "place": "hamlet"}}, {"type": "node", "id": 1938475227, "lat": 57.331919, "lon": 14.7589729, "tags": {"name": "H\u00f6gelid", "place": "hamlet"}}, {"type": "node", "id": 1938476352, "lat": 57.3358169, "lon": 14.7675586, "tags": {"name": "Tomasg\u00e5rd", "place": "hamlet"}}, {"type": "node", "id": 1957106139, "lat": 57.1074806, "lon": 14.3251365, "tags": {"name": "Hult", "place": "hamlet"}}, {"type": "node", "id": 1957106140, "lat": 57.0863753, "lon": 14.3066484, "tags": {"name": "Hylte", "place": "hamlet"}}, {"type": "node", "id": 2022024916, "lat": 56.9235016, "lon": 13.9907886, "tags": {"name": "Berga", "place": "hamlet"}}, {"type": "node", "id": 2236207010, "lat": 56.9142971, "lon": 14.453907, "tags": {"name": "Hjortsberga", "place": "village", "population": "245", "ref:se:pts:postort": "HJORTSBERGA", "ref:se:scb": "1872", "wikidata": "Q258806"}}, {"type": "node", "id": 2237072167, "lat": 56.9939298, "lon": 14.6716104, "tags": {"name": "\u00d6r", "old_name": "\u00d6hr", "place": "hamlet", "ref:se:pts:postort": "\u00d6R"}}, {"type": "node", "id": 2363286423, "lat": 56.9753267, "lon": 14.0309614, "tags": {"name": "Flattinge", "place": "hamlet", "source": "GPS"}}, {"type": "node", "id": 2375945888, "lat": 57.173558, "lon": 14.6060965, "tags": {"name": "Bj\u00f6rn\u00f6", "place": "hamlet", "population": "198", "ref:se:scb": "S1822", "wikidata": "Q2789516"}}, {"type": "node", "id": 3166982872, "lat": 56.9503605, "lon": 14.5814954, "tags": {"name": "G\u00e5vetorp", "place": "hamlet", "source": "Ekonomiska kartan"}}, {"type": "node", "id": 3166982875, "lat": 57.069589, "lon": 14.6029441, "tags": {"name": "Lidn\u00e4s", "place": "hamlet"}}, {"type": "node", "id": 3640951853, "lat": 57.2772416, "lon": 14.1246169, "tags": {"name": "Gr\u00f6ndal", "place": "hamlet"}}, {"type": "node", "id": 3641308697, "lat": 57.2890723, "lon": 14.1197963, "tags": {"name": "Ya", "place": "hamlet"}}, {"type": "node", "id": 3642584337, "lat": 57.3015406, "lon": 14.1669112, "tags": {"name": "Bj\u00f6rkhaga", "place": "hamlet"}}, {"type": "node", "id": 3877292242, "lat": 57.0942463, "lon": 14.0474223, "tags": {"name": "T\u00e5nn\u00f6", "place": "village"}}, {"type": "node", "id": 5104114655, "lat": 57.180327, "lon": 14.2773748, "tags": {"name": "\u00c4lgsj\u00f6", "place": "hamlet"}}, {"type": "node", "id": 5176968234, "lat": 57.1880999, "lon": 14.3340259, "tags": {"name": "Hagavillan", "place": "hamlet"}}, {"type": "node", "id": 5177022572, "lat": 57.1933297, "lon": 14.3209756, "tags": {"name": "Sandb\u00e4cken", "place": "hamlet"}}, {"type": "node", "id": 6001181387, "lat": 57.1744091, "lon": 14.4487803}, {"type": "node", "id": 6005927921, "lat": 57.0205841, "lon": 14.3791733, "tags": {"name": "Tagel", "place": "hamlet"}}, {"type": "node", "id": 6968737408, "lat": 57.1656166, "lon": 14.2664407, "tags": {"name": "Gimmarp", "place": "hamlet"}}, {"type": "node", "id": 7047829678, "lat": 57.0933674, "lon": 14.0558137, "tags": {"name": "Brockag\u00e5rden", "place": "hamlet"}}, {"type": "node", "id": 7047907996, "lat": 57.0948896, "lon": 14.0606686, "tags": {"name": "Kulla", "place": "hamlet"}}, {"type": "node", "id": 7047908050, "lat": 57.0937928, "lon": 14.0712835, "tags": {"name": "Fridhem", "place": "hamlet"}}, {"type": "node", "id": 7047925839, "lat": 57.1040295, "lon": 14.0560705, "tags": {"name": "Djursag\u00e5rden", "place": "hamlet"}}, {"type": "node", "id": 7073558923, "lat": 57.0863924, "lon": 14.0698277, "tags": {"name": "Sl\u00e4ttf\u00e4llen", "place": "hamlet"}}, {"type": "node", "id": 7073558956, "lat": 57.084007, "lon": 14.0690549, "tags": {"name": "Jontab\u00e4ck", "place": "hamlet"}}, {"type": "node", "id": 7073558974, "lat": 57.0774347, "lon": 14.0729767, "tags": {"name": "Jonsbo", "place": "hamlet"}}, {"type": "node", "id": 7079668870, "lat": 57.1179607, "lon": 14.0526591, "tags": {"name": "Finnveden", "place": "hamlet"}}, {"type": "node", "id": 7124837371, "lat": 57.1324752, "lon": 14.0708845, "tags": {"name": "F\u00f6rarebacken", "place": "hamlet"}}, {"type": "node", "id": 7124837402, "lat": 57.135972, "lon": 14.063804, "tags": {"name": "Knutsg\u00e5rden", "place": "hamlet"}}, {"type": "node", "id": 7125168102, "lat": 57.2122131, "lon": 14.0407741, "tags": {"name": "Margretelund", "place": "hamlet"}}, {"type": "node", "id": 7139856169, "lat": 57.0535479, "lon": 14.0471159, "tags": {"name": "Toftan\u00e4s", "place": "hamlet"}}, {"type": "node", "id": 7140267293, "lat": 57.0625687, "lon": 14.0479901, "tags": {"name": "Lilla Rolstorp", "place": "hamlet"}}, {"type": "node", "id": 7140267431, "lat": 57.0674305, "lon": 14.0521505, "tags": {"name": "Fogdag\u00e5rden", "place": "hamlet"}}, {"type": "node", "id": 7140267508, "lat": 57.0707399, "lon": 14.0520286, "tags": {"name": "Rolstorp", "place": "hamlet"}}, {"type": "node", "id": 7141114162, "lat": 57.0689223, "lon": 14.0413631, "tags": {"name": "L\u00e5ngr\u00f6djan", "place": "hamlet"}}, {"type": "node", "id": 7149388366, "lat": 57.1402961, "lon": 14.0751702, "tags": {"name": "Norreg\u00e5rden", "place": "hamlet"}}, {"type": "node", "id": 7149402956, "lat": 57.1378028, "lon": 14.0722295, "tags": {"name": "Kaptensg\u00e5rden", "place": "hamlet"}}, {"type": "node", "id": 7149403039, "lat": 57.1350074, "lon": 14.0724848, "tags": {"name": "Assareg\u00e5rden", "place": "hamlet"}}, {"type": "node", "id": 7173300496, "lat": 57.2502974, "lon": 14.0179885, "tags": {"name": "Hylteryd", "place": "hamlet"}}, {"type": "node", "id": 7175367786, "lat": 57.2313538, "lon": 14.0095794, "tags": {"name": "V\u00e4llersten", "place": "hamlet"}}, {"type": "node", "id": 7177742023, "lat": 57.2219183, "lon": 14.0374127, "tags": {"name": "Sols\u00e4ter", "place": "hamlet"}}, {"type": "node", "id": 7177742039, "lat": 57.2197789, "lon": 14.029577, "tags": {"name": "Torp", "place": "hamlet"}}, {"type": "node", "id": 7177742170, "lat": 57.2220289, "lon": 14.0076641, "tags": {"name": "Bengtsbygget", "place": "hamlet"}}, {"type": "node", "id": 7177742235, "lat": 57.2158033, "lon": 14.0084838, "tags": {"name": "S\u00f6r\u00e5sen", "place": "hamlet"}}, {"type": "node", "id": 7177742236, "lat": 57.218093, "lon": 14.0073444, "tags": {"name": "Skogsf\u00e5llen", "place": "hamlet"}}, {"type": "node", "id": 7454969098, "lat": 57.3191598, "lon": 14.0503563, "tags": {"name": "S\u00f6dra N\u00e4ssja", "place": "hamlet"}}, {"type": "node", "id": 7455066491, "lat": 57.1963984, "lon": 14.2516834, "tags": {"name": "Stora Hyltan", "place": "hamlet"}}, {"type": "node", "id": 7455067433, "lat": 57.1692619, "lon": 14.319495, "tags": {"name": "V\u00e4stra Gunnamo", "place": "hamlet"}}, {"type": "node", "id": 7455101805, "lat": 57.219506, "lon": 14.5575211, "tags": {"name": "Sk\u00e4gghemmet", "place": "hamlet"}}, {"type": "node", "id": 7455102938, "lat": 57.1234837, "lon": 14.1116283, "tags": {"name": "Stora Bj\u00f6rkekulla", "place": "hamlet"}}, {"type": "node", "id": 7455121390, "lat": 57.1188225, "lon": 14.1040758, "tags": {"name": "Lilla Rona", "place": "hamlet"}}, {"type": "node", "id": 7455156187, "lat": 57.1100048, "lon": 14.1084991, "tags": {"name": "Stora Rona", "place": "hamlet"}}, {"type": "node", "id": 7455164214, "lat": 57.2497194, "lon": 14.7033823, "tags": {"name": "Stora Kr\u00e5khult", "place": "hamlet"}}, {"type": "node", "id": 7455211584, "lat": 57.0672147, "lon": 14.1836359, "tags": {"name": "S\u00f6dra Skunkabo", "place": "hamlet"}}, {"type": "node", "id": 7455225083, "lat": 57.3286082, "lon": 13.998093, "tags": {"name": "Norra Sv\u00e4n\u00f6", "place": "hamlet"}}, {"type": "node", "id": 7455229032, "lat": 57.0592604, "lon": 14.2100778, "tags": {"name": "Stockarshult", "place": "hamlet"}}, {"type": "node", "id": 7455267560, "lat": 57.1791281, "lon": 14.2161481, "tags": {"name": "Norra Kravlem\u00e5len", "place": "hamlet"}}, {"type": "node", "id": 7455286466, "lat": 57.2201517, "lon": 14.698254, "tags": {"name": "Skog", "place": "hamlet"}}, {"type": "node", "id": 7455365217, "lat": 57.2669206, "lon": 14.1563449, "tags": {"name": "\u00c4nga", "place": "hamlet"}}, {"type": "node", "id": 7455393874, "lat": 57.1653316, "lon": 14.3186078, "tags": {"name": "\u00d6stra Gunnamo", "place": "hamlet"}}, {"type": "node", "id": 7455395629, "lat": 57.0818694, "lon": 14.2294474, "tags": {"name": "S\u00f6dra S\u00f6laryd", "place": "hamlet"}}, {"type": "node", "id": 7455564175, "lat": 57.2928533, "lon": 14.710037, "tags": {"name": "Gistingstorp", "place": "hamlet"}}, {"type": "node", "id": 7455566956, "lat": 57.2522242, "lon": 14.739443, "tags": {"name": "K\u00e4nnestubba", "place": "hamlet"}}, {"type": "node", "id": 7455579536, "lat": 57.2295433, "lon": 14.744241, "tags": {"name": "Toraliden", "place": "hamlet"}}, {"type": "node", "id": 7455582553, "lat": 57.3041869, "lon": 14.7503127, "tags": {"name": "Holm", "place": "hamlet"}}, {"type": "node", "id": 7455582704, "lat": 57.2291588, "lon": 14.7590181, "tags": {"name": "Portaryd", "place": "hamlet"}}, {"type": "node", "id": 7455595992, "lat": 57.2527067, "lon": 14.7191291, "tags": {"name": "Gr\u00e4n\u00f6", "place": "hamlet"}}, {"type": "node", "id": 7455597409, "lat": 57.2651496, "lon": 14.7385725, "tags": {"name": "L\u00f6n\u00e5s", "place": "hamlet"}}, {"type": "node", "id": 7455600965, "lat": 57.2699831, "lon": 14.7567287, "tags": {"name": "Rya", "place": "hamlet"}}, {"type": "node", "id": 7455601557, "lat": 57.2347204, "lon": 14.7549397, "tags": {"name": "Brunnstorp", "place": "hamlet"}}, {"type": "node", "id": 7455602184, "lat": 57.2466013, "lon": 14.7622516, "tags": {"name": "Hyltan", "place": "hamlet"}}, {"type": "node", "id": 7455615607, "lat": 57.2307653, "lon": 14.7275689, "tags": {"name": "\u00c4pplaryd", "place": "hamlet"}}, {"type": "node", "id": 7455617583, "lat": 57.2898255, "lon": 14.7424963, "tags": {"name": "H\u00f6gar\u00f6r", "place": "hamlet"}}, {"type": "node", "id": 7455628525, "lat": 57.2735216, "lon": 14.7096919, "tags": {"name": "Biskopsberg", "place": "hamlet"}}, {"type": "node", "id": 7455639673, "lat": 57.2803377, "lon": 14.7088755, "tags": {"name": "Holma", "place": "hamlet"}}, {"type": "node", "id": 7455641055, "lat": 57.2674777, "lon": 14.7719833, "tags": {"name": "N\u00e4ssja", "place": "hamlet"}}, {"type": "node", "id": 7455641800, "lat": 57.2795344, "lon": 14.7534155, "tags": {"name": "Griggatorp", "place": "hamlet"}}, {"type": "node", "id": 7455642149, "lat": 57.2950652, "lon": 14.7590592, "tags": {"name": "Eskilstorp", "place": "hamlet"}}, {"type": "node", "id": 7455649512, "lat": 57.285776, "lon": 14.7523778, "tags": {"name": "R\u00f6skog", "place": "hamlet"}}, {"type": "node", "id": 7455672882, "lat": 57.3258505, "lon": 14.7110565, "tags": {"name": "Tr\u00e5s\u00e5s", "place": "hamlet"}}, {"type": "node", "id": 7455699654, "lat": 57.309362, "lon": 14.7416127, "tags": {"name": "Buddatorp", "place": "hamlet"}}, {"type": "node", "id": 7455703467, "lat": 57.3157567, "lon": 14.7084955, "tags": {"name": "K\u00e4ttorp", "place": "hamlet"}}, {"type": "node", "id": 7455704712, "lat": 57.310184, "lon": 14.7119254, "tags": {"name": "Slagetorp", "place": "hamlet"}}, {"type": "node", "id": 7455878399, "lat": 56.946484, "lon": 14.2993441, "tags": {"name": "Tryggarp", "place": "hamlet"}}, {"type": "node", "id": 7455906987, "lat": 56.9852968, "lon": 14.2073533, "tags": {"name": "Forneboryd", "place": "hamlet"}}, {"type": "node", "id": 7455912426, "lat": 56.9454095, "lon": 14.2164861, "tags": {"name": "Holmebo", "place": "hamlet"}}, {"type": "node", "id": 7455919630, "lat": 56.984488, "lon": 14.2796249, "tags": {"name": "Nederled", "place": "hamlet"}}, {"type": "node", "id": 7455922865, "lat": 56.9711507, "lon": 14.2378211, "tags": {"name": "Karlsg\u00e4rde", "place": "hamlet"}}, {"type": "node", "id": 7455926081, "lat": 56.9431437, "lon": 14.2474169, "tags": {"name": "Tostarp", "place": "hamlet"}}, {"type": "node", "id": 7455937922, "lat": 56.9668971, "lon": 14.2462035, "tags": {"name": "Torp", "place": "hamlet"}}, {"type": "node", "id": 7455941203, "lat": 56.9669801, "lon": 14.3084828, "tags": {"name": "Lunnag\u00e5rd", "place": "hamlet"}}, {"type": "node", "id": 7455944503, "lat": 56.9391306, "lon": 14.2831291, "tags": {"name": "Linn\u00e5s", "place": "hamlet"}}, {"type": "node", "id": 7455948006, "lat": 56.9516407, "lon": 14.2849226, "tags": {"name": "Luveryd", "place": "hamlet"}}, {"type": "node", "id": 7455948207, "lat": 56.9521319, "lon": 14.2341225, "tags": {"name": "\u00c5sen", "place": "hamlet"}}, {"type": "node", "id": 7455952429, "lat": 56.9666393, "lon": 14.2870746, "tags": {"name": "Sl\u00e4ttaberg", "place": "hamlet"}}, {"type": "node", "id": 7455957579, "lat": 56.9781495, "lon": 14.3378635, "tags": {"name": "Lindstad", "place": "hamlet"}}, {"type": "node", "id": 7455964284, "lat": 57.0098731, "lon": 14.3409814, "tags": {"name": "Rubblarp", "place": "hamlet"}}, {"type": "node", "id": 7455966246, "lat": 56.9629626, "lon": 14.3081947, "tags": {"name": "Hjortsj\u00f6", "place": "hamlet"}}, {"type": "node", "id": 7455966642, "lat": 56.9920344, "lon": 14.3321131, "tags": {"name": "S\u00e4vrarp", "place": "hamlet"}}, {"type": "node", "id": 7455982048, "lat": 56.9989271, "lon": 14.3635031, "tags": {"name": "Loshyltan", "place": "hamlet"}}, {"type": "node", "id": 7455991193, "lat": 57.0065893, "lon": 14.2782424, "tags": {"name": "Upplid", "place": "hamlet"}}, {"type": "node", "id": 7455996475, "lat": 57.0097367, "lon": 14.2898231, "tags": {"name": "L\u00f6karyd", "place": "hamlet"}}, {"type": "node", "id": 7456016804, "lat": 56.9999443, "lon": 14.2892326, "tags": {"name": "V\u00e4stanhaga", "place": "hamlet"}}, {"type": "node", "id": 7456047830, "lat": 57.0072204, "lon": 14.2446668, "tags": {"name": "L\u00f6paskog", "place": "hamlet"}}, {"type": "node", "id": 7456079081, "lat": 57.0052964, "lon": 14.1869, "tags": {"name": "Botilsbo", "place": "hamlet"}}, {"type": "node", "id": 7456099810, "lat": 56.9973912, "lon": 14.1932266, "tags": {"name": "R\u00e4fsebo", "place": "hamlet"}}, {"type": "node", "id": 7456110762, "lat": 57.0621232, "lon": 14.1785245, "tags": {"name": "Eriksbo", "place": "hamlet"}}, {"type": "node", "id": 7456124481, "lat": 57.0535256, "lon": 14.2386924, "tags": {"name": "Lindeberg", "place": "hamlet"}}, {"type": "node", "id": 7456125225, "lat": 57.0561669, "lon": 14.2163616, "tags": {"name": "Rydstorp", "place": "hamlet"}}, {"type": "node", "id": 7456134345, "lat": 57.0527299, "lon": 14.1943114, "tags": {"name": "Pinnarekulla", "place": "hamlet"}}, {"type": "node", "id": 7456143360, "lat": 57.0732712, "lon": 14.1796303, "tags": {"name": "Elseg\u00e4rde", "place": "hamlet"}}, {"type": "node", "id": 7456144015, "lat": 57.0310893, "lon": 14.0443232, "tags": {"name": "V\u00e4stra R\u00f6djan", "place": "hamlet"}}, {"type": "node", "id": 7456165352, "lat": 57.0689641, "lon": 14.311466, "tags": {"name": "Sj\u00f6ag\u00e4rde", "place": "hamlet"}}, {"type": "node", "id": 7456174479, "lat": 57.0967891, "lon": 14.3341254, "tags": {"name": "Br\u00e5ten", "place": "hamlet"}}, {"type": "node", "id": 7456189380, "lat": 57.1250313, "lon": 14.7397093, "tags": {"name": "Stora Granhult", "place": "hamlet"}}, {"type": "node", "id": 7456203444, "lat": 57.0779375, "lon": 14.2543172, "tags": {"name": "\u00c5ker\u00e5s", "place": "hamlet"}}, {"type": "node", "id": 7456216294, "lat": 57.0686003, "lon": 14.3388005, "tags": {"name": "Svansholmen", "place": "hamlet"}}, {"type": "node", "id": 7456218312, "lat": 57.0799917, "lon": 14.6240847, "tags": {"name": "Stora M\u00e5len", "place": "hamlet"}}, {"type": "node", "id": 7456221820, "lat": 56.9388056, "lon": 14.3712927, "tags": {"name": "Sibbohult", "place": "hamlet"}}, {"type": "node", "id": 7456231034, "lat": 56.9645352, "lon": 14.3660071, "tags": {"name": "Hallatorp", "place": "hamlet"}}, {"type": "node", "id": 7456233928, "lat": 56.9756669, "lon": 14.3728154, "tags": {"name": "Dragshyltan", "place": "hamlet"}}, {"type": "node", "id": 7456239840, "lat": 56.9873826, "lon": 14.3504468, "tags": {"name": "\u00c4lmesliden", "place": "hamlet"}}, {"type": "node", "id": 7456250717, "lat": 56.9652478, "lon": 14.3844648, "tags": {"name": "N\u00e5thult", "place": "hamlet"}}, {"type": "node", "id": 7456262203, "lat": 56.9494837, "lon": 14.3599507, "tags": {"name": "Hjortsj\u00f6", "place": "hamlet"}}, {"type": "node", "id": 7457782072, "lat": 57.2161755, "lon": 14.3164958, "tags": {"name": "Bohult", "place": "hamlet"}}, {"type": "node", "id": 7457788795, "lat": 57.1326533, "lon": 14.337811, "tags": {"name": "Mosshult", "place": "hamlet"}}, {"type": "node", "id": 7457790152, "lat": 57.2405289, "lon": 14.4064116, "tags": {"name": "Int\u00e4kt", "place": "hamlet"}}, {"type": "node", "id": 7457812633, "lat": 57.3091344, "lon": 14.3768548, "tags": {"name": "Fredriksdal", "place": "hamlet"}}, {"type": "node", "id": 7457823459, "lat": 57.2632748, "lon": 14.400824, "tags": {"name": "Svensbygd", "place": "hamlet"}}, {"type": "node", "id": 7457880509, "lat": 57.3107561, "lon": 14.3608472, "tags": {"name": "G\u00e5eryd", "place": "hamlet"}}, {"type": "node", "id": 7457900333, "lat": 57.1622276, "lon": 14.3800554, "tags": {"name": "Flathalla", "place": "hamlet"}}, {"type": "node", "id": 7457933059, "lat": 57.1792828, "lon": 14.3960816, "tags": {"name": "Flohult", "place": "hamlet"}}, {"type": "node", "id": 7457953729, "lat": 57.2077285, "lon": 14.4876233, "tags": {"name": "\u00c4skek\u00e4rr", "place": "hamlet"}}, {"type": "node", "id": 7458002750, "lat": 57.2080297, "lon": 14.5206611, "tags": {"name": "Bj\u00f6rka", "place": "hamlet"}}, {"type": "node", "id": 7458053637, "lat": 57.1930607, "lon": 14.4485291, "tags": {"name": "Karshult", "place": "hamlet"}}, {"type": "node", "id": 7458080925, "lat": 57.1897752, "lon": 14.4607366, "tags": {"name": "Lida", "place": "hamlet"}}, {"type": "node", "id": 7458096103, "lat": 57.1798999, "lon": 14.4498468, "tags": {"name": "Sl\u00e4tt\u00f6", "place": "hamlet"}}, {"type": "node", "id": 7458158843, "lat": 57.2570642, "lon": 14.4681367, "tags": {"name": "V\u00e4stra Mo", "place": "hamlet"}}, {"type": "node", "id": 7458170776, "lat": 57.2212352, "lon": 14.4654096, "tags": {"name": "Sk\u00e4rshult", "place": "hamlet"}}, {"type": "node", "id": 7458191466, "lat": 57.2524048, "lon": 14.4751531, "tags": {"name": "\u00d6stra Mo", "place": "hamlet"}}, {"type": "node", "id": 7458192337, "lat": 57.2241616, "lon": 14.485971, "tags": {"name": "Sk\u00e5eryd", "place": "hamlet"}}, {"type": "node", "id": 7458221391, "lat": 57.2136951, "lon": 14.4560827, "tags": {"name": "Krokshylte", "place": "hamlet"}}, {"type": "node", "id": 7458283327, "lat": 57.256416, "lon": 14.4534743, "tags": {"name": "Sl\u00e4thult", "place": "hamlet"}}, {"type": "node", "id": 7458294082, "lat": 57.2632552, "lon": 14.4510092, "tags": {"name": "Skjutsg\u00e4rde", "place": "hamlet"}}, {"type": "node", "id": 7458297013, "lat": 57.2422221, "lon": 14.4368234, "tags": {"name": "Ekhult", "place": "hamlet"}}, {"type": "node", "id": 7458312297, "lat": 57.2382489, "lon": 14.4465667, "tags": {"name": "Applehult", "place": "hamlet"}}, {"type": "node", "id": 7458338325, "lat": 57.1729228, "lon": 14.4735348, "tags": {"name": "Boda", "place": "hamlet"}}, {"type": "node", "id": 7458355768, "lat": 57.1856493, "lon": 14.4748923, "tags": {"name": "Hylte", "place": "hamlet"}}, {"type": "node", "id": 7458364564, "lat": 57.1804391, "lon": 14.4816323, "tags": {"name": "Gigaryd", "place": "hamlet"}}, {"type": "node", "id": 7458376377, "lat": 57.1852088, "lon": 14.5151502, "tags": {"name": "Uggleryd", "place": "hamlet"}}, {"type": "node", "id": 7458378698, "lat": 57.2991478, "lon": 14.4829203, "tags": {"name": "Andersg\u00e5rd", "place": "hamlet"}}, {"type": "node", "id": 7460534726, "lat": 57.2220688, "lon": 14.5041341, "tags": {"name": "F\u00e4gerhult", "place": "hamlet"}}, {"type": "node", "id": 7460548572, "lat": 57.2403438, "lon": 14.4869551, "tags": {"name": "Sk\u00f6rhult", "place": "hamlet"}}, {"type": "node", "id": 7460555030, "lat": 57.2645215, "lon": 14.4996977, "tags": {"name": "Allsarp", "place": "hamlet"}}, {"type": "node", "id": 7460566210, "lat": 57.182615, "lon": 14.5422971, "tags": {"name": "V\u00e4rn\u00e4s", "place": "hamlet"}}, {"type": "node", "id": 7460567242, "lat": 57.2226936, "lon": 14.548177, "tags": {"name": "Hund\u00e5sen", "place": "hamlet"}}, {"type": "node", "id": 7460572483, "lat": 57.1954396, "lon": 14.5289502, "tags": {"name": "Bodaryd", "place": "hamlet"}}, {"type": "node", "id": 7460588226, "lat": 57.2596659, "lon": 14.581228, "tags": {"name": "Lagmansryd", "place": "hamlet"}}, {"type": "node", "id": 7460594573, "lat": 57.2422407, "lon": 14.5583105, "tags": {"name": "H\u00e5knatorp", "place": "hamlet"}}, {"type": "node", "id": 7460615799, "lat": 57.2616106, "lon": 14.7623875, "tags": {"name": "M\u00e5rtatorp", "place": "hamlet"}}, {"type": "node", "id": 7460619498, "lat": 57.2119957, "lon": 14.621932, "tags": {"name": "B\u00e5reskalla", "place": "hamlet"}}, {"type": "node", "id": 7460623471, "lat": 57.1113522, "lon": 14.0493107, "tags": {"name": "Fr\u00f6ak\u00e4rr", "place": "hamlet"}}, {"type": "node", "id": 7460636428, "lat": 57.1113665, "lon": 14.2946467, "tags": {"name": "Djurarp", "place": "hamlet"}}, {"type": "node", "id": 7460636500, "lat": 57.109948, "lon": 14.088175, "tags": {"name": "Hagahult", "place": "hamlet"}}, {"type": "node", "id": 7460640688, "lat": 57.2291668, "lon": 14.6482435, "tags": {"name": "L\u00f6nelid", "place": "hamlet"}}, {"type": "node", "id": 7460641235, "lat": 57.2303896, "lon": 14.6931356, "tags": {"name": "L\u00f6vshult", "place": "hamlet"}}, {"type": "node", "id": 7460641455, "lat": 57.1277298, "lon": 14.1614976, "tags": {"name": "Ingabo", "place": "hamlet"}}, {"type": "node", "id": 7460643675, "lat": 57.2463588, "lon": 14.6707303, "tags": {"name": "Sv\u00e4ltestorp", "place": "hamlet"}}, {"type": "node", "id": 7460653617, "lat": 57.0985704, "lon": 14.0826756, "tags": {"name": "\u00c4lmeslid", "place": "hamlet"}}, {"type": "node", "id": 7460657047, "lat": 57.1393902, "lon": 14.2588548, "tags": {"name": "Skaver\u00e5s", "place": "hamlet"}}, {"type": "node", "id": 7460665841, "lat": 57.1186907, "lon": 14.2590067, "tags": {"name": "B\u00e4ckan\u00e4s", "place": "hamlet"}}, {"type": "node", "id": 7460675999, "lat": 57.1000559, "lon": 13.999629, "tags": {"name": "Sj\u00f6bo", "place": "hamlet"}}, {"type": "node", "id": 7460679580, "lat": 57.1150466, "lon": 14.1062316, "tags": {"name": "Skaklerona", "place": "hamlet"}}, {"type": "node", "id": 7460691879, "lat": 57.1319059, "lon": 14.2555838, "tags": {"name": "Risbygd", "place": "hamlet"}}, {"type": "node", "id": 7460701107, "lat": 57.1201847, "lon": 14.1356374, "tags": {"name": "\u00c5sen", "place": "hamlet"}}, {"type": "node", "id": 7460703286, "lat": 57.1465924, "lon": 14.1423325, "tags": {"name": "Dr\u00f6mminge", "place": "hamlet"}}, {"type": "node", "id": 7460703791, "lat": 57.1351624, "lon": 14.1664, "tags": {"name": "Vika", "place": "hamlet"}}, {"type": "node", "id": 7460709306, "lat": 57.139595, "lon": 14.2172765, "tags": {"name": "Kittebo", "place": "hamlet"}}, {"type": "node", "id": 7460709974, "lat": 57.1466971, "lon": 14.303718, "tags": {"name": "Gripenberg", "place": "hamlet"}}, {"type": "node", "id": 7460718958, "lat": 57.1516322, "lon": 14.3073535, "tags": {"name": "Stenh\u00e4llan", "place": "hamlet"}}, {"type": "node", "id": 7460719078, "lat": 57.1702491, "lon": 14.302856, "tags": {"name": "S\u00f6t\u00e5sa", "place": "hamlet"}}, {"type": "node", "id": 7460723832, "lat": 57.1150255, "lon": 14.2894614, "tags": {"name": "Bro", "place": "hamlet"}}, {"type": "node", "id": 7460724032, "lat": 57.1392886, "lon": 14.0097336, "tags": {"name": "Hult", "place": "hamlet"}}, {"type": "node", "id": 7460724121, "lat": 57.1339114, "lon": 14.2978548, "tags": {"name": "Ugglekull", "place": "hamlet"}}, {"type": "node", "id": 7460727773, "lat": 57.1310872, "lon": 14.0100058, "tags": {"name": "Tjutaryd", "place": "hamlet"}}, {"type": "node", "id": 7460729518, "lat": 57.1416885, "lon": 14.0272759, "tags": {"name": "\u00d6rtebro", "place": "hamlet"}}, {"type": "node", "id": 7460731681, "lat": 57.1227478, "lon": 14.2752957, "tags": {"name": "Ekeberg", "place": "hamlet"}}, {"type": "node", "id": 7460735848, "lat": 57.1526636, "lon": 14.2704751, "tags": {"name": "B\u00f6ssjarp", "place": "hamlet"}}, {"type": "node", "id": 7460736208, "lat": 57.1666358, "lon": 14.2513762, "tags": {"name": "Ramn\u00e5s", "place": "hamlet"}}, {"type": "node", "id": 7460742811, "lat": 57.1625021, "lon": 14.2862531, "tags": {"name": "G\u00f6lsebo", "place": "hamlet"}}, {"type": "node", "id": 7460743612, "lat": 57.1910532, "lon": 14.3372911, "tags": {"name": "Os", "place": "hamlet"}}, {"type": "node", "id": 7460748189, "lat": 57.1524298, "lon": 14.2580391, "tags": {"name": "Bj\u00f6rnhult", "place": "hamlet"}}, {"type": "node", "id": 7460751461, "lat": 57.1808719, "lon": 14.1763297, "tags": {"name": "S\u00f6drabo", "place": "hamlet"}}, {"type": "node", "id": 7460761180, "lat": 57.2256344, "lon": 14.2679591, "tags": {"name": "Ingabo", "place": "hamlet"}}, {"type": "node", "id": 7460797631, "lat": 57.1690201, "lon": 14.0378832, "tags": {"name": "Mossle", "place": "hamlet"}}, {"type": "node", "id": 7460801930, "lat": 57.2236778, "lon": 14.2367078, "tags": {"name": "F\u00f6rsebo", "place": "hamlet"}}, {"type": "node", "id": 7460818648, "lat": 57.191301, "lon": 14.1747826, "tags": {"name": "Norrabo", "place": "hamlet"}}, {"type": "node", "id": 7460818764, "lat": 57.2220967, "lon": 14.1100865, "tags": {"name": "\u00d6sthorja", "place": "hamlet"}}, {"type": "node", "id": 7460818934, "lat": 57.2224123, "lon": 14.1229578, "tags": {"name": "Lindstad", "place": "hamlet"}}, {"type": "node", "id": 7460820821, "lat": 57.2249164, "lon": 14.098657, "tags": {"name": "Hov", "place": "hamlet"}}, {"type": "node", "id": 7460823875, "lat": 57.2447615, "lon": 14.2504777, "tags": {"name": "Galln\u00e5s", "place": "hamlet"}}, {"type": "node", "id": 7460824000, "lat": 57.2253394, "lon": 14.2840983, "tags": {"name": "\u00c4lmhult", "place": "hamlet"}}, {"type": "node", "id": 7460824442, "lat": 57.2015542, "lon": 14.1630925, "tags": {"name": "Vret", "place": "hamlet"}}, {"type": "node", "id": 7460825379, "lat": 57.209639, "lon": 14.2585406, "tags": {"name": "Sl\u00e4thult", "place": "hamlet"}}, {"type": "node", "id": 7460826021, "lat": 57.2293099, "lon": 14.1595724, "tags": {"name": "R\u00f6nnhult", "place": "hamlet"}}, {"type": "node", "id": 7460835799, "lat": 57.2516124, "lon": 14.1543393, "tags": {"name": "Brunnsg\u00e5rden", "place": "hamlet"}}, {"type": "node", "id": 7460835828, "lat": 57.2777315, "lon": 14.2911837, "tags": {"name": "Dala", "place": "hamlet"}}, {"type": "node", "id": 7460841739, "lat": 57.204894, "lon": 14.1081074, "tags": {"name": "K\u00e4llstorp", "place": "hamlet"}}, {"type": "node", "id": 7460841751, "lat": 57.250581, "lon": 14.3013902, "tags": {"name": "Rumleborg", "place": "hamlet"}}, {"type": "node", "id": 7460848786, "lat": 57.2572132, "lon": 14.0398505, "tags": {"name": "Hylteg\u00e4rde", "place": "hamlet"}}, {"type": "node", "id": 7460854725, "lat": 57.2060369, "lon": 14.1006788, "tags": {"name": "Nederby", "place": "hamlet"}}, {"type": "node", "id": 7460859283, "lat": 57.311461, "lon": 14.2176123, "tags": {"name": "Mj\u00f6hult", "place": "hamlet"}}, {"type": "node", "id": 7460859713, "lat": 57.3149264, "lon": 14.2929081, "tags": {"name": "Flathult", "place": "hamlet"}}, {"type": "node", "id": 7460862175, "lat": 57.2449414, "lon": 14.1488446, "tags": {"name": "Earyd", "place": "hamlet"}}, {"type": "node", "id": 7460862197, "lat": 57.2629466, "lon": 14.2170164, "tags": {"name": "R\u00e5hult", "place": "hamlet"}}, {"type": "node", "id": 7460867960, "lat": 57.2489978, "lon": 14.224066, "tags": {"name": "Leda", "place": "hamlet"}}, {"type": "node", "id": 7460874218, "lat": 57.2718404, "lon": 14.3322129, "tags": {"name": "Ulvsn\u00e4s", "place": "hamlet"}}, {"type": "node", "id": 7460884145, "lat": 57.2673097, "lon": 14.3102591, "tags": {"name": "Haboarp", "place": "hamlet"}}, {"type": "node", "id": 7460889516, "lat": 57.2725296, "lon": 14.1533512, "tags": {"name": "Granstorp", "place": "hamlet"}}, {"type": "node", "id": 7460889719, "lat": 57.2640404, "lon": 14.059158, "tags": {"name": "H\u00f6rle bruk", "place": "hamlet"}}, {"type": "node", "id": 7460890003, "lat": 57.2930502, "lon": 14.2676322, "tags": {"name": "Hisinge", "place": "hamlet"}}, {"type": "node", "id": 7460892109, "lat": 57.2773249, "lon": 14.2351633, "tags": {"name": "S\u00f6lje", "place": "hamlet"}}, {"type": "node", "id": 7460900963, "lat": 57.3129896, "lon": 14.0122145, "tags": {"name": "H\u00e4rads\u00f6", "place": "hamlet"}}, {"type": "node", "id": 7461950503, "lat": 56.9902768, "lon": 14.7519401, "tags": {"name": "Lerikem\u00e5la", "place": "hamlet"}}, {"type": "node", "id": 7461953712, "lat": 57.0045038, "lon": 14.7287148, "tags": {"name": "Hult", "place": "hamlet"}}, {"type": "node", "id": 7461960061, "lat": 56.9931339, "lon": 14.717984, "tags": {"name": "Utn\u00e4s", "place": "hamlet"}}, {"type": "node", "id": 7462012390, "lat": 57.010321, "lon": 14.7730922, "tags": {"name": "Jule", "place": "hamlet"}}, {"type": "node", "id": 7462012638, "lat": 57.0404691, "lon": 14.7713484, "tags": {"name": "Gunnarstorp", "place": "hamlet"}}, {"type": "node", "id": 7462085200, "lat": 57.0518049, "lon": 14.7561461, "tags": {"name": "Hjulatorp", "place": "hamlet"}}, {"type": "node", "id": 7462277942, "lat": 57.324617, "lon": 14.2153734, "tags": {"name": "Dammen", "place": "hamlet"}}, {"type": "node", "id": 7462285200, "lat": 57.3292864, "lon": 14.1702797, "tags": {"name": "Gr\u00e4shult", "place": "hamlet"}}, {"type": "node", "id": 7462285201, "lat": 57.3292945, "lon": 14.2533087, "tags": {"name": "J\u00f6nshult", "place": "hamlet"}}, {"type": "node", "id": 7462296223, "lat": 57.3333748, "lon": 14.1602012, "tags": {"name": "Fagerhult", "place": "hamlet"}}, {"type": "node", "id": 7462297635, "lat": 57.3320452, "lon": 14.1411168, "tags": {"name": "V\u00e4shult", "place": "hamlet"}}, {"type": "node", "id": 7462604694, "lat": 57.1008888, "lon": 14.7463332, "tags": {"name": "Stenshult", "place": "hamlet"}}, {"type": "node", "id": 7462609593, "lat": 57.087778, "lon": 14.7275292, "tags": {"name": "Yxnan\u00e4s", "place": "hamlet"}}, {"type": "node", "id": 7462691103, "lat": 57.1220269, "lon": 14.7466012, "tags": {"name": "\u00c4lgaryd", "place": "hamlet"}}, {"type": "node", "id": 7462731766, "lat": 57.1843831, "lon": 14.7352886, "tags": {"name": "H\u00e5ngeryd", "place": "hamlet"}}, {"type": "node", "id": 7462733479, "lat": 57.1816173, "lon": 14.7189652, "tags": {"name": "\u00d6vratorp", "place": "hamlet"}}, {"type": "node", "id": 7462738586, "lat": 57.1710861, "lon": 14.7385919, "tags": {"name": "Silkeryd", "place": "hamlet"}}, {"type": "node", "id": 7462739215, "lat": 57.1904211, "lon": 14.7191631, "tags": {"name": "Kalvhult", "place": "hamlet"}}, {"type": "node", "id": 7462748471, "lat": 57.1568792, "lon": 14.725426, "tags": {"name": "Hj\u00e4lmaryd", "place": "hamlet"}}, {"type": "node", "id": 7462749411, "lat": 57.1712425, "lon": 14.719081, "tags": {"name": "L\u00f6ns\u00e5s", "place": "hamlet"}}, {"type": "node", "id": 7462751814, "lat": 57.1831897, "lon": 14.7114428, "tags": {"name": "Fraggahult", "place": "hamlet"}}, {"type": "node", "id": 7462812532, "lat": 57.1863899, "lon": 14.773724, "tags": {"name": "Kr\u00e5ketorp", "place": "hamlet"}}, {"type": "node", "id": 7462837603, "lat": 57.2171575, "lon": 14.7608623, "tags": {"name": "Baggans\u00e5s", "place": "hamlet"}}, {"type": "node", "id": 7462842856, "lat": 57.2165069, "lon": 14.7222594, "tags": {"name": "Norreg\u00e5rden", "place": "hamlet"}}, {"type": "node", "id": 7462845148, "lat": 57.2130231, "lon": 14.7533121, "tags": {"name": "Loftsryd", "place": "hamlet"}}, {"type": "node", "id": 7462847892, "lat": 57.2110923, "lon": 14.7233597, "tags": {"name": "Sj\u00f6\u00e4nda", "place": "hamlet"}}, {"type": "node", "id": 7462856426, "lat": 57.2084392, "lon": 14.7220559, "tags": {"name": "S\u00f6dreg\u00e5rden", "place": "hamlet"}}, {"type": "node", "id": 7465073293, "lat": 57.3313939, "lon": 14.2869505, "tags": {"name": "Timmerhult", "place": "hamlet"}}, {"type": "node", "id": 7465099136, "lat": 57.3069813, "lon": 14.5116329, "tags": {"name": "Hj\u00e4lmseryd", "place": "hamlet"}}, {"type": "node", "id": 7465111727, "lat": 57.3258696, "lon": 14.6510052, "tags": {"name": "Ekeby", "place": "hamlet"}}, {"type": "node", "id": 7465139037, "lat": 57.3015036, "lon": 14.5505069, "tags": {"name": "K\u00e5rag\u00e5rden", "place": "hamlet"}}, {"type": "node", "id": 7465145474, "lat": 57.307516, "lon": 14.6707657, "tags": {"name": "Anderstorp", "place": "hamlet"}}, {"type": "node", "id": 7465163513, "lat": 57.2888585, "lon": 14.6850672, "tags": {"name": "B\u00f6llingetorp", "place": "hamlet"}}, {"type": "node", "id": 7465182184, "lat": 57.3028891, "lon": 14.6842665, "tags": {"name": "H\u00e4ggatorp", "place": "hamlet"}}, {"type": "node", "id": 7468518971, "lat": 56.8969956, "lon": 14.0311982, "tags": {"name": "Torlarp", "place": "hamlet"}}, {"type": "node", "id": 7468549949, "lat": 56.9164586, "lon": 14.1115082, "tags": {"name": "Kl\u00f6varyd", "place": "hamlet"}}, {"type": "node", "id": 7468552713, "lat": 56.9253962, "lon": 14.0908096, "tags": {"name": "F\u00f6raretorp", "place": "hamlet"}}, {"type": "node", "id": 7468560072, "lat": 56.9688965, "lon": 14.1527141, "tags": {"name": "Tykatorp", "place": "hamlet"}}, {"type": "node", "id": 7468561209, "lat": 56.9642428, "lon": 14.1529166, "tags": {"name": "B\u00f6keliden", "place": "hamlet"}}, {"type": "node", "id": 7468566399, "lat": 56.9314907, "lon": 14.0247178, "tags": {"name": "Hulje", "place": "hamlet"}}, {"type": "node", "id": 7468568768, "lat": 56.9841817, "lon": 14.1561613, "tags": {"name": "G\u00e4sshult", "place": "hamlet"}}, {"type": "node", "id": 7468570797, "lat": 56.95583, "lon": 14.0395958, "tags": {"name": "Huljeskog", "place": "hamlet"}}, {"type": "node", "id": 7468570941, "lat": 56.9512989, "lon": 14.0902768, "tags": {"name": "Kv\u00e4narp", "place": "hamlet"}}, {"type": "node", "id": 7468573847, "lat": 56.9628857, "lon": 14.0986444, "tags": {"name": "Br\u00e4nnslida", "place": "hamlet"}}, {"type": "node", "id": 7468584851, "lat": 56.9345083, "lon": 14.1039797, "tags": {"name": "Torkelshult", "place": "hamlet"}}, {"type": "node", "id": 7468601911, "lat": 57.0153744, "lon": 14.010397, "tags": {"name": "Toftaled", "place": "hamlet"}}, {"type": "node", "id": 7468621176, "lat": 56.8982032, "lon": 14.3739071, "tags": {"name": "Brunshult", "place": "hamlet"}}, {"type": "node", "id": 7468632978, "lat": 56.9091737, "lon": 14.2149935, "tags": {"name": "Hyalt", "place": "hamlet"}}, {"type": "node", "id": 7468633307, "lat": 56.9093723, "lon": 14.3866066, "tags": {"name": "Kvint\u00e5s", "place": "hamlet"}}, {"type": "node", "id": 7468637707, "lat": 57.0424399, "lon": 14.3507002, "tags": {"name": "Sjuhult", "place": "hamlet"}}, {"type": "node", "id": 7468640270, "lat": 57.0144118, "lon": 14.3413463, "tags": {"name": "Sutarekullen", "place": "hamlet"}}, {"type": "node", "id": 7468647583, "lat": 57.027853, "lon": 14.4336271, "tags": {"name": "Misterhult", "place": "hamlet"}}, {"type": "node", "id": 7468647681, "lat": 56.9184414, "lon": 14.601301, "tags": {"name": "Gemmatorp", "place": "hamlet"}}, {"type": "node", "id": 7468654456, "lat": 56.981035, "lon": 14.3838691, "tags": {"name": "Villarp", "place": "hamlet"}}, {"type": "node", "id": 7468656713, "lat": 56.9127989, "lon": 14.1663503, "tags": {"name": "M\u00e5rarp", "place": "hamlet"}}, {"type": "node", "id": 7468675962, "lat": 56.9304722, "lon": 14.6724804, "tags": {"name": "L\u00f6n\u00e5s", "place": "hamlet"}}, {"type": "node", "id": 7468677076, "lat": 56.9339747, "lon": 14.6978074, "tags": {"name": "N\u00f6bbele", "place": "hamlet"}}, {"type": "node", "id": 7468678906, "lat": 56.9032015, "lon": 14.5095494, "tags": {"name": "Forsdala", "place": "hamlet"}}, {"type": "node", "id": 7468694292, "lat": 56.9053845, "lon": 14.4460629, "tags": {"name": "Sj\u00f6atorp", "place": "hamlet"}}, {"type": "node", "id": 7468696829, "lat": 56.9801877, "lon": 14.4068462, "tags": {"name": "M\u00e4xarp", "place": "hamlet"}}, {"type": "node", "id": 7468699006, "lat": 56.9410942, "lon": 14.6643219, "tags": {"name": "T\u00e5ngshult", "place": "hamlet"}}, {"type": "node", "id": 7468702708, "lat": 57.0706269, "lon": 14.5227145, "tags": {"name": "V\u00e5ngsn\u00e4s", "place": "hamlet"}}, {"type": "node", "id": 7468702709, "lat": 57.0698291, "lon": 14.509234, "tags": {"name": "Broaskog", "place": "hamlet"}}, {"type": "node", "id": 7468703316, "lat": 57.0529912, "lon": 14.4320903, "tags": {"name": "B\u00e4sterna", "place": "hamlet"}}, {"type": "node", "id": 7468711912, "lat": 56.935328, "lon": 14.5142059, "tags": {"name": "Germundsg\u00e5rden", "place": "hamlet"}}, {"type": "node", "id": 7468712784, "lat": 56.9382971, "lon": 14.4482484, "tags": {"name": "Hult", "place": "hamlet"}}, {"type": "node", "id": 7468717046, "lat": 56.9255222, "lon": 14.5584716, "tags": {"name": "Hj\u00e4rtenholm", "place": "hamlet"}}, {"type": "node", "id": 7468717500, "lat": 56.905754, "lon": 14.6716319, "tags": {"name": "L\u00e5ngstorp", "place": "hamlet"}}, {"type": "node", "id": 7468718088, "lat": 56.9335091, "lon": 14.4456861, "tags": {"name": "S\u00f6rhult", "place": "hamlet"}}, {"type": "node", "id": 7468718349, "lat": 56.9965893, "lon": 14.4647354, "tags": {"name": "H\u00e4rlatorp", "place": "hamlet"}}, {"type": "node", "id": 7468719554, "lat": 56.922824, "lon": 14.6151525, "tags": {"name": "Humlaryd", "place": "hamlet"}}, {"type": "node", "id": 7468720356, "lat": 57.0081121, "lon": 14.3599648, "tags": {"name": "Vret", "place": "hamlet"}}, {"type": "node", "id": 7468720360, "lat": 57.0236905, "lon": 14.4892183, "tags": {"name": "Berg", "place": "hamlet"}}, {"type": "node", "id": 7468721077, "lat": 56.9120691, "lon": 14.5884078, "tags": {"name": "Sp\u00e5ningslanda", "place": "hamlet"}}, {"type": "node", "id": 7468722114, "lat": 56.916333, "lon": 14.3674793, "tags": {"name": "\u00c4lgan\u00e4s", "place": "hamlet"}}, {"type": "node", "id": 7468722474, "lat": 57.0235566, "lon": 14.40401, "tags": {"name": "Kex\u00e5s", "place": "hamlet"}}, {"type": "node", "id": 7468723989, "lat": 56.9335673, "lon": 14.5529206, "tags": {"name": "Hj\u00e4rtan\u00e4s", "place": "hamlet"}}, {"type": "node", "id": 7468723990, "lat": 56.9362932, "lon": 14.4918808, "tags": {"name": "Transj\u00f6", "place": "hamlet"}}, {"type": "node", "id": 7468724178, "lat": 57.0392311, "lon": 14.447632, "tags": {"name": "Kulla", "place": "hamlet"}}, {"type": "node", "id": 7468725505, "lat": 57.0204352, "lon": 14.4336251, "tags": {"name": "Lusseboda", "place": "hamlet"}}, {"type": "node", "id": 7468728055, "lat": 56.9213917, "lon": 14.4208435, "tags": {"name": "Sj\u00f6atorp", "place": "hamlet"}}, {"type": "node", "id": 7468729403, "lat": 57.006478, "lon": 14.4067035, "tags": {"name": "Agnaryd", "place": "hamlet"}}, {"type": "node", "id": 7468739748, "lat": 57.01464, "lon": 14.4320657, "tags": {"name": "K\u00e4ngshult", "place": "hamlet"}}, {"type": "node", "id": 7468741271, "lat": 56.9453231, "lon": 14.4846965, "tags": {"name": "Linneryd", "place": "hamlet"}}, {"type": "node", "id": 7468745660, "lat": 57.0070004, "lon": 14.4575544, "tags": {"name": "Hakatorp", "place": "hamlet"}}, {"type": "node", "id": 7468748179, "lat": 57.020502, "lon": 14.4603228, "tags": {"name": "Arnhult", "place": "hamlet"}}, {"type": "node", "id": 7468749888, "lat": 56.9501669, "lon": 14.4453764, "tags": {"name": "Hultan\u00e4s", "place": "hamlet"}}, {"type": "node", "id": 7468749984, "lat": 56.9551887, "lon": 14.5254528, "tags": {"name": "Kvenneberga", "place": "hamlet"}}, {"type": "node", "id": 7468752639, "lat": 57.0929, "lon": 14.530614, "tags": {"name": "\u00c5khult", "place": "hamlet"}}, {"type": "node", "id": 7468752890, "lat": 57.0149106, "lon": 14.4543411, "tags": {"name": "Mosshult", "place": "hamlet"}}, {"type": "node", "id": 7468753068, "lat": 57.0240669, "lon": 14.5862849, "tags": {"name": "Bastorp", "place": "hamlet"}}, {"type": "node", "id": 7468754128, "lat": 56.9634811, "lon": 14.434193, "tags": {"name": "Exhult", "place": "hamlet"}}, {"type": "node", "id": 7468754134, "lat": 57.0304723, "lon": 14.5652734, "tags": {"name": "Bj\u00f6rkeryd", "place": "hamlet"}}, {"type": "node", "id": 7468756597, "lat": 56.9435322, "lon": 14.4475297, "tags": {"name": "Norrhult", "place": "hamlet"}}, {"type": "node", "id": 7468757179, "lat": 57.0794404, "lon": 14.4930716, "tags": {"name": "Gamleboda", "place": "hamlet"}}, {"type": "node", "id": 7468758124, "lat": 57.032845, "lon": 14.5188161, "tags": {"name": "Klasentorp", "place": "hamlet"}}, {"type": "node", "id": 7468758185, "lat": 56.959274, "lon": 14.4764034, "tags": {"name": "\u00c4speryd", "place": "hamlet"}}, {"type": "node", "id": 7468758559, "lat": 57.0567074, "lon": 14.4916138, "tags": {"name": "Br\u00e5ten", "place": "hamlet"}}, {"type": "node", "id": 7468759150, "lat": 56.9890727, "lon": 14.5871096, "tags": {"name": "Ryd", "place": "hamlet"}}, {"type": "node", "id": 7468760295, "lat": 57.0896958, "lon": 14.5079647, "tags": {"name": "Roth\u00e4ssle", "place": "hamlet"}}, {"type": "node", "id": 7468761063, "lat": 57.0295617, "lon": 14.4839485, "tags": {"name": "Sk\u00f6vel\u00e5kra", "place": "hamlet"}}, {"type": "node", "id": 7468761085, "lat": 57.0611503, "lon": 14.5089359, "tags": {"name": "Littelhult", "place": "hamlet"}}, {"type": "node", "id": 7468761215, "lat": 57.0565374, "lon": 14.4726435, "tags": {"name": "Moeboda", "place": "hamlet"}}, {"type": "node", "id": 7468764437, "lat": 56.9664509, "lon": 14.5292942, "tags": {"name": "Ur\u00e5sa", "place": "hamlet"}}, {"type": "node", "id": 7468765578, "lat": 56.9725377, "lon": 14.5087705, "tags": {"name": "Elofstorp", "place": "hamlet"}}, {"type": "node", "id": 7468766117, "lat": 57.0076449, "lon": 14.5185657, "tags": {"name": "H\u00f6ssj\u00f6", "place": "hamlet"}}, {"type": "node", "id": 7468766980, "lat": 56.9886184, "lon": 14.5257725, "tags": {"name": "\u00c5eke", "place": "hamlet"}}, {"type": "node", "id": 7468768446, "lat": 57.0351357, "lon": 14.5552041, "tags": {"name": "Torp", "place": "hamlet"}}, {"type": "node", "id": 7468769465, "lat": 57.0798939, "lon": 14.5030963, "tags": {"name": "Gr\u00f6naberg", "place": "hamlet"}}, {"type": "node", "id": 7468770706, "lat": 57.0397434, "lon": 14.5837211, "tags": {"name": "Notteryd", "place": "hamlet"}}, {"type": "node", "id": 7468771183, "lat": 57.0760353, "lon": 14.5445348, "tags": {"name": "Vitteryd", "place": "hamlet"}}, {"type": "node", "id": 7468772048, "lat": 56.9439699, "lon": 14.5119238, "tags": {"name": "Sk\u00f6ldstad", "place": "hamlet"}}, {"type": "node", "id": 7468778757, "lat": 57.0175292, "lon": 14.560698, "tags": {"name": "Vegby", "place": "hamlet"}}, {"type": "node", "id": 7468782214, "lat": 57.0369856, "lon": 14.5626109, "tags": {"name": "Lycke", "place": "hamlet"}}, {"type": "node", "id": 7468788842, "lat": 56.9934354, "lon": 14.595266, "tags": {"name": "Boatorp", "place": "hamlet"}}, {"type": "node", "id": 7468792504, "lat": 56.9871879, "lon": 14.6139784, "tags": {"name": "Horda", "place": "hamlet"}}, {"type": "node", "id": 7468805190, "lat": 56.9692828, "lon": 14.5672368, "tags": {"name": "Kronobergs hed", "place": "hamlet"}}, {"type": "node", "id": 7468809228, "lat": 56.9754434, "lon": 14.5728515, "tags": {"name": "Gr\u00e4nnaforsa", "place": "hamlet"}}, {"type": "node", "id": 7468816037, "lat": 56.94702, "lon": 14.6629461, "tags": {"name": "Borshult", "place": "hamlet"}}, {"type": "node", "id": 7468868974, "lat": 57.0273722, "lon": 14.6542192, "tags": {"name": "Hylte", "place": "hamlet"}}, {"type": "node", "id": 7468870267, "lat": 57.0292363, "lon": 14.6306427, "tags": {"name": "\u00c4lmes\u00e5s", "place": "hamlet"}}, {"type": "node", "id": 7468875801, "lat": 57.0245692, "lon": 14.6084514, "tags": {"name": "Musteryd", "place": "hamlet"}}, {"type": "node", "id": 7468888072, "lat": 57.0700183, "lon": 14.621319, "tags": {"name": "Brant\u00e5sa", "place": "hamlet"}}, {"type": "node", "id": 7468892382, "lat": 57.0717165, "lon": 14.6682706, "tags": {"name": "Hagstad", "place": "hamlet"}}, {"type": "node", "id": 7468896325, "lat": 57.0660116, "lon": 14.6483186, "tags": {"name": "Rams\u00e5s", "place": "hamlet"}}, {"type": "node", "id": 7468900662, "lat": 57.0649103, "lon": 14.6368848, "tags": {"name": "Fager\u00e5s", "place": "hamlet"}}, {"type": "node", "id": 7468905401, "lat": 57.0629865, "lon": 14.6656114, "tags": {"name": "Holma", "place": "hamlet"}}, {"type": "node", "id": 7468913044, "lat": 57.0586101, "lon": 14.6186004, "tags": {"name": "Skeppshult", "place": "hamlet"}}, {"type": "node", "id": 7468921945, "lat": 57.0565236, "lon": 14.6320042, "tags": {"name": "Notteryd", "place": "hamlet"}}, {"type": "node", "id": 7468927941, "lat": 57.0489992, "lon": 14.6272487, "tags": {"name": "Ekeryd", "place": "hamlet"}}, {"type": "node", "id": 7468928993, "lat": 57.0440131, "lon": 14.637533, "tags": {"name": "Stocksryd", "place": "hamlet"}}, {"type": "node", "id": 7468930285, "lat": 57.0527191, "lon": 14.6460707, "tags": {"name": "Sp\u00e5rs\u00e5s", "place": "hamlet"}}, {"type": "node", "id": 7468941335, "lat": 57.0374929, "lon": 14.6497582, "tags": {"name": "\u00c5kers\u00e4nde", "place": "hamlet"}}, {"type": "node", "id": 7468944418, "lat": 57.0403391, "lon": 14.6272531, "tags": {"name": "Br\u00e4nnhult", "place": "hamlet"}}, {"type": "node", "id": 7468978028, "lat": 56.9883058, "lon": 14.6587505, "tags": {"name": "Sunnan\u00e5kra", "place": "hamlet"}}, {"type": "node", "id": 7468979686, "lat": 56.9889165, "lon": 14.6487498, "tags": {"name": "Blixholmen", "place": "hamlet"}}, {"type": "node", "id": 7468980593, "lat": 56.9887946, "lon": 14.67254, "tags": {"name": "S\u00e5nnestorp", "place": "hamlet"}}, {"type": "node", "id": 7468987037, "lat": 56.9849641, "lon": 14.6720872, "tags": {"name": "Tubbatorp", "place": "hamlet"}}, {"type": "node", "id": 7469007025, "lat": 57.109686, "lon": 14.6633921, "tags": {"name": "L\u00f6vhult", "place": "hamlet"}}, {"type": "node", "id": 7469014650, "lat": 57.0908117, "lon": 14.6471103, "tags": {"name": "Bredhult", "place": "hamlet"}}, {"type": "node", "id": 7469016854, "lat": 57.0677664, "lon": 14.7506979, "tags": {"name": "Torshult", "place": "hamlet"}}, {"type": "node", "id": 7469016942, "lat": 57.0934052, "lon": 14.6938555, "tags": {"name": "S\u00f6reskog", "place": "hamlet"}}, {"type": "node", "id": 7469020553, "lat": 57.0171413, "lon": 14.7277006, "tags": {"name": "H\u00f6rda", "place": "hamlet"}}, {"type": "node", "id": 7469021636, "lat": 56.9458113, "lon": 14.7192618, "tags": {"name": "Tunatorp", "place": "hamlet"}}, {"type": "node", "id": 7469022337, "lat": 57.1544211, "lon": 14.5125611, "tags": {"name": "Sk\u00e4rshult", "place": "hamlet"}}, {"type": "node", "id": 7469024418, "lat": 57.0597383, "lon": 14.7025085, "tags": {"name": "Ernatorp", "place": "hamlet"}}, {"type": "node", "id": 7469024725, "lat": 57.0789261, "lon": 14.400961, "tags": {"name": "F\u00f6reberg", "place": "hamlet"}}, {"type": "node", "id": 7469024727, "lat": 57.0904814, "lon": 14.4692742, "tags": {"name": "Bredahorva", "place": "hamlet"}}, {"type": "node", "id": 7469024888, "lat": 56.9588181, "lon": 14.703033, "tags": {"name": "H\u00e5geryd", "place": "hamlet"}}, {"type": "node", "id": 7469025781, "lat": 57.0113012, "lon": 14.6848703, "tags": {"name": "Svanebro", "place": "hamlet"}}, {"type": "node", "id": 7469026458, "lat": 57.0103538, "lon": 14.6944398, "tags": {"name": "S\u00e5nne", "place": "hamlet"}}, {"type": "node", "id": 7469026550, "lat": 57.1401421, "lon": 14.3973952, "tags": {"name": "M\u00e5len", "place": "hamlet"}}, {"type": "node", "id": 7469027213, "lat": 57.0188045, "lon": 14.7122392, "tags": {"name": "Sandsj\u00f6", "place": "hamlet"}}, {"type": "node", "id": 7469028603, "lat": 57.0769931, "lon": 14.705702, "tags": {"name": "Bj\u00f6rka", "place": "hamlet"}}, {"type": "node", "id": 7469028632, "lat": 57.0789145, "lon": 14.3856024, "tags": {"name": "Hullevik", "place": "hamlet"}}, {"type": "node", "id": 7469031808, "lat": 57.0643393, "lon": 14.7189777, "tags": {"name": "Vinninge", "place": "hamlet"}}, {"type": "node", "id": 7469048670, "lat": 57.083449, "lon": 14.4717335, "tags": {"name": "\u00c5boda", "place": "hamlet"}}, {"type": "node", "id": 7469057138, "lat": 57.124053, "lon": 14.440516, "tags": {"name": "Flishult", "place": "hamlet"}}, {"type": "node", "id": 7469059425, "lat": 57.0887724, "lon": 14.4605034, "tags": {"name": "H\u00f6kaboda", "place": "hamlet"}}, {"type": "node", "id": 7469064606, "lat": 57.1310424, "lon": 14.4528183, "tags": {"name": "Skruva", "place": "hamlet"}}, {"type": "node", "id": 7469064793, "lat": 57.1115668, "lon": 14.4528086, "tags": {"name": "H\u00e4ssleberg", "place": "hamlet"}}, {"type": "node", "id": 7469071680, "lat": 57.178954, "lon": 14.5687923, "tags": {"name": "Bo", "place": "hamlet"}}, {"type": "node", "id": 7469173979, "lat": 57.1956145, "lon": 14.6525327, "tags": {"name": "G\u00e4rdshult", "place": "hamlet"}}, {"type": "node", "id": 7469197307, "lat": 57.0869312, "lon": 14.6379232, "tags": {"name": "Matkull", "place": "hamlet"}}, {"type": "node", "id": 7469222506, "lat": 57.0929708, "lon": 14.6206853, "tags": {"name": "Sandvik", "place": "hamlet"}}, {"type": "node", "id": 7469223334, "lat": 57.0828985, "lon": 14.6411145, "tags": {"name": "K\u00e4llehult", "place": "hamlet"}}, {"type": "node", "id": 7469223335, "lat": 57.2212482, "lon": 14.7507071, "tags": {"name": "Plantingsboda", "place": "hamlet"}}, {"type": "node", "id": 7469224109, "lat": 57.100926, "lon": 14.6191676, "tags": {"name": "Vr\u00e5en", "place": "hamlet"}}, {"type": "node", "id": 7469224281, "lat": 57.13585, "lon": 14.672109, "tags": {"name": "R\u00f6s\u00e5s", "place": "hamlet"}}, {"type": "node", "id": 7469225322, "lat": 57.2007615, "lon": 14.6963932, "tags": {"name": "\u00c4lmefall", "place": "hamlet"}}, {"type": "node", "id": 7469231599, "lat": 57.1157734, "lon": 14.5955011, "tags": {"name": "Sj\u00f6aryd", "place": "hamlet"}}, {"type": "node", "id": 7469233973, "lat": 57.0962825, "lon": 14.6224402, "tags": {"name": "Skrivareg\u00e5rden", "place": "hamlet"}}, {"type": "node", "id": 7469238948, "lat": 57.127708, "lon": 14.6675226, "tags": {"name": "Br\u00e5t", "place": "hamlet"}}, {"type": "node", "id": 7469240965, "lat": 57.1415105, "lon": 14.6302522, "tags": {"name": "H\u00e5knahult", "place": "hamlet"}}, {"type": "node", "id": 7469246736, "lat": 57.131869, "lon": 14.5975228, "tags": {"name": "Ugglehult", "place": "hamlet"}}, {"type": "node", "id": 7469272023, "lat": 57.1703308, "lon": 14.6630724, "tags": {"name": "L\u00e5ngsryd", "place": "hamlet"}}, {"type": "node", "id": 7469282562, "lat": 57.1946581, "lon": 14.6664247, "tags": {"name": "Hisshult", "place": "hamlet"}}, {"type": "node", "id": 7469282563, "lat": 57.1757516, "lon": 14.6609556, "tags": {"name": "M\u00f6ssj\u00f6\u00e5s", "place": "hamlet"}}, {"type": "node", "id": 7469288546, "lat": 57.1322219, "lon": 14.5755246, "tags": {"name": "Kramphult", "place": "hamlet"}}, {"type": "node", "id": 7469291417, "lat": 57.112303, "lon": 14.6354797, "tags": {"name": "Sl\u00e4tthult", "place": "hamlet"}}, {"type": "node", "id": 7469292572, "lat": 57.1701411, "lon": 14.6760389, "tags": {"name": "R\u00f6sj\u00f6horva", "place": "hamlet"}}, {"type": "node", "id": 7469293886, "lat": 57.2193858, "lon": 14.742038, "tags": {"name": "Penningetorp", "place": "hamlet"}}, {"type": "node", "id": 7469294510, "lat": 57.1603645, "lon": 14.6680895, "tags": {"name": "Velhult", "place": "hamlet"}}, {"type": "node", "id": 7469300359, "lat": 57.2066366, "lon": 14.6961132, "tags": {"name": "Tritteboda", "place": "hamlet"}}, {"type": "node", "id": 7469306119, "lat": 57.1238831, "lon": 14.6856264, "tags": {"name": "Lunden", "place": "hamlet"}}, {"type": "node", "id": 8203474264, "lat": 56.9317544, "lon": 14.5767923, "tags": {"name": "Lekaryd", "place": "hamlet", "wikidata": "Q10556684", "wikipedia": "sv:Lekaryd"}}, {"type": "node", "id": 8210250396, "lat": 57.0054314, "lon": 14.714841, "tags": {"name": "Hillesh\u00f6g", "place": "hamlet"}}, {"type": "node", "id": 8593587261, "lat": 57.1421491, "lon": 14.0202078, "tags": {"name": "Norra Hult", "place": "hamlet"}}, {"type": "node", "id": 9224042344, "lat": 56.9135203, "lon": 14.0112332, "tags": {"name": "\u00c5by", "place": "hamlet"}}, {"type": "way", "id": 70008031, "nodes": [836473103, 836473256, 836473134, 836473223, 836473430, 836473103], "tags": {"name": "Str\u00f6mhult", "place": "hamlet"}}, {"type": "way", "id": 70008037, "nodes": [836473206, 836473232, 836473090, 836473287, 836473311, 836473199, 836473242, 836473114, 836473211, 6001181387, 836473418, 836473130, 836473319, 836473268, 836473358, 836473229, 836473274, 836473160, 836473437, 836473206], "tags": {"name": "M\u00f6cklehult", "place": "hamlet"}}]}