{"version": 0.6, "generator": "Overpass API 0.7.61.5 4133829e", "osm3s": {"timestamp_osm_base": "2024-03-05T15:06:00Z", "copyright": "The data included in this document is from www.openstreetmap.org. The data is made available under ODbL."}, "elements": [{"type": "node", "id": 30061624, "lat": 62.766806, "lon": 14.4324223, "tags": {"name": "Svenstavik", "name:sv": "Svenstavik", "place": "town", "population": "992", "ref:se:pts:postort": "SVENSTAVIK", "ref:se:scb": "7976", "wikipedia": "sv:Svenstavik"}}, {"type": "node", "id": 265702040, "lat": 62.6461042, "lon": 14.1607088, "tags": {"name": "Sk\u00e5lan", "place": "village"}}, {"type": "node", "id": 282226848, "lat": 63.0002515, "lon": 14.3388331, "tags": {"name": "Myrviken", "place": "village", "ref:se:scb": "7912"}}, {"type": "node", "id": 330426301, "lat": 63.0142151, "lon": 14.3418864, "tags": {"name": "Borgen", "place": "hamlet"}}, {"type": "node", "id": 330426356, "lat": 62.8109162, "lon": 14.4415214, "tags": {"name": "Hoverberg", "place": "village", "population": "206", "wikipedia": "sv:Hoverberg"}}, {"type": "node", "id": 330426358, "lat": 62.8545622, "lon": 14.3823978, "tags": {"name": "Vigge", "place": "hamlet"}}, {"type": "node", "id": 330426365, "lat": 62.8934817, "lon": 14.3509957, "tags": {"name": "Hovermo", "place": "hamlet"}}, {"type": "node", "id": 330426370, "lat": 62.9714107, "lon": 14.3502001, "tags": {"name": "V\u00e4stnor", "place": "hamlet"}}, {"type": "node", "id": 330480696, "lat": 62.645937, "lon": 14.3705603, "tags": {"name": "\u00c5sarna", "place": "village", "population": "243", "ref:se:pts:postort": "\u00c5SARNA", "wikipedia": "sv:\u00c5sarna"}}, {"type": "node", "id": 330480698, "lat": 62.6616641, "lon": 14.3790492, "tags": {"name": "G\u00e4lln\u00e4skrogen", "place": "hamlet"}}, {"type": "node", "id": 330480700, "lat": 62.6970534, "lon": 14.3917419, "tags": {"name": "Br\u00e5nan", "place": "hamlet"}}, {"type": "node", "id": 367891290, "lat": 62.9239388, "lon": 14.5186954, "tags": {"name": "Hack\u00e5s", "place": "village", "ref:se:pts:postort": "HACK\u00c5S", "ref:se:scb": "7848", "wikidata": "Q1019578", "wikipedia": "sv:Hack\u00e5s"}}, {"type": "node", "id": 727695668, "lat": 62.9728886, "lon": 14.5700065, "tags": {"name": "M\u00e5nsta", "place": "hamlet"}}, {"type": "node", "id": 863004664, "lat": 62.8016763, "lon": 14.4716588, "tags": {"name": "Skander\u00e5sen", "place": "hamlet"}}, {"type": "node", "id": 864814096, "lat": 62.7728244, "lon": 14.4708392, "tags": {"name": "\u00d6stberg", "place": "hamlet"}}, {"type": "node", "id": 1213458320, "lat": 62.9974877, "lon": 14.3928671, "tags": {"name": "Oviken", "place": "village", "ref:se:pts:postort": "OVIKEN"}}, {"type": "node", "id": 1264194796, "lat": 62.9896381, "lon": 14.5996357, "tags": {"name": "Gr\u00f6nviken", "place": "hamlet"}}, {"type": "node", "id": 1416162614, "lat": 62.9146757, "lon": 14.3317608, "tags": {"name": "K\u00f6vra", "place": "hamlet"}}, {"type": "node", "id": 1416162618, "lat": 62.9257483, "lon": 14.3004986, "tags": {"name": "Svedje", "place": "hamlet"}}, {"type": "node", "id": 1416162620, "lat": 62.9378073, "lon": 14.2727075, "tags": {"name": "\u00c4lven", "place": "hamlet"}}, {"type": "node", "id": 1416162637, "lat": 62.9602694, "lon": 14.2392344, "tags": {"name": "Fj\u00f6s\u00e5sen", "place": "hamlet"}}, {"type": "node", "id": 1416162639, "lat": 62.9652576, "lon": 14.267809, "tags": {"name": "Kinder\u00e5sen", "place": "hamlet"}}, {"type": "node", "id": 1416162641, "lat": 62.9805555, "lon": 14.2129946, "tags": {"name": "Bills\u00e5sen", "place": "hamlet"}}, {"type": "node", "id": 1596072919, "lat": 62.7523517, "lon": 13.8454909, "tags": {"name": "B\u00f6rtnan", "place": "hamlet"}}, {"type": "node", "id": 1670159598, "lat": 62.8294257, "lon": 14.4602587, "tags": {"name": "Vattviken", "place": "hamlet"}}, {"type": "node", "id": 1670159624, "lat": 62.8168717, "lon": 14.4600023, "tags": {"name": "Eltn\u00e4set", "place": "hamlet"}}, {"type": "node", "id": 2092844903, "lat": 62.7123009, "lon": 14.6870705, "tags": {"name": "Sandn\u00e4set", "place": "hamlet"}}, {"type": "node", "id": 2106366493, "lat": 62.9920227, "lon": 14.5765339, "tags": {"name": "F\u00e5ker", "place": "village", "population": "250", "ref:se:pts:postort": "F\u00c5KER", "wikidata": "Q1479241", "wikipedia": "sv:F\u00e5ker"}}, {"type": "node", "id": 2387942717, "lat": 62.9364079, "lon": 14.420614, "tags": {"name": "Fun\u00e4s", "place": "hamlet"}}, {"type": "node", "id": 2387942718, "lat": 62.9691185, "lon": 14.4127365, "tags": {"name": "Svens\u00e5sen", "place": "hamlet"}}, {"type": "node", "id": 2479181479, "lat": 62.8717295, "lon": 14.7097648, "tags": {"name": "Fellingen", "place": "hamlet"}}, {"type": "node", "id": 2479181485, "lat": 62.9522568, "lon": 14.6540392, "tags": {"name": "G\u00e4le", "place": "hamlet"}}, {"type": "node", "id": 2479181489, "lat": 62.9654028, "lon": 14.7100837, "tags": {"name": "Klox\u00e5sen", "place": "hamlet"}}, {"type": "node", "id": 2479181493, "lat": 62.8838744, "lon": 14.6654248, "tags": {"name": "Tunv\u00e5gen", "place": "hamlet"}}, {"type": "node", "id": 2494674808, "lat": 62.8305558, "lon": 14.6071142, "tags": {"name": "Sals\u00e5n", "place": "hamlet"}}, {"type": "node", "id": 2719969863, "lat": 62.9615671, "lon": 14.3898086, "tags": {"name": "S\u00f6lvbacken", "place": "hamlet"}}, {"type": "node", "id": 3385777076, "lat": 62.7372446, "lon": 14.4535691, "tags": {"name": "R\u00f6r\u00f6n", "place": "hamlet", "wikidata": "Q10659134", "wikipedia": "sv:R\u00f6r\u00f6n"}}, {"type": "node", "id": 3610864093, "lat": 63.0049795, "lon": 13.9483589, "tags": {"name": "Storgr\u00e4ft\u00e5n", "place": "hamlet"}}, {"type": "node", "id": 3842428917, "lat": 62.7785885, "lon": 14.5133891, "tags": {"name": "\u00d6sterskucku", "place": "hamlet"}}, {"type": "node", "id": 3842428922, "lat": 62.7631589, "lon": 14.5614259, "tags": {"name": "Bingsta", "place": "hamlet"}}, {"type": "node", "id": 3842428939, "lat": 62.7246582, "lon": 14.5988177, "tags": {"name": "Brynje", "place": "hamlet"}}, {"type": "node", "id": 3842581101, "lat": 62.8748576, "lon": 14.5214795, "tags": {"name": "Vikb\u00e4cken", "place": "hamlet"}}, {"type": "node", "id": 4024000723, "lat": 62.651711, "lon": 14.0571178, "tags": {"name": "Fotingen", "place": "hamlet"}}, {"type": "node", "id": 4024000724, "lat": 62.6871316, "lon": 14.2814218, "tags": {"name": "Storhallen", "place": "hamlet"}}, {"type": "node", "id": 4024001516, "lat": 62.639605, "lon": 14.3455218, "tags": {"name": "\u00c5sanforsen", "place": "hamlet"}}, {"type": "node", "id": 4061669292, "lat": 63.0105964, "lon": 14.6045685, "tags": {"name": "Bj\u00e4rme", "place": "hamlet"}}, {"type": "node", "id": 4076393881, "lat": 62.7921443, "lon": 14.6823244, "tags": {"name": "D\u00f6dre", "place": "hamlet"}}, {"type": "node", "id": 5085436899, "lat": 62.7923471, "lon": 14.4833163, "tags": {"name": "Nytorp", "place": "hamlet"}}, {"type": "node", "id": 5536688687, "lat": 62.9251868, "lon": 14.3692267, "tags": {"name": "Myssj\u00f6", "place": "hamlet"}}, {"type": "node", "id": 5805204154, "lat": 62.6028803, "lon": 14.2417992, "tags": {"name": "Sakrisbodarna", "place": "hamlet"}}, {"type": "node", "id": 5805204162, "lat": 62.6117457, "lon": 14.2497708, "tags": {"name": "Skarp\u00e4nget", "place": "hamlet"}}, {"type": "node", "id": 6076006799, "lat": 62.6621889, "lon": 14.0492894, "tags": {"name": "Nybo", "place": "hamlet"}}, {"type": "node", "id": 6566616608, "lat": 62.9466984, "lon": 14.2971231, "tags": {"name": "Lock\u00e5sen", "place": "hamlet"}}, {"type": "node", "id": 6700889154, "lat": 62.9752028, "lon": 14.4846753, "tags": {"name": "Fagerdal", "place": "hamlet"}}, {"type": "node", "id": 6700889155, "lat": 62.9806914, "lon": 14.4838814, "tags": {"name": "K\u00e5rg\u00e4rde", "place": "hamlet"}}, {"type": "node", "id": 6700889156, "lat": 62.9668264, "lon": 14.4934301, "tags": {"name": "Sanne", "place": "hamlet"}}, {"type": "node", "id": 6700889157, "lat": 62.9698008, "lon": 14.4857911, "tags": {"name": "Nyg\u00e5rden", "place": "hamlet"}}, {"type": "node", "id": 6700889158, "lat": 62.9569161, "lon": 14.4940952, "tags": {"name": "G\u00e4rde", "place": "hamlet"}}, {"type": "node", "id": 6700889159, "lat": 62.9452261, "lon": 14.4936661, "tags": {"name": "Salom", "place": "hamlet"}}, {"type": "node", "id": 6700889160, "lat": 62.9408143, "lon": 14.4986657, "tags": {"name": "Skede", "place": "hamlet"}}, {"type": "node", "id": 6700889161, "lat": 62.9387156, "lon": 14.5030646, "tags": {"name": "L\u00e4gden", "place": "hamlet"}}, {"type": "node", "id": 6700936519, "lat": 63.0168728, "lon": 14.4903455, "tags": {"name": "Bodl\u00e4gden", "place": "hamlet"}}, {"type": "node", "id": 6835893690, "lat": 62.9173433, "lon": 14.3128359, "tags": {"name": "Svedje", "place": "hamlet"}}, {"type": "node", "id": 6835898522, "lat": 62.9062336, "lon": 14.3132222, "tags": {"name": "Pers\u00e5sen", "place": "hamlet"}}, {"type": "node", "id": 6835898523, "lat": 62.8803535, "lon": 14.3092847, "tags": {"name": "Tos\u00e5sen", "place": "hamlet"}}, {"type": "node", "id": 6835898524, "lat": 62.8627611, "lon": 14.2967319, "tags": {"name": "Dal\u00e5sen", "place": "hamlet"}}, {"type": "node", "id": 6835898525, "lat": 62.8533539, "lon": 14.3390679, "tags": {"name": "Kvissle", "place": "hamlet"}}, {"type": "node", "id": 6835898526, "lat": 62.8431701, "lon": 14.3323517, "tags": {"name": "Mo", "place": "hamlet"}}, {"type": "node", "id": 7454455851, "lat": 62.9173486, "lon": 14.195409, "tags": {"name": "V\u00e4stra Svedjebodarna", "place": "hamlet"}}, {"type": "node", "id": 7455024156, "lat": 62.6102851, "lon": 14.2191823, "tags": {"name": "Morarna", "place": "hamlet"}}, {"type": "node", "id": 7455042575, "lat": 62.6037664, "lon": 14.3908407, "tags": {"name": "\u00c4ldkrogen", "place": "hamlet"}}, {"type": "node", "id": 7455066735, "lat": 62.5971878, "lon": 14.4631619, "tags": {"name": "N\u00e4stelbodarna", "place": "hamlet"}}, {"type": "node", "id": 7455069133, "lat": 62.6228853, "lon": 14.3884135, "tags": {"name": "\u00c4ldsanden", "place": "hamlet"}}, {"type": "node", "id": 7455074552, "lat": 62.6255236, "lon": 14.4179315, "tags": {"name": "\u00c4ldbodarna", "place": "hamlet"}}, {"type": "node", "id": 7455736856, "lat": 62.5901502, "lon": 14.7044465, "tags": {"name": "Losj\u00f6bodarna", "place": "hamlet"}}, {"type": "node", "id": 7456172925, "lat": 62.6336966, "lon": 14.1894346, "tags": {"name": "\u00d6stibodarna", "place": "hamlet"}}, {"type": "node", "id": 7456176861, "lat": 62.9508503, "lon": 14.2635727, "tags": {"name": "V\u00e4ster-\u00c4lven", "place": "hamlet"}}, {"type": "node", "id": 7456186897, "lat": 62.8314478, "lon": 14.3402327, "tags": {"name": "\u00d6st\u00e4nget", "place": "hamlet"}}, {"type": "node", "id": 7456193609, "lat": 62.8203613, "lon": 14.2795912, "tags": {"name": "Moberget", "place": "hamlet"}}, {"type": "node", "id": 7456198553, "lat": 62.9403974, "lon": 14.269412, "tags": {"name": "H\u00f6gen", "place": "hamlet"}}, {"type": "node", "id": 7456201115, "lat": 62.6388813, "lon": 14.296715, "tags": {"name": "Gammalbodarna", "place": "hamlet"}}, {"type": "node", "id": 7456323566, "lat": 62.9946966, "lon": 14.3262984, "tags": {"name": "Namn", "place": "hamlet"}}, {"type": "node", "id": 7456328611, "lat": 63.0229679, "lon": 14.3001266, "tags": {"name": "V\u00e4ster\u00e5sen", "place": "hamlet"}}, {"type": "node", "id": 7456335400, "lat": 63.0085259, "lon": 14.2929091, "tags": {"name": "\u00d6ster\u00e5sen", "place": "hamlet"}}, {"type": "node", "id": 7456538886, "lat": 62.9435252, "lon": 14.5494977, "tags": {"name": "V\u00e5le", "place": "hamlet"}}, {"type": "node", "id": 7456563322, "lat": 62.9268623, "lon": 14.5483363, "tags": {"name": "N\u00e4cksta", "place": "hamlet"}}, {"type": "node", "id": 7456570343, "lat": 62.9344967, "lon": 14.5119343, "tags": {"name": "Vin\u00e4lven", "place": "hamlet"}}, {"type": "node", "id": 7456572233, "lat": 62.9041664, "lon": 14.4170182, "tags": {"name": "Bynom", "place": "hamlet"}}, {"type": "node", "id": 7456572242, "lat": 62.9782469, "lon": 14.3679773, "tags": {"name": "Ytter-G\u00e4rde", "place": "hamlet"}}, {"type": "node", "id": 7456572243, "lat": 62.9570464, "lon": 14.3501008, "tags": {"name": "V\u00e4stn\u00e5r", "place": "hamlet"}}, {"type": "node", "id": 7456578088, "lat": 62.9070104, "lon": 14.5322674, "tags": {"name": "Fridshem", "place": "hamlet"}}, {"type": "node", "id": 7456581110, "lat": 62.9297603, "lon": 14.4976295, "tags": {"name": "F\u00e4ste", "place": "hamlet"}}, {"type": "node", "id": 7456584357, "lat": 62.9388517, "lon": 14.3441601, "tags": {"name": "Hallom", "place": "hamlet"}}, {"type": "node", "id": 7456587967, "lat": 62.9058367, "lon": 14.3937232, "tags": {"name": "L\u00e5ngsved", "place": "hamlet"}}, {"type": "node", "id": 7456589061, "lat": 62.8943359, "lon": 14.3993898, "tags": {"name": "Mj\u00e4la", "place": "hamlet"}}, {"type": "node", "id": 7456590000, "lat": 62.8922458, "lon": 14.4145004, "tags": {"name": "Matn\u00e4set", "place": "hamlet"}}, {"type": "node", "id": 7456596679, "lat": 62.9154773, "lon": 14.3803751, "tags": {"name": "\u00c5ngron", "place": "hamlet"}}, {"type": "node", "id": 7456623398, "lat": 62.9336026, "lon": 14.2852805, "tags": {"name": "\u00d6ster-\u00c4lven", "place": "hamlet"}}, {"type": "node", "id": 7456633260, "lat": 62.9647892, "lon": 14.7114969, "tags": {"name": "Klocks\u00e5sen", "place": "hamlet"}}, {"type": "node", "id": 7456659668, "lat": 62.9808586, "lon": 14.5801755, "tags": {"name": "\u00c5lsta", "place": "hamlet"}}, {"type": "node", "id": 7456664573, "lat": 62.9595901, "lon": 14.6398035, "tags": {"name": "Sinnberg", "place": "hamlet"}}, {"type": "node", "id": 7456675308, "lat": 62.9465136, "lon": 14.6658984, "tags": {"name": "Mon", "place": "hamlet"}}, {"type": "node", "id": 7456676992, "lat": 62.9430396, "lon": 14.3852297, "tags": {"name": "Landsom", "place": "hamlet"}}, {"type": "node", "id": 7456694650, "lat": 62.9888585, "lon": 14.3328454, "tags": {"name": "H\u00e4ggen", "place": "hamlet"}}, {"type": "node", "id": 7456697163, "lat": 62.9852577, "lon": 14.3445205, "tags": {"name": "Hanabacken", "place": "hamlet"}}, {"type": "node", "id": 7456697484, "lat": 62.97635, "lon": 14.3299286, "tags": {"name": "H\u00e4llne", "place": "hamlet"}}, {"type": "node", "id": 7456754363, "lat": 62.9810962, "lon": 14.4528152, "tags": {"name": "F\u00e4rjestaden", "place": "hamlet"}}, {"type": "node", "id": 7456756605, "lat": 62.9918938, "lon": 14.4256513, "tags": {"name": "Side", "place": "hamlet"}}, {"type": "node", "id": 7456761556, "lat": 62.9593915, "lon": 14.3059835, "tags": {"name": "Gissel\u00e5sen", "place": "hamlet"}}, {"type": "node", "id": 7456765029, "lat": 62.9806375, "lon": 14.4015652, "tags": {"name": "Bot\u00e5sen", "place": "hamlet"}}, {"type": "node", "id": 7456769186, "lat": 62.985778, "lon": 14.3989347, "tags": {"name": "Jox\u00e5sen", "place": "hamlet"}}, {"type": "node", "id": 7456781640, "lat": 62.973043, "lon": 14.6536231, "tags": {"name": "Viken", "place": "hamlet"}}, {"type": "node", "id": 7456784113, "lat": 62.9753433, "lon": 14.6854729, "tags": {"name": "\u00c5san", "place": "hamlet"}}, {"type": "node", "id": 7456812210, "lat": 63.0005542, "lon": 14.3974456, "tags": {"name": "Skottg\u00e5rden", "place": "hamlet"}}, {"type": "node", "id": 7456812919, "lat": 63.0081035, "lon": 14.3353196, "tags": {"name": "Backen", "place": "hamlet"}}, {"type": "node", "id": 7456812959, "lat": 63.007738, "lon": 14.6174286, "tags": {"name": "Steng\u00e4rde", "place": "hamlet"}}, {"type": "node", "id": 7456813779, "lat": 63.0186977, "lon": 14.3919941, "tags": {"name": "K\u00e4mpdalen", "place": "hamlet"}}, {"type": "node", "id": 7456815180, "lat": 63.0205764, "lon": 14.7320257, "tags": {"name": "Gottand", "place": "hamlet"}}, {"type": "node", "id": 7456822835, "lat": 63.0003548, "lon": 14.653655, "tags": {"name": "Skute", "place": "hamlet"}}, {"type": "node", "id": 7456830538, "lat": 63.0117392, "lon": 14.7292428, "tags": {"name": "Tand", "place": "hamlet"}}, {"type": "node", "id": 7456857630, "lat": 63.0058116, "lon": 14.4359627, "tags": {"name": "Norr-Side", "place": "hamlet"}}, {"type": "node", "id": 7457547054, "lat": 62.6590934, "lon": 14.4056588, "tags": {"name": "\u00d6stansj\u00f6", "place": "hamlet"}}, {"type": "node", "id": 7457578536, "lat": 62.6408571, "lon": 14.3490362, "tags": {"name": "Forsen", "place": "hamlet"}}, {"type": "node", "id": 7457580178, "lat": 62.6965911, "lon": 14.3894128, "tags": {"name": "Toss\u00e5sen", "place": "hamlet"}}, {"type": "node", "id": 7457597270, "lat": 62.6629956, "lon": 14.357626, "tags": {"name": "V\u00e4ster\u00e5sen", "place": "hamlet"}}, {"type": "node", "id": 7457619316, "lat": 62.6508551, "lon": 14.3517086, "tags": {"name": "\u00d6ster\u00e5sen", "place": "hamlet"}}, {"type": "node", "id": 7457620144, "lat": 62.7599497, "lon": 14.4141873, "tags": {"name": "Lillhallen", "place": "hamlet"}}, {"type": "node", "id": 7457620162, "lat": 62.8420429, "lon": 14.5130944, "tags": {"name": "V\u00e5garna", "place": "hamlet"}}, {"type": "node", "id": 7457648889, "lat": 62.7846828, "lon": 14.4174, "tags": {"name": "Galhammar", "place": "hamlet"}}, {"type": "node", "id": 7457650806, "lat": 62.7597231, "lon": 14.4272, "tags": {"name": "Svensta", "place": "hamlet"}}, {"type": "node", "id": 7457666484, "lat": 62.8160337, "lon": 14.4082849, "tags": {"name": "Brattmon", "place": "hamlet"}}, {"type": "node", "id": 7457669333, "lat": 62.7631147, "lon": 14.4442651, "tags": {"name": "Bergsviken", "place": "hamlet"}}, {"type": "node", "id": 7457684102, "lat": 62.7910507, "lon": 14.6863615, "tags": {"name": "Framg\u00e5rdarna", "place": "hamlet"}}, {"type": "node", "id": 7457686636, "lat": 62.8248461, "lon": 14.388895, "tags": {"name": "R\u00f6nntorp", "place": "hamlet"}}, {"type": "node", "id": 7458047104, "lat": 62.9660576, "lon": 14.7265304, "tags": {"name": "Berget", "place": "hamlet"}}]}