{"version": 0.6, "generator": "Overpass API 0.7.61.5 4133829e", "osm3s": {"timestamp_osm_base": "2024-03-05T15:08:58Z", "copyright": "The data included in this document is from www.openstreetmap.org. The data is made available under ODbL."}, "elements": [{"type": "node", "id": 616935209, "lat": 66.275642, "lon": 21.1228811, "tags": {"name": "Lakatr\u00e4sk", "place": "village"}}, {"type": "node", "id": 671084214, "lat": 66.3052394, "lon": 20.4114037, "tags": {"name": "Sudok", "name:smj": "Suovdok", "name:sv": "Sudok", "place": "hamlet"}}, {"type": "node", "id": 2226880933, "lat": 66.1447741, "lon": 20.4468674, "tags": {"name": "Kroktj\u00e4rn", "place": "hamlet"}}, {"type": "node", "id": 2236207161, "lat": 66.0877069, "lon": 20.9525418, "tags": {"name": "Harads", "name:smj": "H\u00e1r\u00e1lt", "name:sv": "Harads", "place": "village", "ref:se:pts:postort": "HARADS"}}, {"type": "node", "id": 2653804984, "lat": 66.1867019, "lon": 20.0806437, "tags": {"name": "Pieski", "name:smj": "Biesske", "name:sv": "Pieski", "place": "hamlet"}}, {"type": "node", "id": 2653811636, "lat": 66.1886876, "lon": 20.2419553, "tags": {"name": "Puottaure", "name:smj": "Buohtt\u00e1vrre", "name:sv": "Puottaure", "place": "hamlet"}}, {"type": "node", "id": 3004494434, "lat": 66.0888453, "lon": 20.9030528, "tags": {"name": "Bodtr\u00e4skfors", "place": "village"}}, {"type": "node", "id": 3017964331, "lat": 66.0220539, "lon": 21.0650852, "tags": {"name": "Havstr\u00e4sk", "place": "hamlet"}}, {"type": "node", "id": 3199720323, "lat": 66.1524622, "lon": 20.3635058, "tags": {"name": "Snesudden", "place": "hamlet"}}, {"type": "node", "id": 3393886009, "lat": 66.2233641, "lon": 20.6452088, "tags": {"name": "Lill\u00e5", "place": "hamlet"}}, {"type": "node", "id": 5232877318, "lat": 66.0002022, "lon": 20.6921409, "tags": {"name": "R\u00f6dingstr\u00e4sk", "place": "hamlet"}}, {"type": "node", "id": 5232884471, "lat": 66.0720465, "lon": 20.8713597, "tags": {"name": "Djuptr\u00e4sk", "place": "hamlet"}}, {"type": "node", "id": 5244281107, "lat": 66.3448986, "lon": 20.5841678, "tags": {"name": "K\u00e5ikul", "name:smj": "G\u00e5jkkul", "name:sv": "K\u00e5ikul", "place": "hamlet"}}, {"type": "node", "id": 7468386062, "lat": 66.1279312, "lon": 20.9024241, "tags": {"name": "Grundsanden", "place": "hamlet"}}, {"type": "node", "id": 7468392388, "lat": 66.1561867, "lon": 20.8786842, "tags": {"name": "Nedre Forsn\u00e4s", "place": "hamlet"}}, {"type": "node", "id": 7468409440, "lat": 66.0359137, "lon": 21.0333076, "tags": {"name": "\u00d6stra Bovallen", "place": "hamlet"}}, {"type": "node", "id": 7468417101, "lat": 66.0579638, "lon": 21.0000385, "tags": {"name": "Kvarnb\u00e4cksn\u00e4set", "place": "hamlet"}}, {"type": "node", "id": 7468445584, "lat": 66.0507187, "lon": 21.0074479, "tags": {"name": "V\u00e4stra Bovallen", "place": "hamlet"}}, {"type": "node", "id": 7470148664, "lat": 66.1149625, "lon": 20.6494397, "tags": {"name": "Spikberg", "place": "hamlet"}}, {"type": "node", "id": 7470148665, "lat": 66.070394, "lon": 20.6809448, "tags": {"name": "Kvarn\u00e5", "place": "hamlet"}}, {"type": "node", "id": 7470151033, "lat": 66.1323209, "lon": 20.7822353, "tags": {"name": "Bodtr\u00e4sk\u00e5n", "place": "hamlet"}}, {"type": "node", "id": 7470162357, "lat": 66.1356243, "lon": 20.8701534, "tags": {"name": "Klus\u00e5n", "place": "hamlet"}}, {"type": "node", "id": 7470164235, "lat": 66.0897971, "lon": 20.9194815, "tags": {"name": "Kamrum", "place": "hamlet"}}, {"type": "node", "id": 7470165020, "lat": 66.1989208, "lon": 20.7177368, "tags": {"name": "Krokfors", "place": "hamlet"}}, {"type": "node", "id": 7470170017, "lat": 66.110218, "lon": 20.9023855, "tags": {"name": "V\u00e4stbolandet", "place": "hamlet"}}, {"type": "node", "id": 7470175747, "lat": 66.1155523, "lon": 20.9205782, "tags": {"name": "Bj\u00e4ssanden", "place": "hamlet"}}, {"type": "node", "id": 7470177437, "lat": 66.1159512, "lon": 20.8817315, "tags": {"name": "V\u00e4stbo", "place": "hamlet"}}, {"type": "node", "id": 7470177493, "lat": 66.0921877, "lon": 20.8423606, "tags": {"name": "\u00c4lvh\u00f6jden", "place": "hamlet"}}, {"type": "node", "id": 7470180985, "lat": 66.1470617, "lon": 20.8615501, "tags": {"name": "Bj\u00f6rkvik", "place": "hamlet"}}, {"type": "node", "id": 7470195402, "lat": 66.1859278, "lon": 20.8756398, "tags": {"name": "Forsn\u00e4s", "place": "hamlet"}}, {"type": "node", "id": 7470200399, "lat": 66.2007463, "lon": 20.8727235, "tags": {"name": "Norrhed", "place": "hamlet"}}, {"type": "node", "id": 7470238657, "lat": 65.996464, "lon": 20.4730232, "tags": {"name": "Haptr\u00e4sk", "place": "hamlet"}}, {"type": "node", "id": 7470353509, "lat": 66.0308632, "lon": 21.0054716, "tags": {"name": "\u00c5minne", "place": "hamlet"}}, {"type": "node", "id": 7470386237, "lat": 66.0585722, "lon": 20.9596091, "tags": {"name": "S\u00f6dra Harads", "place": "hamlet"}}, {"type": "node", "id": 9857578885, "lat": 66.3953368, "lon": 20.7213092, "tags": {"name": "Storbacken", "place": "hamlet"}}]}