{"version": 0.6, "generator": "Overpass API 0.7.61.5 4133829e", "osm3s": {"timestamp_osm_base": "2024-03-05T15:10:59Z", "copyright": "The data included in this document is from www.openstreetmap.org. The data is made available under ODbL."}, "elements": [{"type": "node", "id": 26581753, "lat": 58.3820066, "lon": 11.4851818, "tags": {"name": "Brastad", "place": "village", "ref:se:pts:postort": "BRASTAD", "ref:se:scb": "4316", "wikidata": "Q2335136"}}, {"type": "node", "id": 26585395, "lat": 58.2827931, "lon": 12.2908612, "tags": {"name": "Trollh\u00e4ttan", "name:he": "\u05d8\u05e8\u05d5\u05dc\u05d4\u05d8\u05df", "name:ru": "\u0422\u0440\u043e\u043b\u043b\u044c\u0445\u0435\u0442\u0442\u0430\u043d", "place": "town", "population": "44498", "ref:se:pts:postort": "TROLLH\u00c4TTAN", "ref:se:scb": "5084", "wikidata": "Q54339", "wikipedia": "sv:Trollh\u00e4ttan"}}, {"type": "node", "id": 26585398, "lat": 58.3490555, "lon": 11.9382855, "tags": {"name": "Uddevalla", "name:hu": "Uddevalla", "name:lt": "Udevala", "name:ru": "\u0423\u0434\u0434\u0435\u0432\u0430\u043b\u043b\u0430", "place": "town", "population": "31212", "ref:se:pts:postort": "UDDEVALLA", "ref:se:scb": "4608", "wikidata": "Q27447", "wikipedia": "sv:Uddevalla"}}, {"type": "node", "id": 29686799, "lat": 58.4666055, "lon": 11.6733554, "tags": {"name": "Munkedal", "name:ru": "\u041c\u0443\u043d\u043a\u0435\u0434\u0430\u043b\u044c", "place": "town", "population": "3718", "ref:se:pts:postort": "MUNKEDAL", "ref:se:scb": "4512", "wikidata": "Q772339"}}, {"type": "node", "id": 29687437, "lat": 58.2246504, "lon": 11.9198287, "tags": {"name": "Ljungskile", "place": "village", "ref:se:pts:postort": "LJUNGSKILE", "ref:se:scb": "4492", "website": "https://ljungskile.se/", "wikidata": "Q1721409", "wikipedia": "sv:Ljungskile"}}, {"type": "node", "id": 29690748, "lat": 58.2361634, "lon": 11.6793381, "tags": {"name": "Hen\u00e5n", "place": "town", "population": "1816", "ref:se:pts:postort": "HEN\u00c5N", "ref:se:scb": "4384", "wikidata": "Q1016950"}}, {"type": "node", "id": 32456191, "lat": 58.5276578, "lon": 11.578637, "tags": {"name": "Dingle", "place": "village", "ref:se:pts:postort": "DINGLE", "ref:se:scb": "4324", "wikidata": "Q1807347"}}, {"type": "node", "id": 73912590, "lat": 58.1882303, "lon": 12.2268778, "tags": {"name": "Sjuntorp", "place": "village", "ref:se:pts:postort": "SJUNTORP", "ref:se:scb": "5020"}}, {"type": "node", "id": 278977348, "lat": 58.6080532, "lon": 11.7573537, "tags": {"name": "Fisketorp", "place": "hamlet"}}, {"type": "node", "id": 278977351, "lat": 58.5270627, "lon": 12.0979845, "tags": {"name": "R\u00e5danefors", "place": "hamlet", "population": "59", "ref:se:scb": "S5197"}}, {"type": "node", "id": 278977564, "lat": 58.5000567, "lon": 12.2782435, "tags": {"name": "Fr\u00e4ndefors", "place": "village", "ref:se:pts:postort": "FR\u00c4NDEFORS", "ref:se:scb": "4820", "wikidata": "Q2748446"}}, {"type": "node", "id": 281683038, "lat": 58.4598753, "lon": 11.5222434, "tags": {"name": "Hallinden", "place": "hamlet"}}, {"type": "node", "id": 322254406, "lat": 58.4904119, "lon": 11.621298, "tags": {"name": "H\u00e5by", "place": "hamlet", "population": "69", "ref:se:scb": "S9601"}}, {"type": "node", "id": 322838197, "lat": 58.5072694, "lon": 11.4838266, "tags": {"name": "B\u00e4rfendal", "place": "hamlet"}}, {"type": "node", "id": 445063356, "lat": 58.5720531, "lon": 11.478215, "tags": {"name": "Grind", "place": "hamlet"}}, {"type": "node", "id": 822586067, "lat": 58.4099626, "lon": 11.6142452, "tags": {"name": "G\u00e5rvik", "place": "hamlet"}}, {"type": "node", "id": 1577091948, "lat": 58.545958, "lon": 11.9735917, "tags": {"name": "\u00d6deborg", "place": "village", "ref:se:pts:postort": "\u00d6DEBORG", "ref:se:scb": "5160", "wikidata": "Q1907466"}}, {"type": "node", "id": 1591425910, "lat": 58.5557869, "lon": 11.5648949, "tags": {"name": "Svarteborg", "place": "hamlet"}}, {"type": "node", "id": 1591433603, "lat": 58.5785545, "lon": 11.5431532, "tags": {"name": "H\u00e4llevadsholm", "place": "village", "ref:se:pts:postort": "H\u00c4LLEVADSHOLM", "ref:se:scb": "4412", "wikidata": "Q2781195"}}, {"type": "node", "id": 1591433610, "lat": 58.585392, "lon": 11.5755354, "tags": {"name": "Ramberg", "place": "hamlet"}}, {"type": "node", "id": 1594870766, "lat": 58.3098853, "lon": 11.7007971, "tags": {"name": "Sundsandvik", "place": "hamlet", "population": "119", "ref:se:scb": "S4765"}}, {"type": "node", "id": 1597605442, "lat": 58.3796858, "lon": 11.6650013, "tags": {"name": "Skredsvik", "place": "hamlet", "population": "57", "ref:se:scb": "S9617"}}, {"type": "node", "id": 1667524406, "lat": 58.3964735, "lon": 11.7577872, "tags": {"name": "Hogstorp", "place": "village", "ref:se:scb": "4398", "wikidata": "Q1981834"}}, {"type": "node", "id": 2009050890, "lat": 58.4823496, "lon": 12.0542154, "tags": {"name": "Br\u00e5ten", "place": "hamlet"}}, {"type": "node", "id": 2009050891, "lat": 58.5545073, "lon": 11.9222114, "tags": {"name": "Hillings\u00e4ter", "place": "hamlet"}}, {"type": "node", "id": 2009050895, "lat": 58.4668496, "lon": 12.0374002, "tags": {"name": "N\u00e4ttjebacka", "place": "hamlet"}}, {"type": "node", "id": 2009050898, "lat": 58.5687903, "lon": 12.0581143, "tags": {"name": "Stigen", "place": "village", "population": "400", "ref:se:pts:postort": "STIGEN", "ref:se:scb": "5048", "wikidata": "Q2474628", "wikipedia": "sv:Stigen"}}, {"type": "node", "id": 2009050899, "lat": 58.5169755, "lon": 11.9480835, "tags": {"name": "Torp", "place": "hamlet"}}, {"type": "node", "id": 2011436022, "lat": 58.5506873, "lon": 11.9891419, "tags": {"name": "H\u00e5vesten", "place": "hamlet", "population": "97", "ref:se:scb": "S5067"}}, {"type": "node", "id": 2236313287, "lat": 58.194478, "lon": 11.8408264, "tags": {"name": "Stillings\u00f6n", "place": "hamlet", "ref:se:pts:postort": "STILLINGS\u00d6N"}}, {"type": "node", "id": 2284348426, "lat": 58.2596152, "lon": 11.7601765, "tags": {"name": "Slussen", "place": "hamlet", "population": "65", "ref:se:scb": "S4723", "wikidata": "Q2503020", "wikipedia": "sv:Slussen, Orusts kommun"}}, {"type": "node", "id": 2284446026, "lat": 58.2820106, "lon": 11.7176475, "tags": {"name": "Stenshult", "place": "hamlet", "population": "60", "ref:se:scb": "S4747", "wikidata": "Q1908313", "wikipedia": "sv:Stenshult"}}, {"type": "node", "id": 2284466096, "lat": 58.2402895, "lon": 11.7027101, "tags": {"name": "Timmerhult", "place": "hamlet", "ref:se:scb": "S4795"}}, {"type": "node", "id": 2284466103, "lat": 58.2480775, "lon": 11.7215944, "tags": {"name": "Torp", "place": "hamlet", "population": "60", "ref:se:scb": "4824"}}, {"type": "node", "id": 2284481762, "lat": 58.2992034, "lon": 11.6917183, "tags": {"name": "Vind\u00f6n", "place": "hamlet", "population": "97", "ref:se:scb": "S4865", "wikidata": "Q2676602", "wikipedia": "sv:Vind\u00f6n"}}, {"type": "node", "id": 2284528738, "lat": 58.2346774, "lon": 11.6406708, "tags": {"name": "Dalby", "place": "hamlet", "population": "90", "ref:se:scb": "5351"}}, {"type": "node", "id": 2290924148, "lat": 58.3113955, "lon": 11.8184075, "tags": {"name": "Ammen\u00e4s", "place": "village", "population": "544", "ref:se:scb": "4296", "wikidata": "Q2684247"}}, {"type": "node", "id": 2290924151, "lat": 58.4220321, "lon": 12.0170165, "tags": {"name": "Fagerhult", "place": "hamlet", "wikidata": "Q2322019"}}, {"type": "node", "id": 2290924152, "lat": 58.4356904, "lon": 11.5991392, "tags": {"name": "Fj\u00e4llberg", "place": "hamlet", "population": "61", "ref:se:scb": "S4449"}}, {"type": "node", "id": 2290924154, "lat": 58.3502999, "lon": 11.8469981, "tags": {"name": "Herrestad", "place": "village", "population": "2583", "ref:se:scb": "4388", "wikidata": "Q2018868"}}, {"type": "node", "id": 2290924155, "lat": 58.3409926, "lon": 11.7157204, "tags": {"name": "Lanesund", "official_name": "Lanesund och \u00d6verby", "place": "village", "population": "347", "ref:se:scb": "4482", "wikidata": "Q3538518"}}, {"type": "node", "id": 2290924162, "lat": 58.4422362, "lon": 11.598762, "tags": {"name": "Torreby", "place": "village", "population": "215", "ref:se:scb": "4554", "wikidata": "Q3150541"}}, {"type": "node", "id": 2290924163, "lat": 58.3338114, "lon": 11.7868925, "tags": {"name": "Utby", "place": "village", "population": "267", "ref:se:scb": "5106", "wikidata": "Q3593929"}}, {"type": "node", "id": 2294579361, "lat": 58.416367, "lon": 11.4750428, "tags": {"name": "Brodalen", "place": "hamlet", "population": "197", "ref:se:scb": "S4395"}}, {"type": "node", "id": 2306761636, "lat": 58.3321881, "lon": 12.1387062, "tags": {"name": "V\u00e4ne-Ryr", "place": "hamlet", "population": "118", "ref:se:scb": "S5261"}}, {"type": "node", "id": 2308736057, "lat": 58.2113408, "lon": 12.2697732, "tags": {"name": "Baggeryr+Gr\u00e5bo", "place": "hamlet", "population": "60", "ref:se:scb": "S4915"}}, {"type": "node", "id": 2308736064, "lat": 58.2243455, "lon": 12.1845475, "tags": {"name": "Heden", "place": "hamlet", "population": "55", "ref:se:scb": "S5025"}}, {"type": "node", "id": 2316478076, "lat": 58.3483827, "lon": 11.6517439, "tags": {"name": "Backa", "place": "hamlet", "population": "72", "ref:se:scb": "S4371"}}, {"type": "node", "id": 2316478078, "lat": 58.3109179, "lon": 11.8750696, "tags": {"name": "Busl\u00e4tt", "place": "hamlet", "population": "109", "ref:se:scb": "S4401"}}, {"type": "node", "id": 2316478079, "lat": 58.3322628, "lon": 12.2648287, "tags": {"name": "B\u00e5berg och Kvarntorp", "place": "hamlet", "population": "73", "ref:se:scb": "S4927"}}, {"type": "node", "id": 2316478081, "lat": 58.3700906, "lon": 11.7677093, "tags": {"name": "B\u00e5ngen", "place": "hamlet", "population": "53"}}, {"type": "node", "id": 2316478082, "lat": 58.3455714, "lon": 11.7393055, "tags": {"name": "Ekholma", "place": "hamlet", "population": "63", "ref:se:scb": "S4439"}}, {"type": "node", "id": 2316478083, "lat": 58.2652689, "lon": 11.6205863, "tags": {"name": "Eriksberg", "place": "hamlet", "population": "51", "ref:se:scb": "S4443"}}, {"type": "node", "id": 2316478085, "lat": 58.485386, "lon": 12.2548736, "tags": {"name": "Forsane", "place": "hamlet", "population": "108", "ref:se:scb": "S4977"}}, {"type": "node", "id": 2316478086, "lat": 58.1899243, "lon": 11.9555893, "tags": {"name": "Grinner\u00f6d", "place": "hamlet", "population": "94", "ref:se:scb": "S9581"}}, {"type": "node", "id": 2316478087, "lat": 58.3381843, "lon": 12.2222923, "tags": {"name": "Grunnebo", "place": "hamlet", "population": "102", "ref:se:scb": "S5017"}}, {"type": "node", "id": 2316478089, "lat": 58.2521436, "lon": 11.8685068, "tags": {"name": "Hog + Strand", "place": "hamlet", "population": "50", "ref:se:scb": "S4511"}}, {"type": "node", "id": 2316478090, "lat": 58.3507046, "lon": 11.7494101, "tags": {"name": "Holma", "place": "hamlet", "population": "58", "ref:se:scb": "S4517"}}, {"type": "node", "id": 2316478093, "lat": 58.2375147, "lon": 11.8780339, "tags": {"name": "Resten\u00e4s", "place": "hamlet", "population": "132", "ref:se:scb": "S4665"}}, {"type": "node", "id": 2316478094, "lat": 58.2599188, "lon": 11.8492255, "tags": {"name": "Rester\u00f6d Rannebergsbukten", "place": "hamlet", "population": "54", "ref:se:scb": "S4666"}}, {"type": "node", "id": 2316478095, "lat": 58.3654305, "lon": 11.8071516, "tags": {"name": "Smedser\u00f6d", "place": "hamlet", "population": "81", "ref:se:scb": "S4727"}}, {"type": "node", "id": 2316478097, "lat": 58.2816606, "lon": 11.8499037, "tags": {"name": "Strand + Br\u00e4cke+R\u00e5ssbyn", "place": "hamlet", "population": "181", "ref:se:scb": "S4761"}}, {"type": "node", "id": 2316478099, "lat": 58.2444689, "lon": 11.8648817, "tags": {"name": "Strandskogen", "place": "hamlet", "population": "62", "ref:se:scb": "S4762"}}, {"type": "node", "id": 2316478102, "lat": 58.2241739, "lon": 11.8900356, "tags": {"name": "Ulvesund", "place": "hamlet", "population": "172", "ref:se:scb": "S4853"}}, {"type": "node", "id": 2316478103, "lat": 58.2867121, "lon": 11.830503, "tags": {"name": "V\u00e4sterby och Sj\u00f6skogen", "place": "hamlet", "population": "74", "ref:se:scb": "S4867"}}, {"type": "node", "id": 2406098328, "lat": 58.400273, "lon": 12.2084691, "tags": {"name": "Siviken", "place": "hamlet"}}, {"type": "node", "id": 2501396299, "lat": 58.5936211, "lon": 11.6054669, "tags": {"name": "Backen", "place": "hamlet"}}, {"type": "node", "id": 2501396302, "lat": 58.5841943, "lon": 11.6119793, "tags": {"name": "Gunghult", "place": "hamlet"}}, {"type": "node", "id": 2520332656, "lat": 58.6037508, "lon": 11.6143716, "tags": {"name": "Liane", "place": "hamlet"}}, {"type": "node", "id": 2520332711, "lat": 58.5996704, "lon": 11.5957892, "tags": {"name": "Dammen", "place": "hamlet"}}, {"type": "node", "id": 2800155388, "lat": 58.5541768, "lon": 12.0000236}, {"type": "node", "id": 2800155389, "lat": 58.5542996, "lon": 11.9839487}, {"type": "node", "id": 2800155390, "lat": 58.5550891, "lon": 11.9928942}, {"type": "node", "id": 2800155391, "lat": 58.5565452, "lon": 12.0067495}, {"type": "node", "id": 2800155392, "lat": 58.5642282, "lon": 11.9772564}, {"type": "node", "id": 2800155393, "lat": 58.5668765, "lon": 12.0094735}, {"type": "node", "id": 2800155394, "lat": 58.5671221, "lon": 11.9720102}, {"type": "node", "id": 2800155395, "lat": 58.5688232, "lon": 12.0122984}, {"type": "node", "id": 2800155396, "lat": 58.5692967, "lon": 12.0164685}, {"type": "node", "id": 2800155397, "lat": 58.5698666, "lon": 12.0216895}, {"type": "node", "id": 2800155398, "lat": 58.5701077, "lon": 12.0196296}, {"type": "node", "id": 2800155399, "lat": 58.5701893, "lon": 11.9709146}, {"type": "node", "id": 2800155400, "lat": 58.572074, "lon": 11.978429}, {"type": "node", "id": 2800161401, "lat": 58.5728214, "lon": 12.0201257}, {"type": "node", "id": 2800161402, "lat": 58.5752937, "lon": 12.0179734}, {"type": "node", "id": 2800161403, "lat": 58.5795191, "lon": 11.995677}, {"type": "node", "id": 2800161404, "lat": 58.5799398, "lon": 12.0184778}, {"type": "node", "id": 2800161405, "lat": 58.5800275, "lon": 11.9807959}, {"type": "node", "id": 2800161406, "lat": 58.5804132, "lon": 11.9840916}, {"type": "node", "id": 2800161407, "lat": 58.5810618, "lon": 12.0061694}, {"type": "node", "id": 2800161408, "lat": 58.5818858, "lon": 12.0156866}, {"type": "node", "id": 3115492241, "lat": 58.2537193, "lon": 11.5512493, "tags": {"name": "Dragsmark", "place": "hamlet"}}, {"type": "node", "id": 3315614736, "lat": 58.2782174, "lon": 12.1730586, "tags": {"name": "Garnviken", "place": "hamlet", "population": "67"}}, {"type": "node", "id": 3344175657, "lat": 58.5899757, "lon": 12.2359144, "tags": {"name": "S\u00f6dra Bleken", "place": "hamlet"}}, {"type": "node", "id": 3344175660, "lat": 58.582663, "lon": 12.2439825, "tags": {"name": "K\u00e4rr", "place": "hamlet"}}, {"type": "node", "id": 3534432797, "lat": 58.2252931, "lon": 11.5799264, "tags": {"name": "Kungsviken", "place": "hamlet", "wikidata": "Q10550378", "wikipedia": "sv:Kungsviken, Orusts kommun"}}, {"type": "node", "id": 3647975956, "lat": 58.5753543, "lon": 12.226726, "tags": {"name": "\u00c5rbol", "place": "hamlet", "source": "Bing"}}, {"type": "node", "id": 4341885916, "lat": 58.3189286, "lon": 11.7052557, "tags": {"name": "H\u00f6gberg", "place": "hamlet"}}, {"type": "node", "id": 4341885917, "lat": 58.3154318, "lon": 11.7122079, "tags": {"name": "Skr\u00e5vik", "place": "hamlet"}}, {"type": "node", "id": 4341885918, "lat": 58.3176557, "lon": 11.7122096, "tags": {"name": "Bergeln", "place": "hamlet"}}, {"type": "node", "id": 4345215733, "lat": 58.397604, "lon": 11.9881806, "tags": {"name": "Sj\u00f6lunda", "place": "hamlet"}}, {"type": "node", "id": 4345215734, "lat": 58.3948823, "lon": 11.9963126, "tags": {"name": "Soper\u00f6d", "place": "hamlet"}}, {"type": "node", "id": 4345215735, "lat": 58.4023951, "lon": 11.9891515, "tags": {"name": "Stora Kopper\u00f6d", "place": "village"}}, {"type": "node", "id": 4349046711, "lat": 58.4189663, "lon": 12.0220335, "tags": {"name": "Lane", "official_name": "Lane Fagerhult", "place": "village", "population": "353", "ref:se:scb": "4338"}}, {"type": "node", "id": 4354872123, "lat": 58.3791391, "lon": 12.0076302, "tags": {"name": "Knutser\u00f6d", "place": "hamlet"}}, {"type": "node", "id": 4354872127, "lat": 58.3861726, "lon": 11.9982961, "tags": {"name": "Nordmanner\u00f6d", "place": "village"}}, {"type": "node", "id": 4354877141, "lat": 58.3937276, "lon": 12.0385829, "tags": {"name": "R\u00f6d", "place": "hamlet"}}, {"type": "node", "id": 4354877142, "lat": 58.3791785, "lon": 11.9982425, "tags": {"name": "Salek\u00e4rr", "place": "hamlet"}}, {"type": "node", "id": 4354877143, "lat": 58.4103754, "lon": 12.0129919, "tags": {"name": "Stur\u00f6d", "place": "hamlet"}}, {"type": "node", "id": 4354877144, "lat": 58.3984054, "lon": 12.0291415, "tags": {"name": "Upplehult", "place": "hamlet"}}, {"type": "node", "id": 4365519791, "lat": 58.6049427, "lon": 12.2337324, "tags": {"name": "Bollerud", "place": "hamlet"}}, {"type": "node", "id": 4365519796, "lat": 58.5706064, "lon": 12.2020326, "tags": {"name": "Evenstorp", "place": "hamlet"}}, {"type": "node", "id": 4365519800, "lat": 58.5504536, "lon": 12.2091331, "tags": {"name": "H\u00e4gnan", "place": "hamlet"}}, {"type": "node", "id": 4365519801, "lat": 58.5472851, "lon": 12.2290619, "tags": {"name": "H\u00e4ljebyn", "place": "hamlet"}}, {"type": "node", "id": 4411413061, "lat": 58.4912798, "lon": 11.7276056}, {"type": "node", "id": 4411413063, "lat": 58.4913137, "lon": 11.7270152}, {"type": "node", "id": 4411413065, "lat": 58.4913625, "lon": 11.7277102}, {"type": "node", "id": 4411413067, "lat": 58.4915601, "lon": 11.7276968}, {"type": "node", "id": 4411413068, "lat": 58.4915756, "lon": 11.7272972}, {"type": "node", "id": 4411413075, "lat": 58.4917844, "lon": 11.7261519}, {"type": "node", "id": 4411413189, "lat": 58.4922176, "lon": 11.7282923}, {"type": "node", "id": 4411413193, "lat": 58.4924447, "lon": 11.7284049}, {"type": "node", "id": 4411413202, "lat": 58.4928764, "lon": 11.7280026}, {"type": "node", "id": 4411413208, "lat": 58.493168, "lon": 11.7280992}, {"type": "node", "id": 4411413209, "lat": 58.4932265, "lon": 11.7277693}, {"type": "node", "id": 4411413210, "lat": 58.493325, "lon": 11.727214}, {"type": "node", "id": 4412268694, "lat": 58.2076054, "lon": 11.7735742, "tags": {"name": "Myckleby", "place": "hamlet"}}, {"type": "node", "id": 4417841643, "lat": 58.4755597, "lon": 11.7654639, "tags": {"name": "Hattefj\u00e4ll", "place": "hamlet"}}, {"type": "node", "id": 4417842594, "lat": 58.4929707, "lon": 11.8135116, "tags": {"name": "Valbo-Ryr", "place": "village"}}, {"type": "node", "id": 4431704497, "lat": 58.3695899, "lon": 11.84437}, {"type": "node", "id": 4431704527, "lat": 58.3698979, "lon": 11.8448688}, {"type": "node", "id": 4431704539, "lat": 58.3699893, "lon": 11.8449305}, {"type": "node", "id": 4431704575, "lat": 58.3702439, "lon": 11.8449788}, {"type": "node", "id": 4431704596, "lat": 58.3703916, "lon": 11.8450325}, {"type": "node", "id": 4431704637, "lat": 58.3706153, "lon": 11.8451532}, {"type": "node", "id": 4431704660, "lat": 58.3707672, "lon": 11.8451666}, {"type": "node", "id": 4431704708, "lat": 58.3710949, "lon": 11.8450861}, {"type": "node", "id": 4431704719, "lat": 58.3712581, "lon": 11.8449681}, {"type": "node", "id": 4431704731, "lat": 58.3714367, "lon": 11.8448662}, {"type": "node", "id": 4431704745, "lat": 58.371569, "lon": 11.844732}, {"type": "node", "id": 4431704752, "lat": 58.3717152, "lon": 11.8445181}, {"type": "node", "id": 4431704755, "lat": 58.3717855, "lon": 11.8446898}, {"type": "node", "id": 4431704762, "lat": 58.371943, "lon": 11.8447917}, {"type": "node", "id": 4431704766, "lat": 58.3720626, "lon": 11.8445611}, {"type": "node", "id": 4431704767, "lat": 58.3721174, "lon": 11.8440139}, {"type": "node", "id": 4431704776, "lat": 58.3721821, "lon": 11.8445745}, {"type": "node", "id": 4431704780, "lat": 58.37223, "lon": 11.8439415}, {"type": "node", "id": 4431704784, "lat": 58.3722609, "lon": 11.8443733}, {"type": "node", "id": 4431704795, "lat": 58.3724269, "lon": 11.8438905}, {"type": "node", "id": 4433442908, "lat": 58.364571, "lon": 11.8485579, "tags": {"name": "Gror\u00f6d", "place": "hamlet"}}, {"type": "node", "id": 4433444615, "lat": 58.3696152, "lon": 11.8442577}, {"type": "node", "id": 4433444636, "lat": 58.3697727, "lon": 11.8435925}, {"type": "node", "id": 4433444650, "lat": 58.3698909, "lon": 11.8443892}, {"type": "node", "id": 4433444655, "lat": 58.3699134, "lon": 11.8441826}, {"type": "node", "id": 4433444664, "lat": 58.3699767, "lon": 11.8441317}, {"type": "node", "id": 4433444667, "lat": 58.3700077, "lon": 11.8437266}, {"type": "node", "id": 4433444677, "lat": 58.370161, "lon": 11.8444911}, {"type": "node", "id": 4433444694, "lat": 58.3702559, "lon": 11.8437293}, {"type": "node", "id": 4433444699, "lat": 58.3702736, "lon": 11.8434444}, {"type": "node", "id": 4433444737, "lat": 58.3704705, "lon": 11.8431037}, {"type": "node", "id": 4433444789, "lat": 58.3708081, "lon": 11.8430742}, {"type": "node", "id": 4433444825, "lat": 58.3709389, "lon": 11.8435892}, {"type": "node", "id": 4433444861, "lat": 58.3710866, "lon": 11.8436107}, {"type": "node", "id": 4433444869, "lat": 58.3711246, "lon": 11.8434015}, {"type": "node", "id": 4433444934, "lat": 58.371389, "lon": 11.84327}, {"type": "node", "id": 4433444936, "lat": 58.3714003, "lon": 11.8429804}, {"type": "node", "id": 4433444950, "lat": 58.3715592, "lon": 11.8429267}, {"type": "node", "id": 4433444970, "lat": 58.3716338, "lon": 11.8431708}, {"type": "node", "id": 4433445025, "lat": 58.3721008, "lon": 11.8431011}, {"type": "node", "id": 4433445045, "lat": 58.3723441, "lon": 11.8433076}, {"type": "node", "id": 4433445050, "lat": 58.3724299, "lon": 11.843777}, {"type": "node", "id": 4439027440, "lat": 58.4607637, "lon": 11.8737419, "tags": {"name": "Holmen", "place": "hamlet"}}, {"type": "node", "id": 4439361663, "lat": 58.2978689, "lon": 12.0247704, "tags": {"name": "Nybygget", "place": "hamlet"}}, {"type": "node", "id": 4439367134, "lat": 58.3010081, "lon": 12.0604417, "tags": {"name": "Stenshult", "place": "hamlet"}}, {"type": "node", "id": 4458947658, "lat": 58.2383446, "lon": 11.9357455, "tags": {"name": "K\u00e4rr", "place": "hamlet"}}, {"type": "node", "id": 4585897052, "lat": 58.4557901, "lon": 11.5716493, "tags": {"name": "G\u00f6keplatsen", "place": "hamlet"}}, {"type": "node", "id": 4742163095, "lat": 58.2782259, "lon": 11.5483213, "tags": {"name": "Svepetorp", "place": "hamlet"}}, {"type": "node", "id": 4757096048, "lat": 58.3837517, "lon": 11.4757986, "tags": {"name": "Nedre Tuntorp", "place": "hamlet"}}, {"type": "node", "id": 5046935981, "lat": 58.2423715, "lon": 11.6220868, "tags": {"name": "Svineviken", "place": "hamlet"}}, {"type": "node", "id": 5335432644, "lat": 58.4207296, "lon": 11.577444, "tags": {"name": "S\u00e4mstad", "place": "hamlet"}}, {"type": "node", "id": 5335432645, "lat": 58.4102328, "lon": 11.5729272, "tags": {"name": "Barkedal", "place": "hamlet"}}, {"type": "node", "id": 5335432659, "lat": 58.4240331, "lon": 11.4810776, "tags": {"name": "Bro", "place": "hamlet", "wikidata": "Q21566644"}}, {"type": "node", "id": 5484271072, "lat": 58.4194767, "lon": 11.636045, "tags": {"name": "Bergsvik", "place": "hamlet"}}, {"type": "node", "id": 5765354900, "lat": 58.3629585, "lon": 11.9256776, "tags": {"name": "Ramner\u00f6d", "place": "village"}}, {"type": "node", "id": 5873328685, "lat": 58.3416491, "lon": 11.6885928, "tags": {"name": "Rotviksbro", "place": "hamlet"}}, {"type": "node", "id": 5873339927, "lat": 58.3305577, "lon": 11.6802075, "tags": {"name": "H\u00f6g\u00e5s", "place": "hamlet"}}, {"type": "node", "id": 5895147827, "lat": 58.3593227, "lon": 11.6123986, "tags": {"name": "Ormestad", "place": "hamlet"}}, {"type": "node", "id": 6189041515, "lat": 58.2816577, "lon": 11.6913521, "tags": {"name": "G\u00e5re", "place": "hamlet"}}, {"type": "node", "id": 6189041516, "lat": 58.2800726, "lon": 11.6864276, "tags": {"name": "S\u00f6rgraven", "place": "hamlet"}}, {"type": "node", "id": 6189041517, "lat": 58.2703746, "lon": 11.6940558, "tags": {"name": "S\u00f6bben", "place": "hamlet"}}, {"type": "node", "id": 6189599163, "lat": 58.2245738, "lon": 11.7382049, "tags": {"name": "Grindsby", "place": "hamlet"}}, {"type": "node", "id": 6189599164, "lat": 58.1910213, "lon": 11.6217756, "tags": {"name": "R\u00f6ra", "place": "hamlet"}}, {"type": "node", "id": 6189599166, "lat": 58.1924576, "lon": 11.507535, "tags": {"name": "Morlanda", "place": "hamlet"}}, {"type": "node", "id": 6189599170, "lat": 58.2944709, "lon": 11.7199659, "tags": {"name": "T\u00f6ll\u00e5s", "place": "hamlet"}}, {"type": "node", "id": 6189599171, "lat": 58.2984177, "lon": 11.7178201, "tags": {"name": "Nyhagen", "place": "hamlet"}}, {"type": "node", "id": 6228941910, "lat": 58.2536155, "lon": 11.5623781, "tags": {"name": "Katrineberg", "place": "hamlet"}}, {"type": "node", "id": 6228967748, "lat": 58.2416431, "lon": 11.5562439, "tags": {"name": "S\u00f6dra Munkeby", "place": "hamlet"}}, {"type": "node", "id": 6235160529, "lat": 58.4203925, "lon": 11.5633786, "tags": {"name": "\u00d6na", "place": "hamlet"}}, {"type": "node", "id": 6253061043, "lat": 58.3924125, "lon": 11.6697335, "tags": {"name": "Gunnarby", "place": "hamlet"}}, {"type": "node", "id": 6259140140, "lat": 58.3007404, "lon": 11.5570593, "tags": {"name": "Svenser\u00f6d", "place": "hamlet"}}, {"type": "node", "id": 6259140148, "lat": 58.2974874, "lon": 11.5365458, "tags": {"name": "Sk\u00e5r", "place": "hamlet"}}, {"type": "node", "id": 6259140151, "lat": 58.3123632, "lon": 11.5554285, "tags": {"name": "Torser\u00f6d", "place": "hamlet"}}, {"type": "node", "id": 6259389512, "lat": 58.28908, "lon": 11.6429114, "tags": {"name": "Kavlanda", "place": "hamlet"}}, {"type": "node", "id": 6314049903, "lat": 58.4347393, "lon": 11.7054606, "tags": {"name": "Saltk\u00e4llan", "place": "hamlet"}}, {"type": "node", "id": 6795020753, "lat": 58.4347674, "lon": 11.6180849, "tags": {"name": "H\u00e4sthagen", "place": "hamlet"}}, {"type": "node", "id": 7141668799, "lat": 58.479416, "lon": 11.6827476, "tags": {"name": "M\u00f6e", "place": "hamlet"}}, {"type": "node", "id": 7141668821, "lat": 58.4686926, "lon": 11.6921568, "tags": {"name": "Liljedal", "place": "hamlet"}}, {"type": "node", "id": 7147632152, "lat": 58.5161363, "lon": 11.9827151, "tags": {"name": "Ellen\u00f6", "place": "hamlet", "population": "70", "ref:se:scb": "S4949"}}, {"type": "node", "id": 7150464485, "lat": 58.3945379, "lon": 12.0618725, "tags": {"name": "Lane-Ryr", "place": "hamlet"}}, {"type": "node", "id": 7418127448, "lat": 58.339517, "lon": 11.6564834, "tags": {"name": "Kamper\u00f6d", "place": "hamlet"}}, {"type": "node", "id": 7418156321, "lat": 58.3352594, "lon": 11.6401005, "tags": {"name": "Hogen", "place": "hamlet"}}, {"type": "node", "id": 7418156322, "lat": 58.3336035, "lon": 11.6436624, "tags": {"name": "Berg", "place": "hamlet"}}, {"type": "node", "id": 7418157038, "lat": 58.3440499, "lon": 11.731022, "tags": {"name": "Orrevik", "place": "hamlet"}}, {"type": "node", "id": 7441864429, "lat": 58.270685, "lon": 11.577723, "tags": {"name": "Norra R\u00f6rb\u00e4ck", "place": "hamlet"}}, {"type": "node", "id": 7441940192, "lat": 58.2950742, "lon": 11.6284597, "tags": {"name": "T\u00e4ppelid", "place": "hamlet"}}, {"type": "node", "id": 7441940193, "lat": 58.2929146, "lon": 11.6156173, "tags": {"name": "Sk\u00e5rper\u00f6d", "place": "hamlet"}}, {"type": "node", "id": 7441940194, "lat": 58.2758981, "lon": 11.6067982, "tags": {"name": "Stora Br\u00e4cke", "place": "hamlet"}}, {"type": "node", "id": 7441940195, "lat": 58.2806198, "lon": 11.5411806, "tags": {"name": "L\u00f6g\u00e5s", "place": "hamlet"}}, {"type": "node", "id": 7441940199, "lat": 58.2642295, "lon": 11.5637112, "tags": {"name": "V\u00e4stra R\u00f6rb\u00e4ck", "place": "hamlet"}}, {"type": "node", "id": 7441940200, "lat": 58.2637498, "lon": 11.5752661, "tags": {"name": "S\u00f6dra R\u00f6rb\u00e4ck", "place": "hamlet"}}, {"type": "node", "id": 7441940201, "lat": 58.2656291, "lon": 11.600833, "tags": {"name": "Bj\u00e4llans\u00e5s", "place": "hamlet"}}, {"type": "node", "id": 7441954894, "lat": 58.2471654, "lon": 11.5052604, "tags": {"name": "Str\u00f6mberget", "place": "hamlet"}}, {"type": "node", "id": 7441954895, "lat": 58.2497739, "lon": 11.5062261, "tags": {"name": "Smedtorpet", "place": "hamlet"}}, {"type": "node", "id": 7442460930, "lat": 58.3146963, "lon": 11.5951252, "tags": {"name": "S\u00f6rberget", "place": "hamlet"}}, {"type": "node", "id": 7442460938, "lat": 58.3359127, "lon": 11.5821003, "tags": {"name": "Kolvik", "place": "hamlet"}}, {"type": "node", "id": 7442460939, "lat": 58.3455758, "lon": 11.6011548, "tags": {"name": "H\u00e4lleb\u00e4ck", "place": "hamlet"}}, {"type": "node", "id": 7442484223, "lat": 58.326461, "lon": 11.5809202, "tags": {"name": "Jordfall", "place": "hamlet"}}, {"type": "node", "id": 7442484224, "lat": 58.2931176, "lon": 11.567949, "tags": {"name": "Boken\u00e4s", "place": "hamlet"}}, {"type": "node", "id": 7442512594, "lat": 58.3570601, "lon": 11.6390169, "tags": {"name": "Finnsland", "place": "hamlet"}}, {"type": "node", "id": 7442537674, "lat": 58.3795617, "lon": 11.695869, "tags": {"name": "Kolsby", "place": "hamlet"}}, {"type": "node", "id": 7442537676, "lat": 58.4109522, "lon": 11.7173695, "tags": {"name": "Anner\u00f6d", "place": "hamlet"}}, {"type": "node", "id": 7442669490, "lat": 58.3506992, "lon": 11.7012977, "tags": {"name": "Stoler\u00f6d", "place": "hamlet"}}, {"type": "node", "id": 7442669496, "lat": 58.543391, "lon": 11.478889, "tags": {"name": "Huset", "place": "hamlet"}}, {"type": "node", "id": 7442669499, "lat": 58.5470189, "lon": 11.4930725, "tags": {"name": "Gatebacken", "place": "hamlet"}}, {"type": "node", "id": 7442684480, "lat": 58.3843989, "lon": 11.68396, "tags": {"name": "Torp", "place": "hamlet"}}, {"type": "node", "id": 7442684484, "lat": 58.3687206, "lon": 11.7805838, "tags": {"name": "R\u00f6rk\u00e4rr", "place": "hamlet"}}, {"type": "node", "id": 7443538695, "lat": 58.4242017, "lon": 11.6981864, "tags": {"name": "Skaver\u00f6d", "place": "hamlet"}}, {"type": "node", "id": 7443538696, "lat": 58.4127393, "lon": 11.6595948, "tags": {"name": "Kn\u00e4hammar", "place": "hamlet"}}, {"type": "node", "id": 7443538698, "lat": 58.4256118, "lon": 11.6863417, "tags": {"name": "Klockareviken", "place": "hamlet"}}, {"type": "node", "id": 7443538699, "lat": 58.4174371, "lon": 11.6839599, "tags": {"name": "V\u00e4jer\u00f6d", "place": "hamlet"}}, {"type": "node", "id": 7449928521, "lat": 58.2349259, "lon": 11.7630441, "tags": {"name": "Lilla Krossek\u00e4rr", "place": "hamlet"}}, {"type": "node", "id": 7449928523, "lat": 58.2071748, "lon": 11.7126677, "tags": {"name": "S\u00f6dra Fj\u00e4lla", "place": "hamlet"}}, {"type": "node", "id": 7449937494, "lat": 58.2685952, "lon": 11.5638495, "tags": {"name": "Bergsliden", "place": "hamlet"}}, {"type": "node", "id": 7449938070, "lat": 58.4378043, "lon": 11.673158, "tags": {"name": "Munkedals hamn", "place": "hamlet"}}, {"type": "node", "id": 7474272862, "lat": 58.2204153, "lon": 11.5244865, "tags": {"name": "\u00c5ngg\u00e5rdsvik", "place": "hamlet"}}, {"type": "node", "id": 7474272879, "lat": 58.2299462, "lon": 11.4993167, "tags": {"name": "Bua", "place": "hamlet"}}, {"type": "node", "id": 7477011775, "lat": 58.2246317, "lon": 11.7148989, "tags": {"name": "R\u00f6dstegen", "place": "hamlet"}}, {"type": "node", "id": 7477011776, "lat": 58.2223841, "lon": 11.6888391, "tags": {"name": "\u00d6lser\u00f6d", "place": "hamlet"}}, {"type": "node", "id": 7477011777, "lat": 58.2556944, "lon": 11.7017254, "tags": {"name": "Medstugan", "place": "hamlet"}}, {"type": "node", "id": 7477011780, "lat": 58.2523174, "lon": 11.7216834, "tags": {"name": "F\u00f6ggetorp", "place": "hamlet"}}, {"type": "node", "id": 7477011781, "lat": 58.249306, "lon": 11.6829702, "tags": {"name": "N\u00f6teviken", "place": "hamlet"}}, {"type": "node", "id": 7477011782, "lat": 58.2465884, "lon": 11.6999441, "tags": {"name": "L\u00f6v\u00e5s", "place": "hamlet"}}, {"type": "node", "id": 7477032639, "lat": 58.3411384, "lon": 11.5910076, "tags": {"name": "Norra Klev", "place": "hamlet"}}, {"type": "node", "id": 7477032644, "lat": 58.332421, "lon": 11.6854134, "tags": {"name": "\u00c5sen", "place": "hamlet"}}, {"type": "node", "id": 7477032647, "lat": 58.3258241, "lon": 11.6709103, "tags": {"name": "Haller\u00f6d", "place": "hamlet"}}, {"type": "node", "id": 7477032652, "lat": 58.3435473, "lon": 11.7022985, "tags": {"name": "Sv\u00e4lte", "place": "hamlet"}}, {"type": "node", "id": 7477032660, "lat": 58.344845, "lon": 11.6438008, "tags": {"name": "Skal", "place": "hamlet"}}, {"type": "node", "id": 7477032664, "lat": 58.3314377, "lon": 11.6353038, "tags": {"name": "Skogen", "place": "hamlet"}}, {"type": "node", "id": 7477032665, "lat": 58.3260201, "lon": 11.6300212, "tags": {"name": "Stensbacka", "place": "hamlet"}}, {"type": "node", "id": 7477032667, "lat": 58.3319704, "lon": 11.6201594, "tags": {"name": "Bua", "place": "hamlet"}}, {"type": "node", "id": 7477032677, "lat": 58.3400474, "lon": 11.6060868, "tags": {"name": "Ryr", "place": "hamlet"}}, {"type": "node", "id": 7477032678, "lat": 58.363916, "lon": 11.6093344, "tags": {"name": "B\u00f6rs\u00e5s", "place": "hamlet"}}, {"type": "node", "id": 7477032681, "lat": 58.3806596, "lon": 11.634993, "tags": {"name": "Viken", "place": "hamlet"}}, {"type": "node", "id": 7477034980, "lat": 58.2824684, "lon": 11.5980831, "tags": {"name": "V\u00e4stra Stale", "place": "hamlet"}}, {"type": "node", "id": 7477046058, "lat": 58.172978, "lon": 11.7435128, "tags": {"name": "Bel\u00e4ter\u00f6d", "place": "hamlet"}}, {"type": "node", "id": 7477046065, "lat": 58.1738606, "lon": 11.7364482, "tags": {"name": "Svenunger\u00f6d", "place": "hamlet"}}, {"type": "node", "id": 7477046066, "lat": 58.171614, "lon": 11.7095377, "tags": {"name": "Brattorp", "place": "hamlet"}}, {"type": "node", "id": 7477046071, "lat": 58.1782668, "lon": 11.7541306, "tags": {"name": "\u00c5ker", "place": "hamlet"}}, {"type": "node", "id": 7477046075, "lat": 58.1756629, "lon": 11.6937149, "tags": {"name": "Tyfta", "place": "hamlet"}}, {"type": "node", "id": 7477046076, "lat": 58.1748737, "lon": 11.6993346, "tags": {"name": "Trolltorp", "place": "hamlet"}}, {"type": "node", "id": 7477046082, "lat": 58.2208663, "lon": 11.6726435, "tags": {"name": "Granbua", "place": "hamlet"}}, {"type": "node", "id": 7477046083, "lat": 58.2191131, "lon": 11.6544101, "tags": {"name": "Bua", "place": "hamlet"}}, {"type": "node", "id": 7477046084, "lat": 58.2185962, "lon": 11.6835026, "tags": {"name": "Muser\u00f6d", "place": "hamlet"}}, {"type": "node", "id": 7477056471, "lat": 58.3565954, "lon": 11.7578416, "tags": {"name": "Bua", "place": "hamlet"}}, {"type": "node", "id": 7477056472, "lat": 58.3553839, "lon": 11.7490609, "tags": {"name": "\u00c4ngen", "place": "hamlet"}}, {"type": "node", "id": 7477056473, "lat": 58.340081, "lon": 11.7453231, "tags": {"name": "Laneberg", "place": "hamlet"}}, {"type": "node", "id": 7477063342, "lat": 58.1694367, "lon": 11.5998474, "tags": {"name": "H\u00e4lla", "place": "hamlet"}}, {"type": "node", "id": 7477063462, "lat": 58.1759431, "lon": 11.5629162, "tags": {"name": "Stora H\u00e4rbj\u00f6rner\u00f6d", "place": "hamlet"}}, {"type": "node", "id": 7477063468, "lat": 58.2227394, "lon": 11.6407343, "tags": {"name": "Dandalen", "place": "hamlet"}}, {"type": "node", "id": 7477063477, "lat": 58.2286177, "lon": 11.6443333, "tags": {"name": "Lunden", "place": "hamlet"}}, {"type": "node", "id": 7477063478, "lat": 58.2325097, "lon": 11.640861, "tags": {"name": "B\u00f6n", "place": "hamlet"}}, {"type": "node", "id": 7477063479, "lat": 58.2278547, "lon": 11.6366063, "tags": {"name": "Utg\u00e5rd", "place": "hamlet"}}, {"type": "node", "id": 7477063480, "lat": 58.2295379, "lon": 11.6290608, "tags": {"name": "Bj\u00f6rfj\u00e4ll", "place": "hamlet"}}, {"type": "node", "id": 7477063483, "lat": 58.227034, "lon": 11.6217332, "tags": {"name": "Lerskall", "place": "hamlet"}}, {"type": "node", "id": 7477065385, "lat": 58.3020981, "lon": 11.6683491, "tags": {"name": "Ulveviken", "place": "hamlet"}}, {"type": "node", "id": 7477065387, "lat": 58.3236857, "lon": 11.7211074, "tags": {"name": "T\u00e5nga", "place": "hamlet"}}, {"type": "node", "id": 7477065388, "lat": 58.3161377, "lon": 11.6807039, "tags": {"name": "H\u00e4lle", "place": "hamlet"}}, {"type": "node", "id": 7477065389, "lat": 58.3135736, "lon": 11.6738589, "tags": {"name": "K\u00e4rr", "place": "hamlet"}}, {"type": "node", "id": 7477065391, "lat": 58.3169212, "lon": 11.6644847, "tags": {"name": "B\u00e5r\u00f6d", "place": "hamlet"}}, {"type": "node", "id": 7477065394, "lat": 58.3092554, "lon": 11.6060993, "tags": {"name": "Reorser\u00f6d", "place": "hamlet"}}, {"type": "node", "id": 7477065397, "lat": 58.3264243, "lon": 11.6971668, "tags": {"name": "Kristevik", "place": "hamlet"}}, {"type": "node", "id": 7477065398, "lat": 58.3171044, "lon": 11.7034686, "tags": {"name": "\u00c4nghagen", "place": "hamlet"}}, {"type": "node", "id": 7477065399, "lat": 58.3143339, "lon": 11.696775, "tags": {"name": "Sund", "place": "hamlet"}}, {"type": "node", "id": 7477065402, "lat": 58.2514199, "lon": 11.4844975, "tags": {"name": "Evens\u00e5s", "place": "hamlet"}}, {"type": "node", "id": 7477065418, "lat": 58.2523007, "lon": 11.5257602, "tags": {"name": "Fossen", "place": "hamlet"}}, {"type": "node", "id": 7477065430, "lat": 58.2644543, "lon": 11.5377364, "tags": {"name": "\u00d6rtorp", "place": "hamlet"}}, {"type": "node", "id": 7477065433, "lat": 58.3146682, "lon": 11.5651098, "tags": {"name": "Kl\u00e5va", "place": "hamlet"}}, {"type": "node", "id": 7477065436, "lat": 58.3037305, "lon": 11.5746372, "tags": {"name": "R\u00f6d", "place": "hamlet"}}, {"type": "node", "id": 7477065453, "lat": 58.2932303, "lon": 11.6348143, "tags": {"name": "Klev", "place": "hamlet"}}, {"type": "node", "id": 7477065456, "lat": 58.287704, "lon": 11.6062428, "tags": {"name": "K\u00e5ller\u00f6d", "place": "hamlet"}}, {"type": "node", "id": 7477065457, "lat": 58.2985495, "lon": 11.6057928, "tags": {"name": "Eskilsr\u00f6d", "place": "hamlet"}}, {"type": "node", "id": 7477065458, "lat": 58.3018587, "lon": 11.5941473, "tags": {"name": "H\u00f6gstale", "place": "hamlet"}}, {"type": "node", "id": 7477065465, "lat": 58.2773471, "lon": 11.6374221, "tags": {"name": "Orrevik", "place": "hamlet"}}, {"type": "node", "id": 7477065466, "lat": 58.2645544, "lon": 11.6346121, "tags": {"name": "Ulvikarna", "place": "hamlet"}}, {"type": "node", "id": 7477065492, "lat": 58.3510349, "lon": 11.6361513, "tags": {"name": "Gasehogen", "place": "hamlet"}}, {"type": "node", "id": 7477065510, "lat": 58.3747244, "lon": 11.6688948, "tags": {"name": "B\u00f6n", "place": "hamlet"}}, {"type": "node", "id": 7477065515, "lat": 58.3589241, "lon": 11.6462669, "tags": {"name": "Baggetorp", "place": "hamlet"}}, {"type": "node", "id": 7477065520, "lat": 58.3448748, "lon": 11.6777673, "tags": {"name": "Rotvik", "place": "hamlet"}}, {"type": "node", "id": 7477065523, "lat": 58.3853629, "lon": 11.6798953, "tags": {"name": "Pr\u00e4stg\u00e5rden", "place": "hamlet"}}, {"type": "node", "id": 7477065525, "lat": 58.3768748, "lon": 11.6860149, "tags": {"name": "Bro", "place": "hamlet"}}, {"type": "node", "id": 7477065527, "lat": 58.3734646, "lon": 11.7060617, "tags": {"name": "R\u00e5landa", "place": "hamlet"}}, {"type": "node", "id": 7477065529, "lat": 58.3712838, "lon": 11.6849657, "tags": {"name": "Hede", "place": "hamlet"}}, {"type": "node", "id": 7477065531, "lat": 58.359725, "lon": 11.7103869, "tags": {"name": "Gunner\u00f6d", "place": "hamlet"}}, {"type": "node", "id": 7477066385, "lat": 58.3837296, "lon": 11.7344882, "tags": {"name": "Ut\u00e4ng", "place": "hamlet"}}, {"type": "node", "id": 7477066386, "lat": 58.380565, "lon": 11.7214505, "tags": {"name": "Berser\u00f6d", "place": "hamlet"}}, {"type": "node", "id": 7477066393, "lat": 58.3974724, "lon": 11.723937, "tags": {"name": "H\u00e4steryr", "place": "hamlet"}}, {"type": "node", "id": 7477066394, "lat": 58.4141422, "lon": 11.7347206, "tags": {"name": "Mj\u00f6ver\u00f6d", "place": "hamlet"}}, {"type": "node", "id": 7477066396, "lat": 58.4107227, "lon": 11.7476255, "tags": {"name": "Kr\u00e5ker\u00f6d", "place": "hamlet"}}, {"type": "node", "id": 7477066398, "lat": 58.4058546, "lon": 11.7424576, "tags": {"name": "Kals\u00e5s", "place": "hamlet"}}, {"type": "node", "id": 7477066405, "lat": 58.3668091, "lon": 11.7509596, "tags": {"name": "Svenser\u00f6d", "place": "hamlet"}}, {"type": "node", "id": 7477067299, "lat": 58.1905315, "lon": 11.5069845, "tags": {"name": "K\u00e5rehogen", "place": "hamlet"}}, {"type": "node", "id": 7477067301, "lat": 58.1876132, "lon": 11.4956759, "tags": {"name": "B\u00e4cken", "place": "hamlet"}}, {"type": "node", "id": 7477067304, "lat": 58.1821533, "lon": 11.502055, "tags": {"name": "Lunden", "place": "hamlet"}}, {"type": "node", "id": 7477069985, "lat": 58.2288376, "lon": 11.6083029, "tags": {"name": "Bratt\u00e5s", "place": "hamlet"}}, {"type": "node", "id": 7477069991, "lat": 58.1719725, "lon": 11.6086559, "tags": {"name": "Mossen", "place": "hamlet"}}, {"type": "node", "id": 7477069993, "lat": 58.1730914, "lon": 11.59533, "tags": {"name": "Fl\u00e4skum", "place": "hamlet"}}, {"type": "node", "id": 7477069994, "lat": 58.1822868, "lon": 11.5899403, "tags": {"name": "Assletorp", "place": "hamlet"}}, {"type": "node", "id": 7477069997, "lat": 58.1708782, "lon": 11.5727792, "tags": {"name": "Ottersl\u00e4tt", "place": "hamlet"}}, {"type": "node", "id": 7477069998, "lat": 58.1751632, "lon": 11.5496861, "tags": {"name": "Gunner\u00f6d", "place": "hamlet"}}, {"type": "node", "id": 7477069999, "lat": 58.1732982, "lon": 11.5481996, "tags": {"name": "Berg", "place": "hamlet"}}, {"type": "node", "id": 7477070004, "lat": 58.1995714, "lon": 11.5517336, "tags": {"name": "Branddala", "place": "hamlet"}}, {"type": "node", "id": 7477070010, "lat": 58.1915216, "lon": 11.5753008, "tags": {"name": "Gullixer\u00f6d", "place": "hamlet"}}, {"type": "node", "id": 7477070019, "lat": 58.2104576, "lon": 11.6257617, "tags": {"name": "Bastesk\u00e5r", "place": "hamlet"}}, {"type": "node", "id": 7477070020, "lat": 58.1934752, "lon": 11.6273563, "tags": {"name": "Berg", "place": "hamlet"}}, {"type": "node", "id": 7477070021, "lat": 58.2062168, "lon": 11.6220944, "tags": {"name": "Skredser\u00f6d", "place": "hamlet"}}, {"type": "node", "id": 7477070022, "lat": 58.1862123, "lon": 11.6236199, "tags": {"name": "K\u00e4rra", "place": "hamlet"}}, {"type": "node", "id": 7477070027, "lat": 58.2204808, "lon": 11.6101929, "tags": {"name": "Fundesk\u00e4rr", "place": "hamlet"}}, {"type": "node", "id": 7477070031, "lat": 58.2036245, "lon": 11.6060452, "tags": {"name": "Kolbuxer\u00f6d", "place": "hamlet"}}, {"type": "node", "id": 7477070033, "lat": 58.1999323, "lon": 11.600728, "tags": {"name": "R\u00f6d", "place": "hamlet"}}, {"type": "node", "id": 7477071285, "lat": 58.2393287, "lon": 11.7240741, "tags": {"name": "\u00d6dsm\u00e5l", "place": "hamlet"}}, {"type": "node", "id": 7477071289, "lat": 58.2284408, "lon": 11.7085849, "tags": {"name": "Sl\u00e4tthult", "place": "hamlet"}}, {"type": "node", "id": 7477071290, "lat": 58.2265843, "lon": 11.7003912, "tags": {"name": "Bro", "place": "hamlet"}}, {"type": "node", "id": 7477071294, "lat": 58.2385322, "lon": 11.6518131, "tags": {"name": "Kullen", "place": "hamlet"}}, {"type": "node", "id": 7477071295, "lat": 58.2502596, "lon": 11.7543843, "tags": {"name": "Kleva", "place": "hamlet"}}, {"type": "node", "id": 7477071296, "lat": 58.24125, "lon": 11.7538957, "tags": {"name": "Assmunder\u00f6d", "place": "hamlet"}}, {"type": "node", "id": 7477071297, "lat": 58.2304539, "lon": 11.7505805, "tags": {"name": "Anden\u00e4s", "place": "hamlet"}}, {"type": "node", "id": 7477071299, "lat": 58.2532798, "lon": 11.7413371, "tags": {"name": "Nedre \u00d6dsm\u00e5l", "place": "hamlet"}}, {"type": "node", "id": 7477071300, "lat": 58.2425612, "lon": 11.7386906, "tags": {"name": "Blibr\u00e4cka", "place": "hamlet"}}, {"type": "node", "id": 7477071304, "lat": 58.2457707, "lon": 11.6512324, "tags": {"name": "Snarevik", "place": "hamlet"}}, {"type": "node", "id": 7477071308, "lat": 58.277243, "lon": 11.7548578, "tags": {"name": "H\u00f6gger\u00f6d", "place": "hamlet"}}, {"type": "node", "id": 7477071311, "lat": 58.2671627, "lon": 11.7515269, "tags": {"name": "Kockhed", "place": "hamlet"}}, {"type": "node", "id": 7477071314, "lat": 58.2601927, "lon": 11.7332836, "tags": {"name": "Str\u00f6m", "place": "hamlet"}}, {"type": "node", "id": 7477071316, "lat": 58.2588103, "lon": 11.7256346, "tags": {"name": "Varfj\u00e4ll", "place": "hamlet"}}, {"type": "node", "id": 7477071317, "lat": 58.258034, "lon": 11.7297137, "tags": {"name": "Heden", "place": "hamlet"}}, {"type": "node", "id": 7477071319, "lat": 58.2655516, "lon": 11.7177256, "tags": {"name": "G\u00e4ddebr\u00e4cka", "place": "hamlet"}}, {"type": "node", "id": 7477071330, "lat": 58.2920413, "lon": 11.710649, "tags": {"name": "Katrineberg", "place": "hamlet"}}, {"type": "node", "id": 7477071334, "lat": 58.2937282, "lon": 11.7262824, "tags": {"name": "Skoghagen", "place": "hamlet"}}, {"type": "node", "id": 7477071335, "lat": 58.2920611, "lon": 11.7240126, "tags": {"name": "Keset", "place": "hamlet"}}, {"type": "node", "id": 7477073185, "lat": 58.2143035, "lon": 11.6547267, "tags": {"name": "Myren", "place": "hamlet"}}, {"type": "node", "id": 7477073189, "lat": 58.1994386, "lon": 11.6802675, "tags": {"name": "Uteg\u00e5rd", "place": "hamlet"}}, {"type": "node", "id": 7477073191, "lat": 58.1935349, "lon": 11.6545359, "tags": {"name": "R\u00e4mmedalen", "place": "hamlet"}}, {"type": "node", "id": 7477073195, "lat": 58.220404, "lon": 11.7050537, "tags": {"name": "Naddebacken", "place": "hamlet"}}, {"type": "node", "id": 7477073201, "lat": 58.2130792, "lon": 11.723582, "tags": {"name": "\u00d6nne", "place": "hamlet"}}, {"type": "node", "id": 7477073204, "lat": 58.2058056, "lon": 11.6848835, "tags": {"name": "H\u00e4r\u00f6d", "place": "hamlet"}}, {"type": "node", "id": 7477073209, "lat": 58.1972271, "lon": 11.6993026, "tags": {"name": "H\u00e4stl\u00e4gg", "place": "hamlet"}}, {"type": "node", "id": 7477073210, "lat": 58.1970732, "lon": 11.7203713, "tags": {"name": "G\u00e4ddestala", "place": "hamlet"}}, {"type": "node", "id": 7477073211, "lat": 58.1915799, "lon": 11.7162197, "tags": {"name": "Edsberg", "place": "hamlet"}}, {"type": "node", "id": 7477073212, "lat": 58.1902177, "lon": 11.7031871, "tags": {"name": "Kalser\u00f6d", "place": "hamlet"}}, {"type": "node", "id": 7477073218, "lat": 58.2019045, "lon": 11.7537061, "tags": {"name": "Kroger\u00f6d", "place": "hamlet"}}, {"type": "node", "id": 7477073219, "lat": 58.1997801, "lon": 11.7446233, "tags": {"name": "Hogen", "place": "hamlet"}}, {"type": "node", "id": 7477073220, "lat": 58.1930956, "lon": 11.7505304, "tags": {"name": "Bj\u00f6rner\u00f6d", "place": "hamlet"}}, {"type": "node", "id": 7477073221, "lat": 58.1925829, "lon": 11.732926, "tags": {"name": "Narver\u00f6d", "place": "hamlet"}}, {"type": "node", "id": 7483104581, "lat": 58.5266238, "lon": 11.4731636, "tags": {"name": "Stora Hedum", "place": "hamlet"}}, {"type": "node", "id": 7483128716, "lat": 58.5065358, "lon": 11.6220585, "tags": {"name": "Solberg", "place": "hamlet"}}, {"type": "node", "id": 7483136609, "lat": 58.4896003, "lon": 11.699065, "tags": {"name": "Nedre Lycke", "place": "hamlet"}}, {"type": "node", "id": 7483137676, "lat": 58.4551044, "lon": 11.5476487, "tags": {"name": "L\u00e5ngeland", "place": "hamlet"}}, {"type": "node", "id": 7483145841, "lat": 58.5187485, "lon": 11.4610652, "tags": {"name": "Bottnelycke", "place": "hamlet"}}, {"type": "node", "id": 7483150275, "lat": 58.5230556, "lon": 11.6236257, "tags": {"name": "Norra Harska", "place": "hamlet"}}, {"type": "node", "id": 7483157488, "lat": 58.6018695, "lon": 11.5564752, "tags": {"name": "\u00d6stra Asp\u00e5ng", "place": "hamlet"}}, {"type": "node", "id": 7483159998, "lat": 58.5173256, "lon": 11.6284454, "tags": {"name": "S\u00f6dra Harska", "place": "hamlet"}}, {"type": "node", "id": 7483165167, "lat": 58.4649202, "lon": 11.6337917, "tags": {"name": "Stora R\u00f6storp", "place": "hamlet"}}, {"type": "node", "id": 7483173428, "lat": 58.4382402, "lon": 11.5573065, "tags": {"name": "H\u00e4ller", "place": "hamlet"}}, {"type": "node", "id": 7483177007, "lat": 58.4246277, "lon": 11.7215499, "tags": {"name": "Sm\u00e5r\u00f6d", "place": "hamlet"}}, {"type": "node", "id": 7483186146, "lat": 58.4752079, "lon": 11.6210051, "tags": {"name": "\u00d6xna", "place": "hamlet"}}, {"type": "node", "id": 7483198127, "lat": 58.4156331, "lon": 11.6646088, "tags": {"name": "Studser\u00f6d", "place": "hamlet"}}, {"type": "node", "id": 7483216454, "lat": 58.4304175, "lon": 11.6042009, "tags": {"name": "R\u00f6d", "place": "hamlet"}}, {"type": "node", "id": 7483218335, "lat": 58.4584238, "lon": 11.5755543, "tags": {"name": "Tegen", "place": "hamlet"}}, {"type": "node", "id": 7483221308, "lat": 58.4715603, "lon": 11.6474604, "tags": {"name": "Kampstorp", "place": "hamlet"}}, {"type": "node", "id": 7483232372, "lat": 58.4628614, "lon": 11.6989869, "tags": {"name": "Kleva", "place": "hamlet"}}, {"type": "node", "id": 7483257806, "lat": 58.3741521, "lon": 12.2786949, "tags": {"name": "Botered", "place": "hamlet"}}, {"type": "node", "id": 7483281563, "lat": 58.2054807, "lon": 12.1225632, "tags": {"name": "\u00d6stra Torp", "place": "hamlet"}}, {"type": "node", "id": 7483281631, "lat": 58.3338744, "lon": 12.1595767, "tags": {"name": "Stora Skuleboda", "place": "hamlet"}}, {"type": "node", "id": 7483282069, "lat": 58.185215, "lon": 11.8411197, "tags": {"name": "H\u00e5leb\u00e4cken", "place": "hamlet"}}, {"type": "node", "id": 7483289062, "lat": 58.2487769, "lon": 12.282023, "tags": {"name": "Stora Alings\u00e5ker", "place": "hamlet"}}, {"type": "node", "id": 7483293691, "lat": 58.2695723, "lon": 12.1033962, "tags": {"name": "Norra Hagen", "place": "hamlet"}}, {"type": "node", "id": 7483297124, "lat": 58.4334554, "lon": 11.4889765, "tags": {"name": "Sk\u00e5dene", "place": "hamlet"}}, {"type": "node", "id": 7483307000, "lat": 58.3199563, "lon": 12.0493305, "tags": {"name": "S\u00f6dra Listaskogen", "place": "hamlet"}}, {"type": "node", "id": 7483308439, "lat": 58.1808473, "lon": 11.8626263, "tags": {"name": "S\u00f6dra Korsviken", "place": "hamlet"}}, {"type": "node", "id": 7483308884, "lat": 58.3371413, "lon": 12.1635659, "tags": {"name": "Lilla Skuleboda", "place": "hamlet"}}, {"type": "node", "id": 7483312773, "lat": 58.5134618, "lon": 11.5049445, "tags": {"name": "\u00c5seby", "place": "hamlet"}}, {"type": "node", "id": 7483313455, "lat": 58.3329661, "lon": 12.2093351, "tags": {"name": "Lilla Alm\u00e5s", "place": "hamlet"}}, {"type": "node", "id": 7483313669, "lat": 58.2648602, "lon": 12.1621209, "tags": {"name": "Stora N\u00e4set", "place": "hamlet"}}, {"type": "node", "id": 7483323294, "lat": 58.4695372, "lon": 11.4906082, "tags": {"name": "Bratt\u00f6n", "place": "hamlet"}}, {"type": "node", "id": 7483324407, "lat": 58.2875995, "lon": 11.9326927, "tags": {"name": "Stora Garn", "place": "hamlet"}}, {"type": "node", "id": 7483330985, "lat": 58.2322499, "lon": 11.7676006, "tags": {"name": "Stora Krossek\u00e4rr", "place": "hamlet"}}, {"type": "node", "id": 7483347910, "lat": 58.5512742, "lon": 11.4555001, "tags": {"name": "Bodeland", "place": "hamlet"}}, {"type": "node", "id": 7483363481, "lat": 58.598192, "lon": 11.4507772, "tags": {"name": "Nyg\u00e5rd", "place": "hamlet"}}, {"type": "node", "id": 7483363551, "lat": 58.4923576, "lon": 11.4898747, "tags": {"name": "Sk\u00f6rbo", "place": "hamlet"}}, {"type": "node", "id": 7483369761, "lat": 58.4781276, "lon": 11.4659951, "tags": {"name": "\u00d6stebo", "place": "hamlet"}}, {"type": "node", "id": 7483375712, "lat": 58.5076038, "lon": 11.4877455, "tags": {"name": "Orreberg", "place": "hamlet"}}, {"type": "node", "id": 7483377831, "lat": 58.5539947, "lon": 11.5531872, "tags": {"name": "Pr\u00e4stg\u00e5rd", "place": "hamlet"}}, {"type": "node", "id": 7483382458, "lat": 58.5018843, "lon": 11.4944013, "tags": {"name": "L\u00e5ssby", "place": "hamlet"}}, {"type": "node", "id": 7483385395, "lat": 58.5053215, "lon": 11.4800947, "tags": {"name": "Holma", "place": "hamlet"}}, {"type": "node", "id": 7483388345, "lat": 58.5129031, "lon": 11.4857948, "tags": {"name": "H\u00e4sthagen", "place": "hamlet"}}, {"type": "node", "id": 7483389460, "lat": 58.5219111, "lon": 11.4937245, "tags": {"name": "M\u00e4ller\u00f6d", "place": "hamlet"}}, {"type": "node", "id": 7483391479, "lat": 58.4866849, "lon": 11.546908, "tags": {"name": "Fossebacka", "place": "hamlet"}}, {"type": "node", "id": 7483391805, "lat": 58.520487, "lon": 11.5030051, "tags": {"name": "Berg", "place": "hamlet"}}, {"type": "node", "id": 7483396782, "lat": 58.5057487, "lon": 11.5745312, "tags": {"name": "Ler\u00e5ker", "place": "hamlet"}}, {"type": "node", "id": 7483402508, "lat": 58.5116879, "lon": 11.5717531, "tags": {"name": "\u00d6steby", "place": "hamlet"}}, {"type": "node", "id": 7483407092, "lat": 58.5168701, "lon": 11.5434497, "tags": {"name": "Rom", "place": "hamlet"}}, {"type": "node", "id": 7483409273, "lat": 58.5141665, "lon": 11.5202838, "tags": {"name": "R\u00e5r\u00f6d", "place": "hamlet"}}, {"type": "node", "id": 7483414175, "lat": 58.5529691, "lon": 11.5427929, "tags": {"name": "Berg", "place": "hamlet"}}, {"type": "node", "id": 7483415874, "lat": 58.5311633, "lon": 11.5481774, "tags": {"name": "Stockebro", "place": "hamlet"}}, {"type": "node", "id": 7483416261, "lat": 58.5474694, "lon": 11.5431168, "tags": {"name": "Drommelser\u00f6d", "place": "hamlet"}}, {"type": "node", "id": 7483417579, "lat": 58.4811905, "lon": 11.6636572, "tags": {"name": "Hoga", "place": "hamlet"}}, {"type": "node", "id": 7483423553, "lat": 58.4884356, "lon": 11.566386, "tags": {"name": "\u00d6nne", "place": "hamlet"}}, {"type": "node", "id": 7483423554, "lat": 58.5225835, "lon": 11.5563583, "tags": {"name": "B\u00e4rby", "place": "hamlet"}}, {"type": "node", "id": 7483428886, "lat": 58.5585584, "lon": 11.5484043, "tags": {"name": "Sk\u00e4rvhem", "place": "hamlet"}}, {"type": "node", "id": 7483428909, "lat": 58.5692112, "lon": 11.5564911, "tags": {"name": "K\u00f6pestad", "place": "hamlet"}}, {"type": "node", "id": 7483428999, "lat": 58.5192283, "lon": 11.5834905, "tags": {"name": "L\u00e5gum", "place": "hamlet"}}, {"type": "node", "id": 7483436904, "lat": 58.4857928, "lon": 11.672604, "tags": {"name": "Br\u00e5land", "place": "hamlet"}}, {"type": "node", "id": 7483439853, "lat": 58.5691938, "lon": 11.549284, "tags": {"name": "Bl\u00e5sopp", "place": "hamlet"}}, {"type": "node", "id": 7483446751, "lat": 58.5168236, "lon": 11.5574386, "tags": {"name": "Folkesberg", "place": "hamlet"}}, {"type": "node", "id": 7483447017, "lat": 58.4860309, "lon": 11.6584371, "tags": {"name": "\u00d6bb\u00f6n", "place": "hamlet"}}, {"type": "node", "id": 7483454137, "lat": 58.4957671, "lon": 11.6259982, "tags": {"name": "Sk\u00e5ttene", "place": "hamlet"}}, {"type": "node", "id": 7483454250, "lat": 58.6066891, "lon": 11.6769105, "tags": {"name": "Orredalen", "place": "hamlet"}}, {"type": "node", "id": 7483461878, "lat": 58.5542501, "lon": 11.6349044, "tags": {"name": "Julser\u00f6d", "place": "hamlet"}}, {"type": "node", "id": 7483465127, "lat": 58.4876348, "lon": 11.6208788, "tags": {"name": "Lycke", "place": "hamlet"}}, {"type": "node", "id": 7483468600, "lat": 58.4966792, "lon": 11.6369863, "tags": {"name": "Sk\u00e5dene", "place": "hamlet"}}, {"type": "node", "id": 7483470834, "lat": 58.5468467, "lon": 11.6775164, "tags": {"name": "Stan", "place": "hamlet"}}, {"type": "node", "id": 7483475449, "lat": 58.5394184, "lon": 11.6459195, "tags": {"name": "H\u00e4llungsbacka", "place": "hamlet"}}, {"type": "node", "id": 7483475805, "lat": 58.5092543, "lon": 11.6404536, "tags": {"name": "Lerberg", "place": "hamlet"}}, {"type": "node", "id": 7483477174, "lat": 58.592986, "lon": 11.642361, "tags": {"name": "Hult", "place": "hamlet"}}, {"type": "node", "id": 7483481231, "lat": 58.5580825, "lon": 11.6309769, "tags": {"name": "Kyrkoryr", "place": "hamlet"}}, {"type": "node", "id": 7483488560, "lat": 58.5789036, "lon": 11.6818946, "tags": {"name": "Hermansr\u00f6d", "place": "hamlet"}}, {"type": "node", "id": 7483491456, "lat": 58.5891009, "lon": 11.6495282, "tags": {"name": "B\u00f6n", "place": "hamlet"}}, {"type": "node", "id": 7483492218, "lat": 58.6020747, "lon": 11.7014619, "tags": {"name": "Skogen", "place": "hamlet"}}, {"type": "node", "id": 7483495652, "lat": 58.5059735, "lon": 11.6992606, "tags": {"name": "Skaver\u00f6d", "place": "hamlet"}}, {"type": "node", "id": 7483497492, "lat": 58.53231, "lon": 11.7074054, "tags": {"name": "St\u00e4rkestad", "place": "hamlet"}}, {"type": "node", "id": 7483497654, "lat": 58.6032941, "lon": 11.6480167, "tags": {"name": "P\u00e5stigen", "place": "hamlet"}}, {"type": "node", "id": 7483501522, "lat": 58.547638, "lon": 11.7059763, "tags": {"name": "\u00c5boland", "place": "hamlet"}}, {"type": "node", "id": 7483501792, "lat": 58.5067534, "lon": 11.6075975, "tags": {"name": "B\u00e4ckevall", "place": "hamlet"}}, {"type": "node", "id": 7483503219, "lat": 58.5271101, "lon": 11.7096629, "tags": {"name": "Nyr\u00f6d", "place": "hamlet"}}, {"type": "node", "id": 7483505408, "lat": 58.5662371, "lon": 11.6859829, "tags": {"name": "\u00c5sen", "place": "hamlet"}}, {"type": "node", "id": 7483506289, "lat": 58.5366517, "lon": 11.6861138, "tags": {"name": "Barhult", "place": "hamlet"}}, {"type": "node", "id": 7483506725, "lat": 58.5869481, "lon": 11.6556938, "tags": {"name": "Grin\u00e5s", "place": "hamlet"}}, {"type": "node", "id": 7483506726, "lat": 58.5842037, "lon": 11.6501017, "tags": {"name": "\u00d6vre Haga", "place": "hamlet"}}, {"type": "node", "id": 7483509923, "lat": 58.5089526, "lon": 11.7597519, "tags": {"name": "\u00d6dsm\u00e5l", "place": "hamlet"}}, {"type": "node", "id": 7483521927, "lat": 58.5838901, "lon": 11.7048895, "tags": {"name": "Ryr", "place": "hamlet"}}, {"type": "node", "id": 7483522104, "lat": 58.5703939, "lon": 11.6899599, "tags": {"name": "B\u00f6n", "place": "hamlet"}}, {"type": "node", "id": 7483522450, "lat": 58.4954004, "lon": 11.7117745, "tags": {"name": "Bj\u00f6rid", "place": "hamlet"}}, {"type": "node", "id": 7483526414, "lat": 58.4887992, "lon": 11.7144428, "tags": {"name": "Sk\u00e4ller\u00f6d", "place": "hamlet"}}, {"type": "node", "id": 7483533779, "lat": 58.5920205, "lon": 11.7445383, "tags": {"name": "Kopparhult", "place": "hamlet"}}, {"type": "node", "id": 7483535068, "lat": 58.574101, "lon": 11.733281, "tags": {"name": "Gunnarsr\u00f6d", "place": "hamlet"}}, {"type": "node", "id": 7483535085, "lat": 58.51113, "lon": 11.7300706, "tags": {"name": "J\u00e4rmunder\u00f6d", "place": "hamlet"}}, {"type": "node", "id": 7483538262, "lat": 58.5938362, "lon": 11.7577459, "tags": {"name": "Ut\u00e4ng", "place": "hamlet"}}, {"type": "node", "id": 7483545291, "lat": 58.5659084, "lon": 11.7348699, "tags": {"name": "S\u00f6bbhult", "place": "hamlet"}}, {"type": "node", "id": 7483546886, "lat": 58.5676515, "lon": 11.7116958, "tags": {"name": "Hult", "place": "hamlet"}}, {"type": "node", "id": 7483563073, "lat": 58.500868, "lon": 11.7605942, "tags": {"name": "\u00d6vre Lycke", "place": "hamlet"}}, {"type": "node", "id": 7483824228, "lat": 58.5269148, "lon": 12.2055322, "tags": {"name": "V\u00e4stra R\u00f6landa", "place": "hamlet"}}, {"type": "node", "id": 7483853042, "lat": 58.4502782, "lon": 12.1386223, "tags": {"name": "S\u00f6dra Bin\u00e4s", "place": "hamlet"}}, {"type": "node", "id": 7483885963, "lat": 58.5160302, "lon": 12.1840543, "tags": {"name": "V\u00e4stra Stenshult", "place": "hamlet"}}, {"type": "node", "id": 7483902134, "lat": 58.6134498, "lon": 12.2345338, "tags": {"name": "V\u00e4stra Bleken", "place": "hamlet"}}, {"type": "node", "id": 7483908986, "lat": 58.4696689, "lon": 12.1133061, "tags": {"name": "Stora Kopperud", "place": "hamlet"}}, {"type": "node", "id": 7483929083, "lat": 58.5323129, "lon": 12.1766654, "tags": {"name": "S\u00f6dra Fagerskog", "place": "hamlet"}}, {"type": "node", "id": 7483956335, "lat": 58.5256348, "lon": 12.2132109, "tags": {"name": "\u00d6stra R\u00f6landa", "place": "hamlet"}}, {"type": "node", "id": 7483976226, "lat": 58.4582014, "lon": 12.1344799, "tags": {"name": "Norra Bin\u00e4s", "place": "hamlet"}}, {"type": "node", "id": 7483991367, "lat": 58.5225823, "lon": 12.1261527, "tags": {"name": "V\u00e4stra Bodane", "place": "hamlet"}}, {"type": "node", "id": 7483991608, "lat": 58.5714606, "lon": 11.9184254, "tags": {"name": "S\u00f6dra H\u00f6gs\u00e4ter", "place": "hamlet"}}, {"type": "node", "id": 7484005496, "lat": 58.5090935, "lon": 12.2127165, "tags": {"name": "\u00d6stra Stenshult", "place": "hamlet"}}, {"type": "node", "id": 7484006262, "lat": 58.4413358, "lon": 12.218579, "tags": {"name": "Takan", "place": "hamlet"}}, {"type": "node", "id": 7484020582, "lat": 58.4239375, "lon": 12.2343236, "tags": {"name": "\u00c4lmerud", "place": "hamlet"}}, {"type": "node", "id": 7484023543, "lat": 58.4180903, "lon": 12.0499775, "tags": {"name": "Ekesk\u00e4r", "place": "hamlet"}}, {"type": "node", "id": 7484023544, "lat": 58.4150543, "lon": 12.0625628, "tags": {"name": "Lanner\u00f6d", "place": "hamlet"}}, {"type": "node", "id": 7484025263, "lat": 58.4356315, "lon": 12.2240502, "tags": {"name": "Brasmerud", "place": "hamlet"}}, {"type": "node", "id": 7484025273, "lat": 58.425494, "lon": 12.1808063, "tags": {"name": "Ris\u00f6", "place": "hamlet"}}, {"type": "node", "id": 7484026161, "lat": 58.4312583, "lon": 12.2866908, "tags": {"name": "Finneg\u00e5rden", "place": "hamlet"}}, {"type": "node", "id": 7484026370, "lat": 58.4206859, "lon": 12.03359, "tags": {"name": "Kasebuane", "place": "hamlet"}}, {"type": "node", "id": 7484030266, "lat": 58.4303279, "lon": 12.2289744, "tags": {"name": "L\u00f6vbr\u00e5ten", "place": "hamlet"}}, {"type": "node", "id": 7484032660, "lat": 58.4222411, "lon": 12.240264, "tags": {"name": "Hagarna", "place": "hamlet"}}, {"type": "node", "id": 7484049516, "lat": 58.4356061, "lon": 12.1924034, "tags": {"name": "Dern\u00e4s", "place": "hamlet"}}, {"type": "node", "id": 7484061092, "lat": 58.4195677, "lon": 12.2019359, "tags": {"name": "L\u00e5ngebo", "place": "hamlet"}}, {"type": "node", "id": 7484075745, "lat": 58.4180672, "lon": 12.1787462, "tags": {"name": "Knuts\u00f6n", "place": "hamlet"}}, {"type": "node", "id": 7484082214, "lat": 58.4420272, "lon": 12.2590398, "tags": {"name": "Dissingtakan", "place": "hamlet"}}, {"type": "node", "id": 7484085199, "lat": 58.4152096, "lon": 12.2471506, "tags": {"name": "Snappstakan", "place": "hamlet"}}, {"type": "node", "id": 7484090057, "lat": 58.4244973, "lon": 12.14755, "tags": {"name": "Bj\u00f6rsundet", "place": "hamlet"}}, {"type": "node", "id": 7484093732, "lat": 58.4221103, "lon": 12.1203874, "tags": {"name": "Torsbo", "place": "hamlet"}}, {"type": "node", "id": 7484106744, "lat": 58.4447696, "lon": 12.1090221, "tags": {"name": "Tromb\u00e4lgen", "place": "hamlet"}}, {"type": "node", "id": 7484114833, "lat": 58.4541143, "lon": 12.1121637, "tags": {"name": "Bruket", "place": "hamlet"}}, {"type": "node", "id": 7484124542, "lat": 58.4650579, "lon": 12.1368887, "tags": {"name": "R\u00f6sebo", "place": "hamlet"}}, {"type": "node", "id": 7484125791, "lat": 58.4360379, "lon": 12.0905117, "tags": {"name": "Sj\u00f6rbo", "place": "hamlet"}}, {"type": "node", "id": 7484138441, "lat": 58.4367271, "lon": 12.0160368, "tags": {"name": "\u00c4ngen", "place": "hamlet"}}, {"type": "node", "id": 7484140025, "lat": 58.4298705, "lon": 12.1030822, "tags": {"name": "N\u00e4set", "place": "hamlet"}}, {"type": "node", "id": 7484140450, "lat": 58.4292041, "lon": 12.0824401, "tags": {"name": "Linnebacken", "place": "hamlet"}}, {"type": "node", "id": 7484144109, "lat": 58.4532508, "lon": 12.2106953, "tags": {"name": "Gunnarsberg", "place": "hamlet"}}, {"type": "node", "id": 7484148154, "lat": 58.4562452, "lon": 12.1620898, "tags": {"name": "H\u00e4stefjord", "place": "hamlet"}}, {"type": "node", "id": 7484150445, "lat": 58.4303346, "lon": 12.1421606, "tags": {"name": "Roten\u00e4s", "place": "hamlet"}}, {"type": "node", "id": 7484155255, "lat": 58.4579108, "lon": 12.1838177, "tags": {"name": "Nyg\u00e5rd", "place": "hamlet"}}, {"type": "node", "id": 7484156806, "lat": 58.461695, "lon": 12.15335, "tags": {"name": "\u00d6n\u00e4ng", "place": "hamlet"}}, {"type": "node", "id": 7484167455, "lat": 58.4649031, "lon": 12.2408809, "tags": {"name": "G\u00e5seviken", "place": "hamlet"}}, {"type": "node", "id": 7484171454, "lat": 58.1774506, "lon": 11.7676458, "tags": {"name": "Kollunger\u00f6d", "place": "hamlet"}}, {"type": "node", "id": 7484172702, "lat": 58.4623239, "lon": 12.2631012, "tags": {"name": "R\u00f6shult", "place": "hamlet"}}, {"type": "node", "id": 7484181238, "lat": 58.4308862, "lon": 12.0668924, "tags": {"name": "Finnsbo", "place": "hamlet"}}, {"type": "node", "id": 7484190786, "lat": 58.4636674, "lon": 12.2482146, "tags": {"name": "L\u00f6nnhult", "place": "hamlet"}}, {"type": "node", "id": 7484194505, "lat": 58.4520329, "lon": 12.2278836, "tags": {"name": "Svagerud", "place": "hamlet"}}, {"type": "node", "id": 7484201009, "lat": 58.4588485, "lon": 12.232748, "tags": {"name": "Br\u00e5tekollserud", "place": "hamlet"}}, {"type": "node", "id": 7484201557, "lat": 58.4508336, "lon": 12.2364296, "tags": {"name": "Mossen", "place": "hamlet"}}, {"type": "node", "id": 7484203929, "lat": 58.4690139, "lon": 12.2335608, "tags": {"name": "\u00d6ster\u00e4ng", "place": "hamlet"}}, {"type": "node", "id": 7484206173, "lat": 58.177956, "lon": 11.824011, "tags": {"name": "Angrimser\u00f6d", "place": "hamlet"}}, {"type": "node", "id": 7484208460, "lat": 58.5104178, "lon": 12.1512757, "tags": {"name": "Svennungstakan", "place": "hamlet"}}, {"type": "node", "id": 7484209466, "lat": 58.1916845, "lon": 11.8000917, "tags": {"name": "Gunner\u00f6d", "place": "hamlet"}}, {"type": "node", "id": 7484211997, "lat": 58.2003316, "lon": 11.8273321, "tags": {"name": "K\u00e5r\u00f6d", "place": "hamlet"}}, {"type": "node", "id": 7484221750, "lat": 58.5072325, "lon": 12.1721905, "tags": {"name": "Bleksl\u00e4tten", "place": "hamlet"}}, {"type": "node", "id": 7484226927, "lat": 58.4799758, "lon": 12.1562802, "tags": {"name": "Sundsholm", "place": "hamlet"}}, {"type": "node", "id": 7484232987, "lat": 58.4961977, "lon": 12.1840461, "tags": {"name": "Skogen", "place": "hamlet"}}, {"type": "node", "id": 7484238853, "lat": 58.4956675, "lon": 12.1636799, "tags": {"name": "Grunsbo", "place": "hamlet"}}, {"type": "node", "id": 7484238963, "lat": 58.4872503, "lon": 12.1366955, "tags": {"name": "Skarbo", "place": "hamlet"}}, {"type": "node", "id": 7484251951, "lat": 58.2189959, "lon": 11.7862159, "tags": {"name": "Bogane", "place": "hamlet"}}, {"type": "node", "id": 7484254172, "lat": 58.2140971, "lon": 11.7639539, "tags": {"name": "Ottestala", "place": "hamlet"}}, {"type": "node", "id": 7484256617, "lat": 58.2056229, "lon": 11.7837982, "tags": {"name": "Berg", "place": "hamlet"}}, {"type": "node", "id": 7484258676, "lat": 58.4690768, "lon": 12.1816035, "tags": {"name": "Holmen", "place": "hamlet"}}, {"type": "node", "id": 7484262811, "lat": 58.4729754, "lon": 12.1550624, "tags": {"name": "\u00d6na", "place": "hamlet"}}, {"type": "node", "id": 7484265446, "lat": 58.5031397, "lon": 12.213054, "tags": {"name": "H\u00f6gen", "place": "hamlet"}}, {"type": "node", "id": 7484265815, "lat": 58.220657, "lon": 11.8264031, "tags": {"name": "\u00d6berg", "place": "hamlet"}}, {"type": "node", "id": 7484270329, "lat": 58.4937523, "lon": 12.2024704, "tags": {"name": "Flicks\u00e4ter", "place": "hamlet"}}, {"type": "node", "id": 7484274444, "lat": 58.4873329, "lon": 12.1928907, "tags": {"name": "\u00c5rberg", "place": "hamlet"}}, {"type": "node", "id": 7484277608, "lat": 58.2075883, "lon": 11.8180451, "tags": {"name": "Allmag", "place": "hamlet"}}, {"type": "node", "id": 7484286001, "lat": 58.4759748, "lon": 12.1896114, "tags": {"name": "Rammholmen", "place": "hamlet"}}, {"type": "node", "id": 7484286566, "lat": 58.4855905, "lon": 12.1139549, "tags": {"name": "Tj\u00e4rtakan", "place": "hamlet"}}, {"type": "node", "id": 7484290759, "lat": 58.2038386, "lon": 11.7954164, "tags": {"name": "H\u00e4llene", "place": "hamlet"}}, {"type": "node", "id": 7484296791, "lat": 58.2681646, "lon": 11.9243913, "tags": {"name": "H\u00e4ljer\u00f6d", "place": "hamlet"}}, {"type": "node", "id": 7484300352, "lat": 58.4788728, "lon": 12.2112201, "tags": {"name": "L\u00f6vn\u00e4s", "place": "hamlet"}}, {"type": "node", "id": 7484310064, "lat": 58.252679, "lon": 11.9061267, "tags": {"name": "H\u00f6gger\u00f6d", "place": "hamlet"}}, {"type": "node", "id": 7484310637, "lat": 58.4801829, "lon": 12.2674768, "tags": {"name": "Dyk\u00e4lla", "place": "hamlet"}}, {"type": "node", "id": 7484318237, "lat": 58.4728942, "lon": 12.2539768, "tags": {"name": "Selringen", "place": "hamlet"}}, {"type": "node", "id": 7484318603, "lat": 58.2581679, "lon": 11.904199, "tags": {"name": "Stinner\u00f6d", "place": "hamlet"}}, {"type": "node", "id": 7484323062, "lat": 58.2548583, "lon": 11.8900287, "tags": {"name": "Ryr", "place": "hamlet"}}, {"type": "node", "id": 7484327157, "lat": 58.2504117, "lon": 11.8964365, "tags": {"name": "Lunden", "place": "hamlet"}}, {"type": "node", "id": 7484327596, "lat": 58.2630646, "lon": 11.9026461, "tags": {"name": "V\u00e4geryr", "place": "hamlet"}}, {"type": "node", "id": 7484334396, "lat": 58.2319435, "lon": 11.9049853, "tags": {"name": "Berg", "place": "hamlet"}}, {"type": "node", "id": 7484339733, "lat": 58.4914878, "lon": 12.2536238, "tags": {"name": "Torp", "place": "hamlet"}}, {"type": "node", "id": 7484341067, "lat": 58.4899492, "lon": 12.2368053, "tags": {"name": "Br\u00e4nneberg", "place": "hamlet"}}, {"type": "node", "id": 7484342490, "lat": 58.4795286, "lon": 12.2532538, "tags": {"name": "Kullarna", "place": "hamlet"}}, {"type": "node", "id": 7484343599, "lat": 58.2482797, "lon": 11.8050713, "tags": {"name": "Krogane", "place": "hamlet"}}, {"type": "node", "id": 7484347286, "lat": 58.2533627, "lon": 11.7900257, "tags": {"name": "Skala", "place": "hamlet"}}, {"type": "node", "id": 7484356493, "lat": 58.2416992, "lon": 11.7936843, "tags": {"name": "Hogen", "place": "hamlet"}}, {"type": "node", "id": 7484356746, "lat": 58.4927537, "lon": 11.8186954, "tags": {"name": "Backa", "place": "hamlet"}}, {"type": "node", "id": 7484358438, "lat": 58.2441588, "lon": 11.8025517, "tags": {"name": "Lunna", "place": "hamlet"}}, {"type": "node", "id": 7484362508, "lat": 58.2413811, "lon": 11.8043354, "tags": {"name": "Hede", "place": "hamlet"}}, {"type": "node", "id": 7484367647, "lat": 58.4932977, "lon": 11.8081743, "tags": {"name": "Ryr", "place": "hamlet"}}, {"type": "node", "id": 7484371638, "lat": 58.2404215, "lon": 11.8246021, "tags": {"name": "Sylten\u00e4s", "place": "hamlet"}}, {"type": "node", "id": 7484372823, "lat": 58.2536821, "lon": 11.8607035, "tags": {"name": "Strand", "place": "hamlet"}}, {"type": "node", "id": 7484386950, "lat": 58.2288881, "lon": 11.8335388, "tags": {"name": "K\u00e4rr", "place": "hamlet"}}, {"type": "node", "id": 7484387695, "lat": 58.4605056, "lon": 11.9432552, "tags": {"name": "Tolbo", "place": "hamlet"}}, {"type": "node", "id": 7484394784, "lat": 58.2369599, "lon": 11.8317795, "tags": {"name": "Buven\u00e4s", "place": "hamlet"}}, {"type": "node", "id": 7484396236, "lat": 58.231384, "lon": 11.8330778, "tags": {"name": "Br\u00e4cke", "place": "hamlet"}}, {"type": "node", "id": 7484400443, "lat": 58.2607084, "lon": 11.8536869, "tags": {"name": "Ranneberg", "place": "hamlet"}}, {"type": "node", "id": 7484408573, "lat": 58.2948547, "lon": 11.9268701, "tags": {"name": "Solberg", "place": "hamlet"}}, {"type": "node", "id": 7484417135, "lat": 58.2489692, "lon": 11.7779359, "tags": {"name": "Backa", "place": "hamlet"}}, {"type": "node", "id": 7484419312, "lat": 58.4535227, "lon": 11.9226169, "tags": {"name": "Hover\u00e4ngarna", "place": "hamlet"}}, {"type": "node", "id": 7484425470, "lat": 58.2940787, "lon": 11.9481545, "tags": {"name": "Hede", "place": "hamlet"}}, {"type": "node", "id": 7484428296, "lat": 58.2574774, "lon": 11.7753121, "tags": {"name": "Brunnefj\u00e4ll", "place": "hamlet"}}, {"type": "node", "id": 7484433748, "lat": 58.2753433, "lon": 11.8838651, "tags": {"name": "Haljersr\u00f6d", "place": "hamlet"}}, {"type": "node", "id": 7484438943, "lat": 58.2922162, "lon": 11.918855, "tags": {"name": "Koppungen", "place": "hamlet"}}, {"type": "node", "id": 7484439801, "lat": 58.2893049, "lon": 11.9091926, "tags": {"name": "Buddeberg", "place": "hamlet"}}, {"type": "node", "id": 7484441247, "lat": 58.2950487, "lon": 11.896278, "tags": {"name": "L\u00e5ngehed", "place": "hamlet"}}, {"type": "node", "id": 7484450063, "lat": 58.2822425, "lon": 11.9033419, "tags": {"name": "R\u00f6sseby", "place": "hamlet"}}, {"type": "node", "id": 7484460304, "lat": 58.3002564, "lon": 11.8919676, "tags": {"name": "Hova", "place": "hamlet"}}, {"type": "node", "id": 7484461749, "lat": 58.2900272, "lon": 11.8181438, "tags": {"name": "Dramsvik", "place": "hamlet"}}, {"type": "node", "id": 7484462728, "lat": 58.2736947, "lon": 11.8925899, "tags": {"name": "Stenevad", "place": "hamlet"}}, {"type": "node", "id": 7484472283, "lat": 58.2901611, "lon": 11.8808036, "tags": {"name": "Bua", "place": "hamlet"}}, {"type": "node", "id": 7484475759, "lat": 58.29905, "lon": 11.8540378, "tags": {"name": "Timmer\u00e5s", "place": "hamlet"}}, {"type": "node", "id": 7484487426, "lat": 58.2983583, "lon": 11.8424047, "tags": {"name": "Berg", "place": "hamlet"}}, {"type": "node", "id": 7484491489, "lat": 58.3319475, "lon": 11.9213764, "tags": {"name": "H\u00f6jentorp", "place": "hamlet"}}, {"type": "node", "id": 7484497145, "lat": 58.3041378, "lon": 11.8402166, "tags": {"name": "R\u00f6d", "place": "hamlet"}}, {"type": "node", "id": 7484503694, "lat": 58.3163266, "lon": 11.9467996, "tags": {"name": "Bratter\u00f6d", "place": "hamlet"}}, {"type": "node", "id": 7484517588, "lat": 58.3156986, "lon": 11.9267981, "tags": {"name": "H\u00e4ssler\u00f6d", "place": "hamlet"}}, {"type": "node", "id": 7484520805, "lat": 58.305071, "lon": 11.9081415, "tags": {"name": "Torkelsr\u00f6d", "place": "hamlet"}}, {"type": "node", "id": 7484523712, "lat": 58.3224668, "lon": 11.8637666, "tags": {"name": "Sunds hall", "place": "hamlet"}}, {"type": "node", "id": 7484524001, "lat": 58.3170755, "lon": 11.8634179, "tags": {"name": "Sund", "place": "hamlet"}}, {"type": "node", "id": 7484527864, "lat": 58.3381836, "lon": 11.8051631, "tags": {"name": "Mosshed", "place": "hamlet"}}, {"type": "node", "id": 7484533069, "lat": 58.3259942, "lon": 11.8112019, "tags": {"name": "Moll\u00f6n", "place": "hamlet"}}, {"type": "node", "id": 7484539921, "lat": 58.3284483, "lon": 11.8867058, "tags": {"name": "Lindesn\u00e4s", "place": "hamlet"}}, {"type": "node", "id": 7484542077, "lat": 58.3473785, "lon": 11.7808091, "tags": {"name": "Torsberg", "place": "hamlet"}}, {"type": "node", "id": 7484551417, "lat": 58.3606918, "lon": 11.8334497, "tags": {"name": "Majore-Berg", "place": "hamlet"}}, {"type": "node", "id": 7484552187, "lat": 58.3502074, "lon": 11.7928788, "tags": {"name": "Hedk\u00e4rr", "place": "hamlet"}}, {"type": "node", "id": 7484556445, "lat": 58.3589813, "lon": 11.8188621, "tags": {"name": "Grytingen", "place": "hamlet"}}, {"type": "node", "id": 7484851307, "lat": 58.1820051, "lon": 11.985905, "tags": {"name": "Backamo", "place": "hamlet"}}, {"type": "node", "id": 7484906211, "lat": 58.1799488, "lon": 11.9583568, "tags": {"name": "Backa", "place": "hamlet"}}, {"type": "node", "id": 7484910313, "lat": 58.1936808, "lon": 11.959999, "tags": {"name": "Sk\u00e4llebred", "place": "hamlet"}}, {"type": "node", "id": 7484917945, "lat": 58.2019927, "lon": 11.9605232, "tags": {"name": "R\u00f6d", "place": "hamlet"}}, {"type": "node", "id": 7484963147, "lat": 58.3056823, "lon": 11.9730851, "tags": {"name": "K\u00f6per\u00f6d", "place": "hamlet"}}, {"type": "node", "id": 7484979675, "lat": 58.2949376, "lon": 11.994844, "tags": {"name": "Hogarna", "place": "hamlet"}}, {"type": "node", "id": 7484980760, "lat": 58.2989632, "lon": 11.956627, "tags": {"name": "Sm\u00e5r\u00f6d", "place": "hamlet"}}, {"type": "node", "id": 7484988707, "lat": 58.2975489, "lon": 11.9959328, "tags": {"name": "Norg\u00e5rd", "place": "hamlet"}}, {"type": "node", "id": 7484993525, "lat": 58.2922462, "lon": 11.9845125, "tags": {"name": "R\u00e5ane", "place": "hamlet"}}, {"type": "node", "id": 7485013143, "lat": 58.268336, "lon": 12.0103003, "tags": {"name": "Ryra", "place": "hamlet"}}, {"type": "node", "id": 7485015513, "lat": 58.2760163, "lon": 12.00674, "tags": {"name": "J\u00e4ttes\u00e5s", "place": "hamlet"}}, {"type": "node", "id": 7485028327, "lat": 58.2668578, "lon": 12.0036251, "tags": {"name": "Vassbo", "place": "hamlet"}}, {"type": "node", "id": 7485028617, "lat": 58.5424512, "lon": 11.9925796, "tags": {"name": "Stommen", "place": "hamlet"}}, {"type": "node", "id": 7485049381, "lat": 58.5373487, "lon": 11.9886395, "tags": {"name": "Lundebyn", "place": "hamlet"}}, {"type": "node", "id": 7485050611, "lat": 58.5886404, "lon": 11.9495487, "tags": {"name": "Bandene", "place": "hamlet"}}, {"type": "node", "id": 7485053890, "lat": 58.2490573, "lon": 12.0322493, "tags": {"name": "Aspek\u00e4rr", "place": "hamlet"}}, {"type": "node", "id": 7485076779, "lat": 58.3085577, "lon": 12.0301833, "tags": {"name": "Stenshult", "place": "hamlet"}}, {"type": "node", "id": 7485082447, "lat": 58.2640832, "lon": 12.0955736, "tags": {"name": "Ingelstorp", "place": "hamlet"}}, {"type": "node", "id": 7485102963, "lat": 58.197206, "lon": 12.1147218, "tags": {"name": "Nedra Torp", "place": "hamlet"}}, {"type": "node", "id": 7485122485, "lat": 58.1845801, "lon": 12.0941541, "tags": {"name": "R\u00f6d", "place": "hamlet"}}, {"type": "node", "id": 7485123146, "lat": 58.2818291, "lon": 12.1204288, "tags": {"name": "L\u00e4resbo", "place": "hamlet"}}, {"type": "node", "id": 7485134030, "lat": 58.5252731, "lon": 12.1033412, "tags": {"name": "Kassler\u00e5dane", "place": "hamlet"}}, {"type": "node", "id": 7485135032, "lat": 58.2991798, "lon": 12.1477206, "tags": {"name": "Brevik", "place": "hamlet"}}, {"type": "node", "id": 7485135238, "lat": 58.5145877, "lon": 12.1106969, "tags": {"name": "L\u00f6v\u00e5sen", "place": "hamlet"}}, {"type": "node", "id": 7485142060, "lat": 58.2147979, "lon": 12.13407, "tags": {"name": "Vallen", "place": "hamlet"}}, {"type": "node", "id": 7485143872, "lat": 58.5939057, "lon": 12.0440788, "tags": {"name": "Hj\u00e4rts\u00e4ter", "place": "hamlet"}}, {"type": "node", "id": 7485150805, "lat": 58.2118514, "lon": 12.1376959, "tags": {"name": "Utby", "place": "hamlet"}}, {"type": "node", "id": 7485151124, "lat": 58.2779221, "lon": 12.1461648, "tags": {"name": "Hasselbacken", "place": "hamlet"}}, {"type": "node", "id": 7485164523, "lat": 58.2043213, "lon": 12.1114037, "tags": {"name": "Tomten", "place": "hamlet"}}, {"type": "node", "id": 7485169218, "lat": 58.1899929, "lon": 12.1079393, "tags": {"name": "Sollum", "place": "hamlet"}}, {"type": "node", "id": 7485170735, "lat": 58.1990114, "lon": 12.113078, "tags": {"name": "Gateg\u00e5rden", "place": "hamlet"}}, {"type": "node", "id": 7485174515, "lat": 58.1934771, "lon": 12.1358726, "tags": {"name": "Fr\u00e5stad", "place": "hamlet"}}, {"type": "node", "id": 7485180561, "lat": 58.2231299, "lon": 12.1461389, "tags": {"name": "\u00d6dsm\u00e5l", "place": "hamlet"}}, {"type": "node", "id": 7485188950, "lat": 58.2171824, "lon": 12.1449986, "tags": {"name": "Sanna", "place": "hamlet"}}, {"type": "node", "id": 7485205511, "lat": 58.5947663, "lon": 12.1356374, "tags": {"name": "Bux\u00e5sen", "place": "hamlet"}}, {"type": "node", "id": 7485212257, "lat": 58.2534013, "lon": 12.2110087, "tags": {"name": "Intagan", "place": "hamlet"}}, {"type": "node", "id": 7485239514, "lat": 58.5244054, "lon": 12.1587818, "tags": {"name": "Gr\u00e5ttetorp", "place": "hamlet"}}, {"type": "node", "id": 7485242346, "lat": 58.5843365, "lon": 12.1764832, "tags": {"name": "Bollungen", "place": "hamlet"}}, {"type": "node", "id": 7485249102, "lat": 58.5794819, "lon": 12.1865268, "tags": {"name": "R\u00e4vsn\u00e4s", "place": "hamlet"}}, {"type": "node", "id": 7485259230, "lat": 58.1877001, "lon": 12.1998938, "tags": {"name": "Solberga", "place": "hamlet"}}, {"type": "node", "id": 7485259760, "lat": 58.5590832, "lon": 12.2332335, "tags": {"name": "Sallebyn", "place": "hamlet"}}, {"type": "node", "id": 7485259805, "lat": 58.2145636, "lon": 12.1844774, "tags": {"name": "Humlek\u00e4rr", "place": "hamlet"}}, {"type": "node", "id": 7485274140, "lat": 58.5383775, "lon": 12.2106267, "tags": {"name": "Bj\u00f6rserud", "place": "hamlet"}}, {"type": "node", "id": 7485274540, "lat": 58.5597047, "lon": 12.2164614, "tags": {"name": "N\u00e4set", "place": "hamlet"}}, {"type": "node", "id": 7485274899, "lat": 58.2062737, "lon": 12.1810768, "tags": {"name": "Flundervalla", "place": "hamlet"}}, {"type": "node", "id": 7485278294, "lat": 58.5222605, "lon": 12.1762322, "tags": {"name": "Anulvsb\u00e4cken", "place": "hamlet"}}, {"type": "node", "id": 7485279598, "lat": 58.1895609, "lon": 12.1738471, "tags": {"name": "H\u00e4rkl\u00e4ttan", "place": "hamlet"}}, {"type": "node", "id": 7485287126, "lat": 58.5189795, "lon": 12.1651888, "tags": {"name": "Bj\u00f6rnerud", "place": "hamlet"}}, {"type": "node", "id": 7485289538, "lat": 58.1976382, "lon": 12.1571883, "tags": {"name": "Ballsered", "place": "hamlet"}}, {"type": "node", "id": 7485295504, "lat": 58.5145669, "lon": 12.197258, "tags": {"name": "R\u00f6d", "place": "hamlet"}}, {"type": "node", "id": 7485308256, "lat": 58.2306806, "lon": 12.1700479, "tags": {"name": "Vesten", "place": "hamlet"}}, {"type": "node", "id": 7485310308, "lat": 58.2331316, "lon": 12.2021392, "tags": {"name": "Torpa", "place": "hamlet"}}, {"type": "node", "id": 7485314666, "lat": 58.5188018, "lon": 12.2084965, "tags": {"name": "Hakerud", "place": "hamlet"}}, {"type": "node", "id": 7485347162, "lat": 58.3244047, "lon": 12.2576333, "tags": {"name": "Kortered", "place": "hamlet"}}, {"type": "node", "id": 7485347316, "lat": 58.2775961, "lon": 12.1939235, "tags": {"name": "\u00d6resj\u00f6", "place": "hamlet"}}, {"type": "node", "id": 7485355582, "lat": 58.3204425, "lon": 12.2530389, "tags": {"name": "Korsbyn", "place": "hamlet"}}, {"type": "node", "id": 7485360936, "lat": 58.5364502, "lon": 12.2614475, "tags": {"name": "R\u00e5dane", "place": "hamlet"}}, {"type": "node", "id": 7485362510, "lat": 58.5485945, "lon": 12.2620811, "tags": {"name": "V\u00e4ster\u00e4ng", "place": "hamlet"}}, {"type": "node", "id": 7485363868, "lat": 58.3028218, "lon": 12.2523056, "tags": {"name": "Eds\u00e4ter", "place": "hamlet"}}, {"type": "node", "id": 7485376713, "lat": 58.5276759, "lon": 12.2583011, "tags": {"name": "Katteberg", "place": "hamlet"}}, {"type": "node", "id": 7485381370, "lat": 58.1970136, "lon": 12.2513102, "tags": {"name": "Blackstorp", "place": "hamlet"}}, {"type": "node", "id": 7485381568, "lat": 58.3126388, "lon": 12.2497317, "tags": {"name": "Anered", "place": "hamlet"}}, {"type": "node", "id": 7485386631, "lat": 58.555033, "lon": 12.2522913, "tags": {"name": "\u00c4ngebacken", "place": "hamlet"}}, {"type": "node", "id": 7485400372, "lat": 58.1859459, "lon": 12.2535261, "tags": {"name": "H\u00e4llstorp", "place": "hamlet"}}, {"type": "node", "id": 7485400471, "lat": 58.2126878, "lon": 12.2493147, "tags": {"name": "Sj\u00f6landa", "place": "hamlet"}}, {"type": "node", "id": 7485410695, "lat": 58.2466972, "lon": 12.265336, "tags": {"name": "Myrtuvan", "place": "hamlet"}}, {"type": "node", "id": 7485419626, "lat": 58.2375585, "lon": 12.2503706, "tags": {"name": "Raddetorp", "place": "hamlet"}}, {"type": "node", "id": 7485422704, "lat": 58.2553385, "lon": 12.2348088, "tags": {"name": "Stubbered", "place": "hamlet"}}, {"type": "node", "id": 7485433727, "lat": 58.5685, "lon": 12.2520299, "tags": {"name": "Torg\u00e4rderud", "place": "hamlet"}}, {"type": "node", "id": 7485455604, "lat": 58.2087017, "lon": 12.2712289, "tags": {"name": "Baggeryr", "place": "hamlet"}}, {"type": "node", "id": 7485466128, "lat": 58.1987961, "lon": 12.2732317, "tags": {"name": "H\u00f6g\u00e4rdet", "place": "hamlet"}}, {"type": "node", "id": 7485470111, "lat": 58.6008609, "lon": 11.7863777, "tags": {"name": "Bratt\u00f6nsg\u00e5rd", "place": "hamlet"}}, {"type": "node", "id": 7485472814, "lat": 58.602676, "lon": 11.7774892, "tags": {"name": "L\u00e5ng\u00f6n", "place": "hamlet"}}, {"type": "node", "id": 7485487330, "lat": 58.2246038, "lon": 12.2790866, "tags": {"name": "Sandbacken", "place": "hamlet"}}, {"type": "node", "id": 7485490254, "lat": 58.2470982, "lon": 12.2939804, "tags": {"name": "Torp", "place": "hamlet"}}, {"type": "node", "id": 7485492791, "lat": 58.5942, "lon": 11.77393, "tags": {"name": "Sand\u00e5ker", "place": "hamlet"}}, {"type": "node", "id": 7485499980, "lat": 58.2430259, "lon": 12.2832984, "tags": {"name": "Haga", "place": "hamlet"}}, {"type": "node", "id": 7485503693, "lat": 58.5842059, "lon": 11.7631255, "tags": {"name": "Synner\u00f6d", "place": "hamlet"}}, {"type": "node", "id": 7485507193, "lat": 58.2378039, "lon": 12.2993573, "tags": {"name": "Holm", "place": "hamlet"}}, {"type": "node", "id": 7485512263, "lat": 58.2342241, "lon": 12.2826775, "tags": {"name": "R\u00f6rstorp", "place": "hamlet"}}, {"type": "node", "id": 7485517513, "lat": 58.5773868, "lon": 11.7775432, "tags": {"name": "\u00c5nner\u00f6d", "place": "hamlet"}}, {"type": "node", "id": 7485519669, "lat": 58.5787488, "lon": 11.7674371, "tags": {"name": "Torbj\u00f6rner\u00f6d", "place": "hamlet"}}, {"type": "node", "id": 7485529115, "lat": 58.4946398, "lon": 11.7727215, "tags": {"name": "Kikerud", "place": "hamlet"}}, {"type": "node", "id": 7485532185, "lat": 58.2286383, "lon": 12.2883343, "tags": {"name": "Hulan", "place": "hamlet"}}, {"type": "node", "id": 7485537546, "lat": 58.5553503, "lon": 11.7916583, "tags": {"name": "Askesl\u00e4tt", "place": "hamlet"}}, {"type": "node", "id": 7485539553, "lat": 58.5655664, "lon": 11.7922721, "tags": {"name": "S\u00e4lelund", "place": "hamlet"}}, {"type": "node", "id": 7485542837, "lat": 58.5530112, "lon": 11.7760972, "tags": {"name": "Stensryr", "place": "hamlet"}}, {"type": "node", "id": 7485548917, "lat": 58.5145061, "lon": 11.8269273, "tags": {"name": "S\u00f6ttorp", "place": "hamlet"}}, {"type": "node", "id": 7485557982, "lat": 58.337936, "lon": 12.1177766, "tags": {"name": "\u00d6rbacka", "place": "hamlet"}}, {"type": "node", "id": 7485562400, "lat": 58.3233136, "lon": 12.1304978, "tags": {"name": "Getered", "place": "hamlet"}}, {"type": "node", "id": 7485570402, "lat": 58.3097365, "lon": 12.1490649, "tags": {"name": "Hedetorpet", "place": "hamlet"}}, {"type": "node", "id": 7485578354, "lat": 58.3185885, "lon": 12.1218111, "tags": {"name": "Nyb\u00f6le", "place": "hamlet"}}, {"type": "node", "id": 7485585096, "lat": 58.3132226, "lon": 12.1201806, "tags": {"name": "L\u00e5ng\u00e5s", "place": "hamlet"}}, {"type": "node", "id": 7485591645, "lat": 58.3398576, "lon": 12.0651535, "tags": {"name": "Raknebo", "place": "hamlet"}}, {"type": "node", "id": 7485593635, "lat": 58.3419287, "lon": 12.099886, "tags": {"name": "R\u00f6ssebol", "place": "hamlet"}}, {"type": "node", "id": 7485597901, "lat": 58.3435325, "lon": 12.0839748, "tags": {"name": "Grindhult", "place": "hamlet"}}, {"type": "node", "id": 7485608390, "lat": 58.337506, "lon": 12.1011154, "tags": {"name": "\u00d6vre Br\u00e4cke", "place": "hamlet"}}, {"type": "node", "id": 7485613273, "lat": 58.3169582, "lon": 12.0859077, "tags": {"name": "Fagerhult", "place": "hamlet"}}, {"type": "node", "id": 7485647772, "lat": 58.3289949, "lon": 11.9952201, "tags": {"name": "R\u00e5sser\u00f6d", "place": "hamlet"}}, {"type": "node", "id": 7485668039, "lat": 58.3444408, "lon": 12.0455955, "tags": {"name": "\u00c4ngebacken", "place": "hamlet"}}, {"type": "node", "id": 7485683894, "lat": 58.3457315, "lon": 12.1832876, "tags": {"name": "Gundlebo", "place": "hamlet"}}, {"type": "node", "id": 7485722056, "lat": 58.3304577, "lon": 11.9774828, "tags": {"name": "Uggelhult", "place": "hamlet"}}, {"type": "node", "id": 7485731327, "lat": 58.368471, "lon": 12.1002005, "tags": {"name": "K\u00e5r\u00f6d", "place": "hamlet"}}, {"type": "node", "id": 7485732581, "lat": 58.3567615, "lon": 12.1264994, "tags": {"name": "Skottene", "place": "hamlet"}}, {"type": "node", "id": 7485739884, "lat": 58.3496514, "lon": 12.1240175, "tags": {"name": "\u00c5ker", "place": "hamlet"}}, {"type": "node", "id": 7485751966, "lat": 58.3493238, "lon": 12.1126764, "tags": {"name": "Kyrkobyn", "place": "hamlet"}}, {"type": "node", "id": 7485752067, "lat": 58.3993196, "lon": 12.1899328, "tags": {"name": "Sn\u00e4rsbo", "place": "hamlet"}}, {"type": "node", "id": 7485756245, "lat": 58.378333, "lon": 12.171541, "tags": {"name": "Skogen", "place": "hamlet"}}, {"type": "node", "id": 7485756747, "lat": 58.3570666, "lon": 12.1834449, "tags": {"name": "Rudet", "place": "hamlet"}}, {"type": "node", "id": 7485757011, "lat": 58.3597152, "lon": 12.1952198, "tags": {"name": "Ramnered", "place": "hamlet"}}, {"type": "node", "id": 7485759439, "lat": 58.3632554, "lon": 12.1894271, "tags": {"name": "Finng\u00e5rdsred", "place": "hamlet"}}, {"type": "node", "id": 7485822345, "lat": 58.3530749, "lon": 12.2561615, "tags": {"name": "M\u00f6jered", "place": "hamlet"}}, {"type": "node", "id": 7485845078, "lat": 58.3502691, "lon": 12.2669778, "tags": {"name": "Lerdalen", "place": "hamlet"}}, {"type": "node", "id": 7485849260, "lat": 58.3695915, "lon": 12.0431167, "tags": {"name": "T\u00e4ngelsr\u00f6d", "place": "hamlet"}}, {"type": "node", "id": 7485861553, "lat": 58.3660533, "lon": 12.216299, "tags": {"name": "Bj\u00f6rred", "place": "hamlet"}}, {"type": "node", "id": 7485862927, "lat": 58.3822956, "lon": 12.1976371, "tags": {"name": "Kanteborg", "place": "hamlet"}}, {"type": "node", "id": 7485866344, "lat": 58.3547297, "lon": 12.2353468, "tags": {"name": "Lunndalen", "place": "hamlet"}}, {"type": "node", "id": 7485868399, "lat": 58.3449169, "lon": 11.9969953, "tags": {"name": "Ramser\u00f6d", "place": "hamlet"}}, {"type": "node", "id": 7485869406, "lat": 58.367966, "lon": 11.9893438, "tags": {"name": "N\u00f6thult", "place": "hamlet"}}, {"type": "node", "id": 7485869803, "lat": 58.3928081, "lon": 12.2330153, "tags": {"name": "Kattholmen", "place": "hamlet"}}, {"type": "node", "id": 7485872037, "lat": 58.400195, "lon": 12.2434265, "tags": {"name": "Br\u00e4ckan", "place": "hamlet"}}, {"type": "node", "id": 7485880672, "lat": 58.3668408, "lon": 12.1980409, "tags": {"name": "Uppeg\u00e5rden", "place": "hamlet"}}, {"type": "node", "id": 7485894792, "lat": 58.3610213, "lon": 12.2287681, "tags": {"name": "Ramneberg", "place": "hamlet"}}, {"type": "node", "id": 7485895454, "lat": 58.4026002, "lon": 12.1481052, "tags": {"name": "Lerdalen", "place": "hamlet"}}, {"type": "node", "id": 7485896958, "lat": 58.3868937, "lon": 12.1429566, "tags": {"name": "Torvruka", "place": "hamlet"}}, {"type": "node", "id": 7485903182, "lat": 58.3912735, "lon": 12.1039061, "tags": {"name": "Skr\u00e5r\u00f6d", "place": "hamlet"}}, {"type": "node", "id": 7485912440, "lat": 58.3844192, "lon": 12.0936879, "tags": {"name": "Signer\u00f6d", "place": "hamlet"}}, {"type": "node", "id": 7485920264, "lat": 58.4032255, "lon": 12.1054765, "tags": {"name": "Siverbo", "place": "hamlet"}}, {"type": "node", "id": 7485925726, "lat": 58.3795219, "lon": 12.108018, "tags": {"name": "S\u00f6rbo", "place": "hamlet"}}, {"type": "node", "id": 7485927353, "lat": 58.3829824, "lon": 12.1028919, "tags": {"name": "H\u00e5ven", "place": "hamlet"}}, {"type": "node", "id": 7485940805, "lat": 58.3759909, "lon": 12.0943311, "tags": {"name": "Hj\u00e4lmhult", "place": "hamlet"}}, {"type": "node", "id": 7485944829, "lat": 58.3996409, "lon": 12.0912533, "tags": {"name": "Ulver\u00f6d", "place": "hamlet"}}, {"type": "node", "id": 7485953966, "lat": 58.3859461, "lon": 12.0551453, "tags": {"name": "R\u00f6dsbuane", "place": "hamlet"}}, {"type": "node", "id": 7485955649, "lat": 58.3768893, "lon": 12.0607082, "tags": {"name": "Hogane", "place": "hamlet"}}, {"type": "node", "id": 7485963137, "lat": 58.3957264, "lon": 12.0544667, "tags": {"name": "Berg", "place": "hamlet"}}, {"type": "node", "id": 7485968468, "lat": 58.4066969, "lon": 12.2457429, "tags": {"name": "Jons\u00e4ngen", "place": "hamlet"}}, {"type": "node", "id": 7485968958, "lat": 58.4136885, "lon": 12.0252049, "tags": {"name": "Anner\u00f6d", "place": "hamlet"}}, {"type": "node", "id": 7485998414, "lat": 58.3972858, "lon": 12.0617307, "tags": {"name": "Kyrkebyn", "place": "hamlet"}}, {"type": "node", "id": 7486003685, "lat": 58.4032119, "lon": 12.0567858, "tags": {"name": "Torp", "place": "hamlet"}}, {"type": "node", "id": 7486035899, "lat": 58.4118, "lon": 12.2560099, "tags": {"name": "\u00c4skek\u00e4rr", "place": "hamlet"}}, {"type": "node", "id": 7486036906, "lat": 58.4116456, "lon": 12.1836428, "tags": {"name": "Fagervik", "place": "hamlet"}}, {"type": "node", "id": 7486044263, "lat": 58.4108988, "lon": 12.1967214, "tags": {"name": "Alviken", "place": "hamlet"}}, {"type": "node", "id": 7486050476, "lat": 58.4074127, "lon": 12.2640415, "tags": {"name": "St\u00e4rkebo", "place": "hamlet"}}, {"type": "node", "id": 7486062913, "lat": 58.3825589, "lon": 11.7758563, "tags": {"name": "R\u00f6ane", "place": "hamlet"}}, {"type": "node", "id": 7486082508, "lat": 58.3958536, "lon": 11.7665498, "tags": {"name": "Berga", "place": "hamlet"}}, {"type": "node", "id": 7486092652, "lat": 58.407554, "lon": 11.7882193, "tags": {"name": "\u00d6ster\u00f6d", "place": "hamlet"}}, {"type": "node", "id": 7486095701, "lat": 58.4011546, "lon": 11.7883849, "tags": {"name": "Br\u00e5ten", "place": "hamlet"}}, {"type": "node", "id": 7486149319, "lat": 58.4072846, "lon": 11.7774772, "tags": {"name": "Nedre K\u00e5r\u00f6d", "place": "hamlet"}}, {"type": "node", "id": 7486158382, "lat": 58.3764939, "lon": 11.7884547, "tags": {"name": "Sm\u00e4rtungen", "place": "hamlet"}}, {"type": "node", "id": 7487290054, "lat": 58.608965, "lon": 11.8391823, "tags": {"name": "Sladkas", "place": "hamlet"}}, {"type": "node", "id": 7487307770, "lat": 58.5091509, "lon": 11.8287855, "tags": {"name": "Flatebyn", "place": "hamlet"}}, {"type": "node", "id": 7487320539, "lat": 58.5250895, "lon": 11.8710282, "tags": {"name": "Bikullen", "place": "hamlet"}}, {"type": "node", "id": 7487333162, "lat": 58.5123408, "lon": 11.8704737, "tags": {"name": "Smedserud", "place": "hamlet"}}, {"type": "node", "id": 7487345389, "lat": 58.5258231, "lon": 11.906849, "tags": {"name": "Boda", "place": "hamlet"}}, {"type": "node", "id": 7487351273, "lat": 58.5624495, "lon": 11.9099814, "tags": {"name": "Gunnarsn\u00e4s", "place": "hamlet"}}, {"type": "node", "id": 7487364129, "lat": 58.5069219, "lon": 11.8295018, "tags": {"name": "Muberg", "place": "hamlet"}}, {"type": "node", "id": 7487382284, "lat": 58.5120632, "lon": 11.9031145, "tags": {"name": "\u00c5ntorp", "place": "hamlet"}}, {"type": "node", "id": 7495189676, "lat": 58.4632699, "lon": 11.686279, "tags": {"name": "Kvistr\u00f6m", "place": "hamlet"}}, {"type": "node", "id": 7495221959, "lat": 58.2764328, "lon": 11.765308, "tags": {"name": "Br\u00e5ten", "place": "hamlet"}}, {"type": "node", "id": 7495221961, "lat": 58.2996079, "lon": 11.7057482, "tags": {"name": "\u00d6hagen", "place": "hamlet"}}, {"type": "node", "id": 7500204633, "lat": 58.3856566, "lon": 12.2849546, "tags": {"name": "Kristinelund", "place": "hamlet"}}, {"type": "node", "id": 9471720126, "lat": 58.5704287, "lon": 11.9992804, "tags": {"name": "F\u00e4rgelanda", "name:ru": "\u0424\u0435\u0440\u0433\u0435\u043b\u0430\u043d\u0434\u0430", "place": "town", "population": "1894", "ref:se:pts:postort": "F\u00c4RGELANDA", "ref:se:scb": "4828"}}, {"type": "node", "id": 11430088445, "lat": 58.2676323, "lon": 11.6102314, "tags": {"name": "Bj\u00e4llane", "place": "hamlet"}}, {"type": "way", "id": 275383151, "nodes": [2800155399, 2800155400, 2800161405, 2800161406, 2800161403, 2800161407, 2800161408, 2800161404, 2800161402, 2800161401, 2800155397, 2800155398, 2800155396, 2800155395, 2800155393, 2800155391, 2800155388, 2800155390, 2800155389, 2800155392, 2800155394, 2800155399]}, {"type": "way", "id": 443583603, "nodes": [4411413065, 4411413067, 4411413189, 4411413193, 4411413202, 4411413208, 4411413209, 4411413210, 4411413075, 4411413068, 4411413063, 4411413061, 4411413065], "tags": {"landuse": "residential", "name": "Kaserna", "place": "hamlet"}}, {"type": "way", "id": 621941575, "nodes": [4433445050, 4433445045, 4433445025, 4433444970, 4433444950, 4433444936, 4433444934, 4433444869, 4433444861, 4433444825, 4433444789, 4433444737, 4433444699, 4433444694, 4433444677, 4433444650, 4433444655, 4433444664, 4433444667, 4433444636, 4433444615, 4431704497, 4431704527, 4431704539, 4431704575, 4431704596, 4431704637, 4431704660, 4431704708, 4431704719, 4431704731, 4431704745, 4431704752, 4431704755, 4431704762, 4431704766, 4431704776, 4431704784, 4431704767, 4431704780, 4431704795, 4433445050], "tags": {"landuse": "residential", "name": "Vasemyren", "place": "hamlet"}}, {"type": "relation", "id": 9700408, "members": [{"type": "way", "ref": 275383151, "role": "outer"}, {"type": "node", "ref": 9471720126, "role": "admin_centre"}], "tags": {"boundary": "place", "name": "F\u00e4rgelanda", "place": "town", "ref:se:pts:postort": "F\u00c4RGELANDA", "ref:se:scb": "4828", "type": "boundary"}}]}