{"version": 0.6, "generator": "Overpass API 0.7.61.5 4133829e", "osm3s": {"timestamp_osm_base": "2024-02-29T13:51:30Z", "copyright": "The data included in this document is from www.openstreetmap.org. The data is made available under ODbL."}, "elements": [{"type": "node", "id": 3993106250, "lat": 35.4348654, "lon": 71.7443025, "tags": {"amenity": "school", "name": "Govt High School"}}, {"type": "node", "id": 3993106251, "lat": 35.434678, "lon": 71.7451351, "tags": {"amenity": "school"}}, {"type": "node", "id": 6095870585, "lat": 35.1265824, "lon": 72.0012189, "tags": {"amenity": "school", "denomination": "sunni", "name": "Government School Katan", "religion": "muslim"}}, {"type": "node", "id": 6095943886, "lat": 35.1321181, "lon": 72.0037469, "tags": {"addr:city": "Upper Dir", "addr:postcode": "18000", "addr:street": "Katan Road", "amenity": "school", "name": "Government School Katan", "religion": "muslim"}}, {"type": "node", "id": 6534025089, "lat": 35.344338, "lon": 72.0541192, "tags": {"amenity": "school", "name": "Government School"}}]}