{"version": 0.6, "generator": "Overpass API 0.7.61.5 4133829e", "osm3s": {"timestamp_osm_base": "2024-03-06T11:18:45Z", "copyright": "The data included in this document is from www.openstreetmap.org. The data is made available under ODbL."}, "elements": [{"type": "node", "id": 2488244961, "lat": 35.893422, "lon": 42.25307, "tags": {"alt_name": "\u0627\u0644\u062f\u062d\u0644\u0629", "int_name": "Ad Da\u1e29lah, \u0627\u0644\u062f\u062d\u0644\u0647, Ad Dahlah, \u0627\u0644\u062f\u062d\u0644\u0647", "is_in": "Iraq , \u062c\u0645\u0647\u0648\u0631\u064a\u0629 \u0627\u0644\u0639\u0631\u0627\u0642", "name": "\u0627\u0644\u062f\u062d\u0644\u0629", "name:ar": "\u0627\u0644\u062f\u062d\u064a\u0644\u0629", "name:ar1": "\u0627\u0644\u062f\u062d\u0644\u0629", "name:de": "Ad Dahlah", "name:en": "Ad Dailah", "name:fr": "Ad Dahlah", "place": "village"}}, {"type": "node", "id": 2488245123, "lat": 36.036789, "lon": 42.190768, "tags": {"alt_name": "\u0627\u0644\u0634\u0643\u0631\u064a\u0629", "int_name": "Ash Shukr\u012byah, \u0627\u0644\u0634\u0643\u0631\u064a\u0629, Ash Shukriyah, \u0627\u0644\u0634\u0643\u0631\u064a\u0629", "is_in": "Iraq , \u062c\u0645\u0647\u0648\u0631\u064a\u0629 \u0627\u0644\u0639\u0631\u0627\u0642", "name": "\u0627\u0644\u0634\u0643\u0631\u064a\u0629", "name:ar": "\u0627\u0644\u0633\u0643\u0631\u064a\u0629", "name:ar1": "\u0627\u0644\u0634\u0643\u0631\u064a\u0629", "name:de": "Ash Shukriyah", "name:en": "Ash Sukriyah", "name:fr": "Ash Shukriyah", "place": "village"}}, {"type": "node", "id": 2488245330, "lat": 35.840516, "lon": 42.147574, "tags": {"alt_name": "\u0643\u0631\u0643\u0629", "int_name": "Karkah, \u0643\u0631\u0643\u0647, Karkah, \u0643\u0631\u0643\u0647", "is_in": "Iraq , \u062c\u0645\u0647\u0648\u0631\u064a\u0629 \u0627\u0644\u0639\u0631\u0627\u0642", "name": "\u0643\u0631\u0643\u0629", "name:ar": "\u0643\u0631\u0643\u0647", "name:ar1": "\u0643\u0631\u0643\u0629", "name:de": "Karkah", "name:en": "Karkah", "name:fr": "Karkah", "place": "village"}}, {"type": "node", "id": 2488245365, "lat": 36.0092172, "lon": 42.3197499, "tags": {"alt_name": "\u062e\u0648\u062a\u064a\u0644\u0629", "int_name": "Khuwayt\u012blah, \u062e\u0648\u062a\u064a\u0644\u0629, Khuwaytilah, \u062e\u0648\u062a\u064a\u0644\u0629", "name": "\u062e\u0648\u062a\u064a\u0644\u0629", "name:ar": "\u062e\u0648\u064a\u062a\u0644\u0629", "name:ar1": "\u062e\u0648\u062a\u064a\u0644\u0629", "name:de": "Khuwaytilah", "name:en": "Khuwaytilah", "name:fr": "Khuwaytilah", "place": "village"}}, {"type": "node", "id": 2488245811, "lat": 35.82213, "lon": 42.369745, "tags": {"alt_name": "\u0623\u0645\u0633\u0647\u0631\u062c", "int_name": "Amsahraj, \u0627\u0645\u0633\u0647\u0631\u062c, Amsahraj, \u0627\u0645\u0633\u0647\u0631\u062c", "name": "\u0623\u0645\u0633\u0647\u0631\u062c", "name:ar": "\u0642\u0631\u064a\u0629 \u0645\u0633\u0647\u0648\u062c", "name:ar1": "\u0623\u0645\u0633\u0647\u0631\u062c", "name:de": "Amsahraj", "name:en": "Amsahraj", "name:fr": "Amsahraj", "place": "village"}}, {"type": "node", "id": 2488245922, "lat": 36.010087, "lon": 42.3550505, "tags": {"alt_name": "\u0623\u0634\u0648\u0627", "int_name": "Ashwah, \u0627\u0634\u0648\u0627, Ashwah, \u0627\u0634\u0648\u0629", "name": "\u0623\u0634\u0648\u0627", "name:ar": "\u0623\u0634\u0648\u0627", "name:ar1": "\u0623\u0634\u0648\u0627", "name:de": "Ashwah", "name:en": "Ashwah", "name:fr": "Ashwah", "place": "village"}}, {"type": "node", "id": 2488245999, "lat": 35.9854222, "lon": 42.3668028, "tags": {"int_name": "Jumat \u1e28usayn, Jumat Husayn", "name": "\u0627\u0644\u0641\u0631\u062c", "name:ar": "\u0627\u0644\u062c\u0645\u0639\u0647", "name:de": "Alfarj", "name:en": "Aljumaa", "name:fr": "Alfarj", "name:ku": "\u0627\u0644\u062c\u0645\u0639\u0647", "place": "village"}}, {"type": "node", "id": 2488246178, "lat": 36.035525, "lon": 42.327232, "tags": {"alt_name": "\u062a\u0644 \u063a\u0632\u0627\u0644", "int_name": "Tall Ghaz\u0101l, \u062a\u0644 \u063a\u0632\u0627\u0644, Tall Ghazal, \u062a\u0644 \u063a\u0632\u0627\u0644", "name": "\u062a\u0644 \u063a\u0632\u0627\u0644", "name:ar": "\u0642\u0631\u064a\u0629 \u0627\u0644\u062f\u0631\u0643", "name:ar1": "\u062a\u0644 \u063a\u0632\u0627\u0644", "name:de": "Tall Ghazal", "name:en": "Tall Ghazal", "name:fr": "Tall Ghazal", "place": "village"}}, {"type": "node", "id": 3008232144, "lat": 35.9995153, "lon": 42.3590738}, {"type": "node", "id": 3008232145, "lat": 36.0008329, "lon": 42.3526411}, {"type": "node", "id": 3008232146, "lat": 36.0026469, "lon": 42.3464256}, {"type": "node", "id": 3008232147, "lat": 36.006494, "lon": 42.3588437}, {"type": "node", "id": 3008232148, "lat": 36.0134267, "lon": 42.3602364}, {"type": "node", "id": 3008232149, "lat": 36.0136578, "lon": 42.3455954}, {"type": "node", "id": 4510884572, "lat": 35.9866967, "lon": 42.3675565}, {"type": "node", "id": 4510884573, "lat": 35.9860629, "lon": 42.3666446}, {"type": "node", "id": 4510884574, "lat": 35.9859414, "lon": 42.3664193}, {"type": "node", "id": 4510884575, "lat": 35.9860629, "lon": 42.3689727}, {"type": "node", "id": 4510884576, "lat": 35.9864015, "lon": 42.3681037}, {"type": "node", "id": 4510884577, "lat": 35.9842485, "lon": 42.3672669}, {"type": "node", "id": 4510884578, "lat": 35.9850255, "lon": 42.3685811}, {"type": "node", "id": 4510884579, "lat": 35.9848345, "lon": 42.364075}, {"type": "node", "id": 4510884580, "lat": 35.9843245, "lon": 42.3654349}, {"type": "way", "id": 296987083, "nodes": [3008232149, 3008232148, 3008232147, 3008232144, 3008232145, 3008232146, 3008232149], "tags": {"name": "\u0627\u0634\u0648\u0627", "place": "village"}}, {"type": "way", "id": 454539355, "nodes": [4510884572, 4510884573, 4510884574, 4510884579, 4510884580, 4510884577, 4510884578, 4510884575, 4510884576, 4510884572], "tags": {"name": "\u0627\u0644\u0641\u0631\u062c", "place": "hamlet", "population": "\u0639\u0631\u0628 \u0645\u0646 \u0639\u0634\u064a\u0631\u0629 \u0627\u0644\u0644\u0648\u064a\u0632\u064a\u064a\u0646"}}]}