{"version": 0.6, "generator": "Overpass API 0.7.61.5 4133829e", "osm3s": {"timestamp_osm_base": "2024-03-06T11:03:20Z", "copyright": "The data included in this document is from www.openstreetmap.org. The data is made available under ODbL."}, "elements": [{"type": "node", "id": 817209311, "lat": -2.2378035, "lon": 36.8479066}, {"type": "node", "id": 817209316, "lat": -2.2374849, "lon": 36.8483608}, {"type": "node", "id": 817209317, "lat": -2.2378192, "lon": 36.848353}, {"type": "node", "id": 817209319, "lat": -2.2374849, "lon": 36.8479027}, {"type": "node", "id": 4232657126, "lat": -2.2675719, "lon": 36.7351104, "tags": {"amenity": "school"}}, {"type": "node", "id": 6235659894, "lat": -2.1020162, "lon": 36.7912797, "tags": {"addr:city": "Bisil", "addr:street": "Nairobi-Namanga Road", "amenity": "school", "name": "Crown of Hope Complex Primary School"}}, {"type": "node", "id": 6235659900, "lat": -2.0894191, "lon": 36.7952279, "tags": {"addr:city": "Bisil", "addr:street": "Namanga Road", "amenity": "school", "name": "Ilbissil Boarding Primary School"}}, {"type": "node", "id": 6235659901, "lat": -2.0886243, "lon": 36.7957409, "tags": {"addr:city": "Bisil", "addr:postcode": "P.O Box 213, Mombasa-Malaba Road, Bisil", "addr:street": "Namanga Road", "amenity": "school", "name": "Ilbissil Girls Secondary School"}}, {"type": "way", "id": 67633083, "nodes": [817209319, 817209316, 817209317, 817209311, 817209319], "tags": {"amenity": "school", "name": "Mopia"}}]}