{"version": 0.6, "generator": "Overpass API 0.7.61.5 4133829e", "osm3s": {"timestamp_osm_base": "2024-03-05T13:48:58Z", "copyright": "The data included in this document is from www.openstreetmap.org. The data is made available under ODbL."}, "elements": [{"type": "node", "id": 4027955819, "lat": 36.5252375, "lon": 72.7648026, "tags": {"name": "Bang Bala", "place": "village"}}, {"type": "node", "id": 4027955820, "lat": 36.5447808, "lon": 72.7879326, "tags": {"name": "Bang Payeen", "place": "village"}}, {"type": "node", "id": 4027955822, "lat": 36.5063872, "lon": 72.7435669, "tags": {"name": "Brizuz", "place": "hamlet"}}, {"type": "node", "id": 4027955824, "lat": 36.5759471, "lon": 72.8442529, "tags": {"name": "Dewseer", "place": "village"}}, {"type": "node", "id": 4027955825, "lat": 36.4786725, "lon": 72.6922052, "tags": {"name": "Digz", "place": "village"}}, {"type": "node", "id": 4027955826, "lat": 36.5440716, "lon": 72.8007318, "tags": {"name": "Emith", "place": "hamlet"}}, {"type": "node", "id": 4027955827, "lat": 36.6015148, "lon": 72.9245749, "tags": {"name": "Gazin", "name:fr": "Gazin", "place": "village"}}, {"type": "node", "id": 4027955829, "lat": 36.4871748, "lon": 72.7085201, "tags": {"name": "Khurgz", "place": "village"}}, {"type": "node", "id": 4027955830, "lat": 36.5078443, "lon": 72.764187, "tags": {"name": "Lushtdan Mastuj", "place": "hamlet"}}, {"type": "node", "id": 4027955831, "lat": 36.4933686, "lon": 72.7240797, "tags": {"name": "Mathing Yarkhoon", "place": "village"}}, {"type": "node", "id": 4027955832, "lat": 36.522834, "lon": 72.7800775, "tags": {"name": "Meragram 2", "place": "village"}}, {"type": "node", "id": 4027955833, "lat": 36.5820608, "lon": 72.8728303, "tags": {"name": "Muli Wasum", "name:fr": "Muli Wasum", "place": "hamlet"}}, {"type": "node", "id": 4027955834, "lat": 36.6059142, "lon": 72.9450451, "tags": {"name": "Nichage", "place": "village"}}, {"type": "node", "id": 4027955835, "lat": 36.5486899, "lon": 72.8101229, "tags": {"name": "Pardan", "place": "village"}}, {"type": "node", "id": 4027955836, "lat": 36.556775, "lon": 72.8045835, "tags": {"name": "Patrangaz", "place": "village"}}, {"type": "node", "id": 4027955837, "lat": 36.4875035, "lon": 72.7388839, "tags": {"name": "Phashk", "place": "village"}}, {"type": "node", "id": 4027955838, "lat": 36.5780647, "lon": 72.8250734, "tags": {"name": "Power", "place": "village"}}, {"type": "node", "id": 4027955839, "lat": 36.5855162, "lon": 72.8614656, "tags": {"name": "Sholkuch", "name:fr": "Sholkuch", "place": "village"}}, {"type": "node", "id": 4027955840, "lat": 36.5019551, "lon": 72.7566338, "tags": {"name": "Such Mastuj", "place": "hamlet"}}, {"type": "node", "id": 4027955841, "lat": 36.5619138, "lon": 72.8112152, "tags": {"name": "Uchoohon", "place": "village"}}, {"type": "node", "id": 4027955842, "lat": 36.5293551, "lon": 72.7889257, "tags": {"name": "Urkarn", "place": "village"}}, {"type": "node", "id": 4027955843, "lat": 36.5867566, "lon": 72.8852985, "tags": {"name": "Wasum", "name:fr": "Wasum", "place": "village"}}, {"type": "node", "id": 4027955844, "lat": 36.5169108, "lon": 72.7744162, "tags": {"name": "Yorjokhun", "place": "village"}}, {"type": "node", "id": 4027955845, "lat": 36.4811877, "lon": 72.7255148, "tags": {"name": "Yukum", "place": "hamlet"}}, {"type": "node", "id": 4027955846, "lat": 36.594527, "lon": 72.8995916, "tags": {"name": "Zhapu", "name:fr": "Zhapu", "place": "village"}}, {"type": "node", "id": 4029337348, "lat": 36.6798229, "lon": 72.913295, "tags": {"name": "Dobarger", "place": "village"}}, {"type": "node", "id": 4029337359, "lat": 36.6651113, "lon": 72.9046776, "tags": {"name": "Onaoch Bala", "place": "village"}}, {"type": "node", "id": 4029337360, "lat": 36.6566571, "lon": 72.9055325, "tags": {"name": "Onaoch Payeen", "place": "village"}}, {"type": "node", "id": 4029337364, "lat": 36.7059802, "lon": 72.9248573, "tags": {"name": "Sukrimuth", "place": "village"}}, {"type": "node", "id": 4029337370, "lat": 36.6482273, "lon": 72.9114462, "tags": {"name": "Zhuli Lasht", "place": "village"}}]}