{"version": 0.6, "generator": "Overpass API 0.7.61.5 4133829e", "osm3s": {"timestamp_osm_base": "2024-03-06T11:02:15Z", "copyright": "The data included in this document is from www.openstreetmap.org. The data is made available under ODbL."}, "elements": [{"type": "node", "id": 2081957651, "lat": -1.0076054, "lon": 38.0062628, "tags": {"amenity": "school", "name": "Musuani Secondary School"}}, {"type": "node", "id": 2877935307, "lat": -1.0697144, "lon": 37.9486128, "tags": {"amenity": "school", "contact:postal": "53 migwani", "name": "Kasanga deb primary school", "place:district": "migwani", "place:division": "nguutani", "place:location": "kasanga", "place:sub_location": "kasanga", "place:village": "kwa ngula", "school:operator": "public"}}, {"type": "node", "id": 2877935308, "lat": -1.0663613, "lon": 37.951113, "tags": {"amenity": "school", "contact:postal": "53-90402 migwani", "name": "Kasanga mixed secondary school", "place:district": "migwani", "place:division": "nguutani", "place:location": "kasanga", "place:sub_location": "kasanga", "place:village": "kwa ngula", "school:operator": "public", "schools:project_quality": "very_good", "schools:project_status": "complete"}}, {"type": "node", "id": 2877935309, "lat": -1.123176, "lon": 37.934337, "tags": {"amenity": "school", "contact:postal": "574 mwingi", "name": "Katoteni primary school", "school:operator": "public"}}, {"type": "node", "id": 2877935310, "lat": -1.1173996, "lon": 37.9308749, "tags": {"amenity": "school", "contact:mobile": "0722588116", "contact:postal": "574-90400 mwingi", "name": "Katoteni secondary school", "place:district": "migwani", "place:division": "nguutani", "place:location": "nzawa", "place:sub_location": "katoteni", "place:village": "katoteni", "project:description": "dining hall by cdf and borehole by ngo", "project:fund_source": "cdf", "school:operator": "public", "schools:project_type": "no"}}, {"type": "node", "id": 2877935314, "lat": -1.1050726, "lon": 37.9473899, "tags": {"amenity": "school", "contact:postal": "22 migwani", "name": "Kavoloi primary school", "place:district": "migwani", "place:division": "nguutani", "place:location": "ngongoni", "place:sub_location": "kavoloi", "place:village": "kavoloi", "school:operator": "public"}}, {"type": "node", "id": 2877935317, "lat": -1.0880253, "lon": 37.9437362, "tags": {"amenity": "school", "contact:postal": "255 mwingi", "name": "Kwa kisenga primary school", "place:district": "migwani", "place:division": "nguutani", "place:location": "ngongoni", "place:sub_location": "ngongoni", "place:village": "ngongoni", "project:description": "borehole", "project:fund_source": "ngo", "school:operator": "public", "schools:project_quality": "good", "schools:project_status": "complete"}}, {"type": "node", "id": 2877935336, "lat": -1.0683846, "lon": 37.9130159, "tags": {"amenity": "school", "contact:postal": "255 mwingi", "name": "Ngongoni primary school", "place:district": "migwani", "place:division": "nguutani", "place:location": "ngongoni", "place:sub_location": "ngongoni", "place:village": "manguva", "project:fund_source": "cdf", "school:operator": "public", "schools:project_quality": "good", "schools:project_status": "complete", "schools:project_type": "yes"}}, {"type": "node", "id": 2877935337, "lat": -1.113193, "lon": 37.9489085, "tags": {"amenity": "school", "contact:postal": "504 migwani", "name": "Ngongoni secondary school", "place:district": "migwani", "place:division": "nguutani", "place:location": "ngongoni", "place:sub_location": "kavoloi", "place:village": "kavoloi", "project:fund_source": "cdf", "school:operator": "public", "schools:project_quality": "very_good", "schools:project_status": "in_progress"}}, {"type": "node", "id": 2877935345, "lat": -1.1068418, "lon": 37.9060095, "tags": {"amenity": "school", "contact:mobile": "0724509625", "contact:postal": "255 mwingi", "name": "Nzawa primary school", "place:district": "migwani", "place:division": "nguutani", "place:location": "nzawa", "place:sub_location": "kakululo", "place:village": "kakululo", "school:operator": "public"}}, {"type": "node", "id": 2877935346, "lat": -1.0997995, "lon": 37.9155602, "tags": {"amenity": "school", "contact:postal": "255 mwingi", "name": "Nzawa secondary school", "place:district": "migwani", "place:division": "nguutani", "place:location": "nzawa", "place:sub_location": "kakululo", "place:village": "kakululo", "project:fund_source": "cdf", "school:operator": "public", "schools:project_quality": "good", "schools:project_status": "complete", "schools:project_type": "yes"}}, {"type": "node", "id": 2877935350, "lat": -1.0724558, "lon": 37.9177753, "tags": {"amenity": "school", "name": "St Marys ngongoni secondary school", "place:district": "migwani", "place:division": "nguutani", "place:location": "ngongoni", "place:sub_location": "ngongoni", "place:village": "manguva", "project:fund_source": "cdf", "school:operator": "public"}}, {"type": "node", "id": 2877935355, "lat": -1.1234228, "lon": 37.9088299, "tags": {"amenity": "school", "name": "Thimu primary school", "place:district": "migwani", "place:division": "nguutani", "place:location": "nzawa", "place:village": "thimu", "school:operator": "public"}}, {"type": "node", "id": 2877935356, "lat": -1.0402301, "lon": 37.9303552, "tags": {"amenity": "school", "contact:email": "thitanigirls@yahoo.com", "contact:mobile": "0724799823", "contact:postal": "46 migwani", "name": "Thitani girls secondary school", "place:district": "migwani", "place:division": "nguutani", "place:location": "thitani", "place:sub_location": "thitani", "place:village": "thitani", "project:description": "library carpeting", "project:fund_money_allocated": "500,000", "project:fund_money_used": "gave only 200,000", "project:fund_source": "cdf", "school:operator": "public", "schools:project_quality": "very_good", "schools:project_status": "complete"}}, {"type": "node", "id": 2877935358, "lat": -1.0488727, "lon": 37.9221146, "tags": {"amenity": "school", "contact:postal": "31-90402 migwani", "name": "Thitani primary school", "place:district": "migwani", "place:division": "nguutani", "place:location": "thitani", "place:sub_location": "thitani", "place:village": "thitani", "project:description": "borehole", "project:fund_source": "ngo", "school:operator": "public", "schools:project_quality": "good", "schools:project_status": "complete"}}, {"type": "node", "id": 2877935360, "lat": -1.045616, "lon": 37.9499817, "tags": {"amenity": "school", "contact:postal": "31 migwani", "name": "Uiini primary school", "place:district": "migwani", "place:division": "nguutani", "place:location": "kasanga", "place:sub_location": "uiini", "place:village": "uiini", "project:description": "another classroom by cando", "project:fund_source": "cdf", "school:operator": "public", "schools:project_quality": "good", "schools:project_status": "complete", "schools:project_type": "yes"}}, {"type": "node", "id": 2877935393, "lat": -1.0149227, "lon": 38.1101304, "tags": {"amenity": "school", "contact:mobile": "0722737833", "contact:postal": "box 185 mwingi", "name": "katalwa primary", "place:district": "mwingi", "place:division": "mumbuni", "place:location": "katalwa", "place:sub_location": "katalwa", "place:village": "katalwa", "project:fund_source": "kessip", "project:number": "1", "school:operator": "public", "school:project_quality": "good", "school:project_status": "stopped", "school:project_type": "classroom"}}, {"type": "node", "id": 2877935394, "lat": -1.016732, "lon": 38.0913977, "tags": {"amenity": "school", "contact:mobile": "0735229565", "contact:postal": "box 296 mwingi", "name": "katalwa secondary", "place:district": "mwingi", "place:division": "mumbuni", "place:location": "katalwa", "place:sub_location": "katalwa", "place:village": "katalwa", "project:description": "dinning hall-not complete,watertank-complete,admin block-not complete all cdf", "project:fund_source": "cdf", "project:number": "4", "school:operator": "public", "school:project_quality": "good", "school:project_status": "not_complete", "school:project_type": "laboratory"}}, {"type": "node", "id": 2877935396, "lat": -1.033804, "lon": 38.0905255, "tags": {"amenity": "school", "contact:mobile": "0724248649", "contact:postal": "box495 mwingi", "name": "kauswini primary", "place:district": "mwingi", "place:division": "mwingi", "place:location": "kanzanzu", "place:sub_location": "mulanga", "place:village": "kauswini", "project:description": "toilet-complete,ngo", "project:fund_source": "cdf", "project:number": "2", "school:operator": "public", "school:project_quality": "good", "school:project_status": "complete", "school:project_type": "watertank"}}, {"type": "node", "id": 2877940677, "lat": -1.0064406, "lon": 38.1005898, "tags": {"amenity": "school", "contact:mobile": "0716646749", "contact:postal": "box 52 mwingi", "name": "mulanga primary", "place:district": "mwingi", "place:division": "mwingi", "place:location": "kanzanzu", "place:sub_location": "kanzanzu", "place:village": "kanzanzu", "school:operator": "public"}}, {"type": "node", "id": 6236068257, "lat": -1.3694418, "lon": 38.0057445, "tags": {"addr:city": "Kitui", "addr:street": "Mbusyani Road", "amenity": "school", "name": "Muslim Primary School"}}, {"type": "node", "id": 6236068279, "lat": -1.3725845, "lon": 37.9849286}, {"type": "node", "id": 6236068280, "lat": -1.3730107, "lon": 37.987949}, {"type": "node", "id": 6236068281, "lat": -1.3761763, "lon": 37.9857812}, {"type": "node", "id": 6236068282, "lat": -1.376018, "lon": 37.9850748}, {"type": "node", "id": 6236068284, "lat": -1.3758742, "lon": 37.9773528}, {"type": "node", "id": 6236068285, "lat": -1.3751849, "lon": 37.9790973}, {"type": "node", "id": 6236068286, "lat": -1.3771702, "lon": 37.9799937}, {"type": "node", "id": 6236068287, "lat": -1.3780456, "lon": 37.978132}, {"type": "node", "id": 6241527907, "lat": -1.0472017, "lon": 38.2385768, "tags": {"amenity": "school", "name": "Africa Inland Church Mathuki Secondary"}}, {"type": "node", "id": 6241533531, "lat": -1.0625352, "lon": 38.2023153, "tags": {"amenity": "school", "name": "Kivula Primary"}}, {"type": "node", "id": 6242423751, "lat": -1.0693433, "lon": 38.1689281, "tags": {"amenity": "school", "name": "Musokani Primary"}}, {"type": "node", "id": 6242505959, "lat": -1.1401579, "lon": 38.1870643, "tags": {"amenity": "school", "name": "Nzia Primary"}}, {"type": "node", "id": 6242518530, "lat": -1.4258686, "lon": 38.2608601, "tags": {"amenity": "school", "name": "Malatani Primary"}}, {"type": "node", "id": 6242526113, "lat": -1.1479093, "lon": 38.2289803, "tags": {"amenity": "school", "name": "Kathumo Primary"}}, {"type": "node", "id": 6243704070, "lat": -1.0884514, "lon": 38.1839832, "tags": {"amenity": "school", "name": "Muyuni Primary"}}, {"type": "node", "id": 6243711127, "lat": -1.0901796, "lon": 38.2238863, "tags": {"amenity": "school", "name": "African Inland Church Makuka Primary"}}, {"type": "node", "id": 6243777062, "lat": -1.3181938, "lon": 38.2139081, "tags": {"amenity": "school", "name": "Kivaki Primary"}}, {"type": "node", "id": 6243785169, "lat": -1.1192239, "lon": 38.2107953, "tags": {"amenity": "school", "name": "Mui Primary"}}, {"type": "node", "id": 6243801120, "lat": -1.0446258, "lon": 38.2378339, "tags": {"amenity": "school", "name": "Mathuki Primary"}}, {"type": "node", "id": 6243819487, "lat": -1.4067006, "lon": 38.183983, "tags": {"amenity": "school", "name": "Mang'ola Primary"}}, {"type": "node", "id": 6243893628, "lat": -1.1115894, "lon": 38.1661636, "tags": {"amenity": "school", "name": "Kyume Secondary"}}, {"type": "node", "id": 6244340321, "lat": -1.2248197, "lon": 38.1876201, "tags": {"amenity": "school", "name": "Mutito Mixed Secondary"}}, {"type": "node", "id": 6244560049, "lat": -1.087413, "lon": 38.1846099, "tags": {"amenity": "school", "name": "African Inland Church Muyuni Secondary"}}, {"type": "node", "id": 6244560050, "lat": -1.1097082, "lon": 38.16524, "tags": {"amenity": "school", "name": "Kyume Primary"}}, {"type": "node", "id": 6244560054, "lat": -1.2325266, "lon": 38.2563522, "tags": {"amenity": "school", "name": "Masasini Primary"}}, {"type": "node", "id": 6244560056, "lat": -1.2281422, "lon": 38.2118654, "tags": {"amenity": "school", "name": "Syobandu Primary"}}, {"type": "node", "id": 6244560058, "lat": -1.2291118, "lon": 38.1977815, "tags": {"amenity": "school", "name": "St Joseph Mutito Secondary"}}, {"type": "node", "id": 6244560060, "lat": -1.1696347, "lon": 38.1504328, "tags": {"amenity": "school", "name": "Mikuyuni Primary"}}, {"type": "node", "id": 6244567401, "lat": -1.0559371, "lon": 38.2989524, "tags": {"amenity": "school", "name": "Matulani Primary"}}, {"type": "node", "id": 6244567554, "lat": -1.0879385, "lon": 38.2258878, "tags": {"amenity": "school", "name": "Kateiko Primary"}}, {"type": "node", "id": 6244567616, "lat": -1.2100674, "lon": 38.2244961, "tags": {"amenity": "school", "name": "Kwa Mailu Primary"}}, {"type": "node", "id": 6244567696, "lat": -1.0471504, "lon": 38.2382347, "tags": {"amenity": "school", "name": "Africa Inland Church Mathuki Secondary"}}, {"type": "node", "id": 6244567697, "lat": -1.0912477, "lon": 38.2195588, "tags": {"amenity": "school", "name": "St michael Ngungi Secondary"}}, {"type": "node", "id": 6244568071, "lat": -1.2202904, "lon": 38.2298963, "tags": {"amenity": "school", "name": "Kwa Tundu Primary"}}, {"type": "node", "id": 6244568073, "lat": -1.218552, "lon": 38.2304454, "tags": {"amenity": "school", "name": "Kwa Tundu Mixed Secondary"}}, {"type": "node", "id": 6244568074, "lat": -1.3897592, "lon": 38.27099, "tags": {"amenity": "school", "name": "Ngelani Primary"}}, {"type": "node", "id": 6244568077, "lat": -1.3607846, "lon": 38.21614, "tags": {"amenity": "school", "name": "Nzunguini Primary"}}, {"type": "node", "id": 6244568082, "lat": -1.4249355, "lon": 38.2647493, "tags": {"amenity": "school", "name": "Malatani Secondary"}}, {"type": "node", "id": 6244568395, "lat": -1.1734694, "lon": 38.2098481, "tags": {"amenity": "school", "name": "Yoonye Primary"}}, {"type": "node", "id": 6244570073, "lat": -1.2446527, "lon": 38.1868583, "tags": {"amenity": "school", "name": "Kilanga Primary"}}, {"type": "node", "id": 6244570075, "lat": -1.2262034, "lon": 38.181923, "tags": {"amenity": "school", "name": "Mutito Girls Secondary"}}, {"type": "node", "id": 6244570076, "lat": -1.2240582, "lon": 38.1884891, "tags": {"amenity": "school", "name": "Mutito Primary"}}, {"type": "node", "id": 6244571794, "lat": -1.3344909, "lon": 38.2362199, "tags": {"amenity": "school", "name": "Itangani Primary"}}, {"type": "node", "id": 6244571871, "lat": -1.4064271, "lon": 38.212637, "tags": {"amenity": "school", "name": "Ithangathi Primary"}}, {"type": "node", "id": 6244573241, "lat": -1.1200692, "lon": 38.2104349, "tags": {"amenity": "school", "name": "St Thomas Aquinas Mui Boys Secondary"}}, {"type": "node", "id": 6244573544, "lat": -1.2410916, "lon": 38.2948762, "tags": {"amenity": "school", "name": "Kamunyu Primary"}}, {"type": "node", "id": 6244573545, "lat": -1.2692823, "lon": 38.2533482, "tags": {"amenity": "school", "name": "Kitivo Primary"}}, {"type": "node", "id": 6244574147, "lat": -1.4051561, "lon": 38.2138521, "tags": {"amenity": "school", "name": "Ithangani Girls Secondary"}}, {"type": "node", "id": 6244575171, "lat": -1.2961545, "lon": 38.2972417, "tags": {"amenity": "school", "name": "Kaliku Mixed Secondary"}}, {"type": "node", "id": 6244575351, "lat": -1.0436775, "lon": 38.2783538, "tags": {"amenity": "school", "name": "Kimongo Secondary"}}, {"type": "node", "id": 6244575438, "lat": -1.0455655, "lon": 38.2849628, "tags": {"amenity": "school", "name": "Kimongo Primary"}}, {"type": "node", "id": 6244576674, "lat": -1.1066937, "lon": 38.275043, "tags": {"amenity": "school", "name": "Nguueni Primary"}}, {"type": "node", "id": 6244576676, "lat": -1.0625674, "lon": 38.2025514, "tags": {"amenity": "school", "name": "Kivula Primary"}}, {"type": "node", "id": 6244576677, "lat": -1.0522209, "lon": 38.1557422, "tags": {"amenity": "school", "name": "Kivyuni Primary"}}, {"type": "node", "id": 6244576679, "lat": -1.2767089, "lon": 38.1984928, "tags": {"amenity": "school", "name": "Itiko Mixed Secondary"}}, {"type": "node", "id": 6244576681, "lat": -1.2030244, "lon": 38.1716278, "tags": {"amenity": "school", "name": "Uwu Primary"}}, {"type": "node", "id": 6244576682, "lat": -1.1725021, "lon": 38.1862566, "tags": {"amenity": "school", "name": "Musukini Primary"}}, {"type": "node", "id": 6244578176, "lat": -1.1114832, "lon": 38.2723018, "tags": {"amenity": "school", "name": "Nduu Vani Primary"}}, {"type": "node", "id": 6244578177, "lat": -1.0282312, "lon": 38.1764665, "tags": {"amenity": "school", "name": "Lundi Secondary"}}, {"type": "node", "id": 6244578179, "lat": -1.112808, "lon": 38.1893089, "tags": {"amenity": "school", "name": "Nzamani Primary"}}, {"type": "node", "id": 6244578180, "lat": -1.1550284, "lon": 38.2614067, "tags": {"amenity": "school", "name": "Wangwiu Primary"}}, {"type": "node", "id": 6244578184, "lat": -1.1827245, "lon": 38.2565358, "tags": {"amenity": "school", "name": "Kithituni Primary"}}, {"type": "node", "id": 6244578229, "lat": -1.0857119, "lon": 38.2505813, "tags": {"amenity": "school", "name": "African Inland Church Makuka Primary"}}, {"type": "node", "id": 6244578231, "lat": -1.0286174, "lon": 38.1758227, "tags": {"amenity": "school", "name": "Lundi Primary"}}, {"type": "node", "id": 6244578232, "lat": -1.1099815, "lon": 38.2395681, "tags": {"amenity": "school", "name": "Kalikoni Primary"}}, {"type": "node", "id": 6244578233, "lat": -1.0853472, "lon": 38.1608131, "tags": {"amenity": "school", "name": "Mwambuni Primary"}}, {"type": "node", "id": 6244578234, "lat": -1.252886, "lon": 38.2259157, "tags": {"amenity": "school", "name": "Kitakani Primary"}}, {"type": "node", "id": 6244578235, "lat": -1.2743921, "lon": 38.1982353, "tags": {"amenity": "school", "name": "Itiko Primary"}}, {"type": "node", "id": 6244578237, "lat": -1.1838508, "lon": 38.2067218, "tags": {"amenity": "school", "name": "Kalua Child Development School"}}, {"type": "node", "id": 6244578466, "lat": -1.2909532, "lon": 38.2250145, "tags": {"amenity": "school", "name": "Kyaimu Primary"}}, {"type": "node", "id": 6244579707, "lat": -1.2177563, "lon": 38.2950959, "tags": {"amenity": "school", "name": "Manyoeni Primary"}}, {"type": "node", "id": 6244579709, "lat": -1.4172053, "lon": 38.1423307, "tags": {"amenity": "school", "name": "St.Joseph Inyuu Primary Boarding"}}, {"type": "node", "id": 6244579711, "lat": -1.4340712, "lon": 38.1499214, "tags": {"amenity": "school", "name": "Kwa Mutei Primary"}}, {"type": "node", "id": 6244579819, "lat": -1.4254103, "lon": 38.1630106, "tags": {"amenity": "school", "name": "Kathande Primary"}}, {"type": "node", "id": 8478428285, "lat": -1.0971, "lon": 37.9584683, "tags": {"amenity": "school", "name": "David Musila Secondary School"}}, {"type": "node", "id": 8478428286, "lat": -1.0966542, "lon": 37.9578843, "tags": {"amenity": "school", "name": "David Musila Primary School"}}, {"type": "way", "id": 666087405, "nodes": [6236068279, 6236068280, 6236068281, 6236068282, 6236068279], "tags": {"addr:city": "Kitui", "addr:street": "Mbusyani Road", "amenity": "school", "name": "St.Ursula Girls High School"}}, {"type": "way", "id": 666087407, "nodes": [6236068284, 6236068285, 6236068286, 6236068287, 6236068284], "tags": {"addr:city": "Kitui", "addr:street": "Mbusyani Road", "amenity": "school", "name": "St. Charles Lwanga Secondary School"}}]}