{"version": 0.6, "generator": "Overpass API 0.7.61.5 4133829e", "osm3s": {"timestamp_osm_base": "2024-03-05T15:10:00Z", "copyright": "The data included in this document is from www.openstreetmap.org. The data is made available under ODbL."}, "elements": [{"type": "node", "id": 27561960, "lat": 65.835667, "lon": 24.1357213, "tags": {"name": "Haparanda", "name:be": "\u0425\u0430\u043f\u0430\u0440\u0430\u043d\u0434\u0430", "name:bg": "\u0425\u0430\u043f\u0430\u0440\u0430\u043d\u0434\u0430", "name:fa": "\u0647\u0627\u067e\u0627\u0631\u0627\u0646\u062f\u0627", "name:fi": "Haaparanta", "name:fit": "Haaparanta", "name:ja": "\u30cf\u30d1\u30e9\u30f3\u30c0", "name:ko": "\ud558\ud30c\ub780\ub2e4", "name:ru": "\u0425\u0430\u043f\u0430\u0440\u0430\u043d\u0434\u0430", "name:sv": "Haparanda", "name:uk": "\u0413\u0430\u043f\u0430\u0440\u0430\u043d\u0434\u0430", "name:zh": "\u54c8\u5e15\u5170\u8fbe", "place": "town", "population": "4778", "ref:se:pts:postort": "HAPARANDA", "ref:se:scb": "8604", "wikidata": "Q588976"}}, {"type": "node", "id": 30969802, "lat": 65.8457589, "lon": 24.1464, "tags": {"gns:ufi": "-1389391", "name": "Tornio", "name:fi": "Tornio", "name:lt": "Tornijas", "name:ru": "\u0422\u043e\u0440\u043d\u0438\u043e", "name:sv": "Torne\u00e5", "note": "This should NOT be tagged a city, see wiki.openstreetmap.org/index.php/WikiProject_Finland/Places", "place": "town", "population": "21465", "population:date": "2021-01", "source:population": "Tilastokeskus", "website": "https://www.tornio.fi/", "wikidata": "Q214021", "wikipedia": "en:Tornio"}}, {"type": "node", "id": 36136467, "lat": 65.9186978, "lon": 23.4579859, "tags": {"created_by": "JOSM", "name": "Bj\u00f6rkfors", "place": "village"}}, {"type": "node", "id": 57977545, "lat": 65.8557891, "lon": 23.4957498, "tags": {"name": "Sangis", "place": "village", "ref:se:pts:postort": "SANGIS", "ref:se:scb": "8836"}}, {"type": "node", "id": 281872970, "lat": 65.9740729, "lon": 24.0678377, "tags": {"name": "Kukkola", "place": "village", "source": "survey"}}, {"type": "node", "id": 331212569, "lat": 66.2355171, "lon": 23.6779344, "tags": {"alt_name:fi": "Koivunkyl\u00e4", "name": "Heden\u00e4set", "name:fi": "Hietaniemi", "name:fit": "Hietaniemi", "name:sv": "Heden\u00e4set", "place": "village", "population": "270", "ref:se:pts:postort": "HEDEN\u00c4SET", "ref:se:scb": "8612"}}, {"type": "node", "id": 618594820, "lat": 65.8254759, "lon": 24.0562663, "tags": {"name": "Vuono", "place": "village"}}, {"type": "node", "id": 786711747, "lat": 65.9154408, "lon": 24.1430781, "tags": {"name": "Ala-Vojakkala", "place": "hamlet"}}, {"type": "node", "id": 786711749, "lat": 65.9346793, "lon": 24.1037775, "tags": {"name": "Yli-Vojakkala", "place": "hamlet"}}, {"type": "node", "id": 809510765, "lat": 66.1541964, "lon": 23.9337797, "tags": {"name": "Korpikyl\u00e4", "place": "hamlet", "population": "130"}}, {"type": "node", "id": 809510792, "lat": 66.1135288, "lon": 23.953544, "tags": {"name": "Nivanp\u00e4\u00e4", "place": "hamlet"}}, {"type": "node", "id": 809513288, "lat": 66.0403001, "lon": 24.018313, "tags": {"name": "Karunki", "name:fi": "Karunki", "name:sv": "Karungi", "place": "village", "population": "493", "population:date": "2020-12-31", "source:population": "Statistics Finland", "wikidata": "Q18659888", "wikipedia": "fi:Karunki (taajama)"}}, {"type": "node", "id": 873925401, "lat": 66.0942571, "lon": 24.0516865, "tags": {"name": "Ryyn\u00e4senp\u00e4\u00e4", "place": "hamlet"}}, {"type": "node", "id": 873925404, "lat": 66.0674213, "lon": 24.0306316, "tags": {"name": "Aaronp\u00e4\u00e4", "place": "hamlet"}}, {"type": "node", "id": 1373484331, "lat": 66.1093226, "lon": 23.9331449, "tags": {"name": "S\u00f6dra Korpikyl\u00e4", "place": "hamlet"}}, {"type": "node", "id": 1399601388, "lat": 66.2836653, "lon": 23.6448386, "tags": {"alt_name": "Luppio", "name": "Niemis", "place": "hamlet", "wikidata": "Q2106573", "wikipedia": "sv:Niemis"}}, {"type": "node", "id": 1839599697, "lat": 66.2806574, "lon": 23.6940584, "tags": {"name": "Nuotioranta", "place": "hamlet", "source": "survey"}}, {"type": "node", "id": 1839599699, "lat": 66.2596395, "lon": 23.7122759, "tags": {"name": "Armassaari", "place": "hamlet", "source": "survey"}}, {"type": "node", "id": 1839599700, "lat": 66.227682, "lon": 23.7701687, "tags": {"name": "Kainuunkyl\u00e4", "place": "hamlet", "source": "survey"}}, {"type": "node", "id": 2236207152, "lat": 66.0306986, "lon": 23.5133438, "tags": {"name": "Lapptr\u00e4sk", "place": "hamlet", "ref:se:pts:postort": "LAPPTR\u00c4SK"}}, {"type": "node", "id": 2277737245, "lat": 66.1879352, "lon": 23.8110185, "tags": {"name": "Pekanp\u00e4\u00e4", "place": "hamlet", "source": "survey"}}, {"type": "node", "id": 2277737247, "lat": 66.008821, "lon": 24.0664798, "tags": {"name": "Napinm\u00e4ki", "place": "hamlet", "source": "survey", "wikidata": "Q103974746"}}, {"type": "node", "id": 2419020874, "lat": 66.0445536, "lon": 23.9530278, "tags": {"name": "Karungi", "name:fi": "Karunki", "name:fit": "Karunki", "name:sv": "Karungi", "place": "village", "ref:se:pts:postort": "KARUNGI", "ref:se:scb": "8672"}}, {"type": "node", "id": 2752723401, "lat": 66.1981672, "lon": 23.7110757, "tags": {"alt_name:fi": "P\u00e4kkil\u00e4", "name": "B\u00e4ckesta", "place": "hamlet"}}, {"type": "node", "id": 3037338930, "lat": 66.1579492, "lon": 23.6392574, "tags": {"name": "Vuomaj\u00e4rvi", "place": "hamlet"}}, {"type": "node", "id": 3037352770, "lat": 66.1179881, "lon": 23.7244035, "tags": {"name": "Matoj\u00e4rvi", "place": "hamlet"}}, {"type": "node", "id": 3118817203, "lat": 66.0074441, "lon": 23.4835576, "tags": {"name": "Anttila", "place": "hamlet"}}, {"type": "node", "id": 3119448129, "lat": 66.0084425, "lon": 23.4555253, "tags": {"name": "Hakkanen", "name:sv": "Hakkas", "place": "hamlet"}}, {"type": "node", "id": 3119448351, "lat": 66.0058167, "lon": 23.456497, "tags": {"name": "Lahti", "place": "hamlet"}}, {"type": "node", "id": 3121405096, "lat": 65.8609684, "lon": 24.1214863, "tags": {"name": "Nyland", "place": "hamlet"}}, {"type": "node", "id": 3121405097, "lat": 65.8599148, "lon": 24.1176584, "tags": {"name": "Purra", "place": "hamlet"}}, {"type": "node", "id": 3121405098, "lat": 65.8655274, "lon": 24.1182843, "tags": {"name": "Mattila", "place": "hamlet"}}, {"type": "node", "id": 3128209477, "lat": 66.0283256, "lon": 23.4773791, "tags": {"name": "Sakkis", "place": "hamlet"}}, {"type": "node", "id": 3272235781, "lat": 66.2670029, "lon": 23.4212631, "tags": {"name": "Liehitt\u00e4j\u00e4", "place": "hamlet"}}, {"type": "node", "id": 3272261434, "lat": 66.2761595, "lon": 23.5162902, "tags": {"name": "Puhkuri", "place": "hamlet"}}, {"type": "node", "id": 3274275883, "lat": 66.1618004, "lon": 23.8606583, "tags": {"name": "Taipale", "place": "hamlet"}}, {"type": "node", "id": 3277986000, "lat": 66.1962948, "lon": 23.3843714, "tags": {"name": "Persomaj\u00e4rvi", "place": "hamlet"}}, {"type": "node", "id": 3366859052, "lat": 65.9638413, "lon": 24.0455608, "tags": {"name": "Kukkola", "place": "hamlet"}}, {"type": "node", "id": 3366859053, "lat": 65.9639352, "lon": 24.0364, "tags": {"name": "Kukkola", "place": "hamlet"}}, {"type": "node", "id": 3446180339, "lat": 66.0445596, "lon": 23.6461847, "tags": {"name": "K\u00e4rrb\u00e4ck", "name:fi": "V\u00e4likoski", "name:sv": "K\u00e4rrb\u00e4ck", "place": "hamlet"}}, {"type": "node", "id": 3514849217, "lat": 66.1661072, "lon": 23.4788498, "tags": {"name": "Norra Pallakka", "place": "hamlet"}}, {"type": "node", "id": 3517633658, "lat": 66.0912827, "lon": 23.9260956, "tags": {"name": "Kankaanranta", "place": "hamlet"}}, {"type": "node", "id": 3517726087, "lat": 65.9643588, "lon": 23.6749403, "tags": {"name": "Aavaj\u00e4rvi", "place": "hamlet", "wikidata": "Q2159648"}}, {"type": "node", "id": 3907023953, "lat": 66.1446456, "lon": 23.701752, "tags": {"name": "Vitb\u00e4cken", "place": "hamlet"}}, {"type": "node", "id": 4030198046, "lat": 66.2125368, "lon": 23.526868, "tags": {"name": "Litti\u00e4inen", "place": "hamlet"}}, {"type": "node", "id": 4195577860, "lat": 66.025584, "lon": 24.0294842, "tags": {"name": "Husanp\u00e4\u00e4", "place": "hamlet"}}, {"type": "node", "id": 4195609120, "lat": 66.0530636, "lon": 24.0169509, "tags": {"name": "Rousunp\u00e4\u00e4", "place": "hamlet"}}, {"type": "node", "id": 4195609121, "lat": 66.046768, "lon": 24.0233475, "tags": {"name": "Palokangas", "place": "hamlet"}}, {"type": "node", "id": 4195689793, "lat": 66.0124071, "lon": 24.089, "tags": {"name": "Ker\u00e4senp\u00e4\u00e4", "place": "hamlet", "wikidata": "Q103974751"}}, {"type": "node", "id": 4284855202, "lat": 66.2590506, "lon": 24.0814933, "tags": {"name": "V\u00e4yst\u00e4j\u00e4", "place": "hamlet"}}, {"type": "node", "id": 4284855339, "lat": 66.2090305, "lon": 23.7864316, "tags": {"name": "Poikkilahti", "place": "hamlet"}}, {"type": "node", "id": 4284855495, "lat": 66.2255748, "lon": 23.7656323, "tags": {"name": "Kainuunkyl\u00e4", "place": "village"}}, {"type": "node", "id": 4288785961, "lat": 66.1734258, "lon": 23.8778461, "tags": {"name": "Martimo", "place": "hamlet"}}, {"type": "node", "id": 4353937524, "lat": 66.0713524, "lon": 23.9864286, "tags": {"name": "Hoolinp\u00e4\u00e4", "place": "hamlet", "wikidata": "Q103975562"}}, {"type": "node", "id": 4353937564, "lat": 66.0814168, "lon": 23.9755815, "tags": {"name": "Viidanp\u00e4\u00e4", "place": "hamlet"}}, {"type": "node", "id": 4355795786, "lat": 66.0952281, "lon": 23.9457248, "tags": {"name": "Rautionp\u00e4\u00e4", "place": "hamlet"}}, {"type": "node", "id": 4464642844, "lat": 65.8748092, "lon": 23.5920606, "tags": {"name": "Sangij\u00e4rvi", "place": "hamlet"}}, {"type": "node", "id": 4466052832, "lat": 65.9175566, "lon": 23.6383093, "tags": {"name": "Naartij\u00e4rvi", "place": "hamlet"}}, {"type": "node", "id": 4466053794, "lat": 65.9377147, "lon": 23.531609, "tags": {"name": "L\u00e5ngtr\u00e4sk", "place": "hamlet"}}, {"type": "node", "id": 4466053860, "lat": 65.9757403, "lon": 23.4029117, "tags": {"name": "Myrdalen", "place": "hamlet"}}, {"type": "node", "id": 4466053954, "lat": 66.0403776, "lon": 23.3044367, "tags": {"name": "Bodtr\u00e4skby", "place": "hamlet"}}, {"type": "node", "id": 4466180917, "lat": 65.9486493, "lon": 23.2941062, "tags": {"name": "H\u00f6rmyrfors", "place": "hamlet"}}, {"type": "node", "id": 4466293315, "lat": 66.1131468, "lon": 23.3059191, "tags": {"name": "Kukasj\u00e4rvi", "place": "hamlet"}}, {"type": "node", "id": 4466299744, "lat": 66.0914827, "lon": 23.3629466, "tags": {"name": "Taipale", "place": "hamlet"}}, {"type": "node", "id": 4466299895, "lat": 66.0958459, "lon": 23.4542169, "tags": {"name": "Penikkaj\u00e4rvi", "place": "hamlet"}}, {"type": "node", "id": 4466299896, "lat": 66.1072519, "lon": 23.4868849, "tags": {"name": "Koutoj\u00e4rvi", "place": "hamlet"}}, {"type": "node", "id": 6450064744, "lat": 65.887459, "lon": 23.8425138, "tags": {"name": "Parviainen", "place": "hamlet"}}, {"type": "node", "id": 6450064748, "lat": 65.8519461, "lon": 23.8887122, "tags": {"name": "Ker\u00e4sjoki", "place": "hamlet", "population": "88"}}, {"type": "node", "id": 6450064749, "lat": 65.9479783, "lon": 23.798576, "tags": {"name": "Kattilasaari", "place": "village", "population": "28"}}, {"type": "node", "id": 6450064750, "lat": 65.9886832, "lon": 23.7907855, "tags": {"name": "Ker\u00e4sj\u00e4nkk\u00e4", "place": "hamlet"}}, {"type": "node", "id": 7468425369, "lat": 66.1535905, "lon": 23.4805891, "tags": {"name": "S\u00f6dra Pallakka", "place": "hamlet"}}, {"type": "node", "id": 7469181218, "lat": 65.9319337, "lon": 23.3587032, "tags": {"name": "Empoberget", "place": "hamlet"}}, {"type": "node", "id": 7469301674, "lat": 65.9409881, "lon": 23.3298852, "tags": {"name": "Mo\u00e5n", "place": "hamlet"}}, {"type": "node", "id": 7469312859, "lat": 65.9131634, "lon": 23.421123, "tags": {"name": "Kvarnudden", "place": "hamlet"}}, {"type": "node", "id": 7469313110, "lat": 65.8559153, "lon": 23.6502639, "tags": {"name": "Sattaoja", "place": "hamlet"}}, {"type": "node", "id": 7469313243, "lat": 65.9444021, "lon": 23.4545249, "tags": {"name": "H\u00e4llfors", "place": "hamlet"}}, {"type": "node", "id": 7469318309, "lat": 65.9114562, "lon": 23.368409, "tags": {"name": "S\u00e4nkmyran", "place": "hamlet"}}, {"type": "node", "id": 7469319817, "lat": 65.9226196, "lon": 23.4159766, "tags": {"name": "Gran\u00e5n", "place": "hamlet"}}, {"type": "node", "id": 7469321017, "lat": 65.9815532, "lon": 23.4612673, "tags": {"name": "Jyrkk\u00e4", "place": "hamlet"}}, {"type": "node", "id": 7469321957, "lat": 65.9048527, "lon": 24.0975807, "tags": {"name": "Ala-Vojakkala", "place": "hamlet"}}, {"type": "node", "id": 7469325998, "lat": 65.9296246, "lon": 23.4548586, "tags": {"name": "Nystan", "place": "hamlet"}}, {"type": "node", "id": 7469327724, "lat": 65.9810593, "lon": 23.4683778, "tags": {"name": "L\u00e5ngbacken", "place": "hamlet"}}, {"type": "node", "id": 7469331492, "lat": 65.9325956, "lon": 23.4596313, "tags": {"name": "Strandbacken", "place": "hamlet"}}, {"type": "node", "id": 7469333729, "lat": 65.8987287, "lon": 23.832177, "tags": {"name": "Vittikko", "place": "hamlet"}}, {"type": "node", "id": 7469334350, "lat": 65.9053451, "lon": 24.0978138, "tags": {"name": "Nedre Vojakkala", "place": "hamlet"}}, {"type": "node", "id": 7469338613, "lat": 65.9333639, "lon": 23.8203539, "tags": {"name": "Haapasaari", "place": "hamlet"}}, {"type": "node", "id": 7469340206, "lat": 65.9895454, "lon": 23.4797978, "tags": {"name": "Kangas", "place": "hamlet"}}, {"type": "node", "id": 7469341160, "lat": 65.9702944, "lon": 23.4631687, "tags": {"name": "Tandfors", "place": "hamlet"}}, {"type": "node", "id": 7469341969, "lat": 65.8408457, "lon": 23.8942811, "tags": {"name": "Korva", "place": "hamlet"}}, {"type": "node", "id": 7469342778, "lat": 65.8556679, "lon": 23.8804069, "tags": {"name": "Alatalo", "place": "hamlet"}}, {"type": "node", "id": 7469343949, "lat": 65.9376204, "lon": 24.0716917, "tags": {"name": "Karsikko", "place": "hamlet"}}, {"type": "node", "id": 7469344568, "lat": 65.9513954, "lon": 23.8126962, "tags": {"name": "Triki", "place": "hamlet"}}, {"type": "node", "id": 7469345830, "lat": 65.9261856, "lon": 24.0747431, "tags": {"name": "Yli-Vojakkala", "place": "hamlet"}}, {"type": "node", "id": 7469346731, "lat": 65.9579702, "lon": 24.0326479, "tags": {"name": "Koskenp\u00e4\u00e4", "place": "hamlet"}}, {"type": "node", "id": 7469349124, "lat": 65.9265334, "lon": 24.0769277, "tags": {"name": "\u00d6vre Vojakkala", "place": "hamlet"}}, {"type": "node", "id": 7469353610, "lat": 65.8583307, "lon": 24.1089985, "tags": {"name": "Lugnet", "place": "hamlet"}}, {"type": "node", "id": 7469390870, "lat": 66.1129232, "lon": 23.3270258, "tags": {"name": "Penttil\u00e4", "place": "hamlet"}}, {"type": "node", "id": 7469401058, "lat": 66.0481809, "lon": 23.6133054, "tags": {"name": "Pikkuvaara", "place": "hamlet"}}, {"type": "node", "id": 7469415679, "lat": 66.1840964, "lon": 23.393704, "tags": {"name": "Salmi", "place": "hamlet"}}, {"type": "node", "id": 7469416243, "lat": 65.9980806, "lon": 23.4901759, "tags": {"name": "Kotivaara", "place": "hamlet"}}, {"type": "node", "id": 7469420159, "lat": 66.0504508, "lon": 23.6963056, "tags": {"name": "Lapiomaa", "place": "hamlet"}}, {"type": "node", "id": 7469422161, "lat": 66.1364814, "lon": 23.9002948, "tags": {"name": "Barsk", "place": "hamlet"}}, {"type": "node", "id": 7469423582, "lat": 66.0629689, "lon": 23.2641689, "tags": {"name": "Flakadalen", "place": "hamlet"}}, {"type": "node", "id": 7469424482, "lat": 66.1206438, "lon": 23.75589, "tags": {"name": "Ker\u00e4nen", "place": "hamlet"}}, {"type": "node", "id": 7469424774, "lat": 66.0197166, "lon": 23.8715393, "tags": {"name": "Karhuvaara", "place": "hamlet"}}, {"type": "node", "id": 7469428744, "lat": 66.1250155, "lon": 23.7299383, "tags": {"name": "Takaj\u00e4nkk\u00e4", "place": "hamlet"}}, {"type": "node", "id": 7469430220, "lat": 66.0406734, "lon": 23.8624866, "tags": {"name": "Ylivaara", "place": "hamlet"}}, {"type": "node", "id": 7469430488, "lat": 66.1258787, "lon": 23.4837099, "tags": {"name": "Koiraniemi", "place": "hamlet"}}, {"type": "node", "id": 7469433249, "lat": 66.1523193, "lon": 23.6797642, "tags": {"name": "Korvi", "place": "hamlet"}}, {"type": "node", "id": 7469436375, "lat": 66.0239486, "lon": 23.8526717, "tags": {"name": "Tossa", "place": "hamlet"}}, {"type": "node", "id": 7469436604, "lat": 66.0241236, "lon": 23.9925133, "tags": {"name": "Frankkilant\u00f6rm\u00e4", "place": "hamlet"}}, {"type": "node", "id": 7469436771, "lat": 66.0626832, "lon": 23.9323143, "tags": {"name": "Lehtikangas", "place": "hamlet"}}, {"type": "node", "id": 7469437529, "lat": 66.0465596, "lon": 23.9425731, "tags": {"name": "Navettakangas", "place": "hamlet"}}, {"type": "node", "id": 7469437811, "lat": 65.9948616, "lon": 24.0124804, "tags": {"name": "H\u00e4rk\u00e4niemi", "place": "hamlet"}}, {"type": "node", "id": 7469438023, "lat": 66.0376209, "lon": 23.6974103, "tags": {"name": "Kangas", "place": "hamlet"}}, {"type": "node", "id": 7469438721, "lat": 66.0394519, "lon": 23.7170325, "tags": {"name": "Haara", "place": "hamlet"}}, {"type": "node", "id": 7469440112, "lat": 66.0418912, "lon": 23.681151, "tags": {"name": "Liikamaa", "place": "hamlet"}}, {"type": "node", "id": 7469440503, "lat": 66.0173381, "lon": 23.4739301, "tags": {"name": "Kauppila", "place": "hamlet"}}, {"type": "node", "id": 7469440630, "lat": 65.9873679, "lon": 23.7721948, "tags": {"name": "Iso-Kentt\u00e4", "place": "hamlet"}}, {"type": "node", "id": 7469441829, "lat": 66.0294457, "lon": 23.8725185, "tags": {"name": "Rausti", "place": "hamlet"}}, {"type": "node", "id": 7469442210, "lat": 66.0630305, "lon": 23.9297422, "tags": {"name": "L\u00f6vheden", "place": "hamlet"}}, {"type": "node", "id": 7469442211, "lat": 66.0116078, "lon": 24.0021938, "tags": {"name": "Yli-Kukkola", "place": "hamlet"}}, {"type": "node", "id": 7469448236, "lat": 65.9857485, "lon": 24.03442, "tags": {"name": "Ala-Kukkola", "place": "hamlet"}}, {"type": "node", "id": 7469448805, "lat": 66.1123108, "lon": 23.9321836, "tags": {"name": "Vaara", "place": "hamlet"}}, {"type": "node", "id": 7469453085, "lat": 66.0011386, "lon": 24.0151141, "tags": {"name": "Vaaranp\u00e4\u00e4lyst\u00e4", "place": "hamlet"}}, {"type": "node", "id": 7469468567, "lat": 66.1643449, "lon": 23.8551605, "tags": {"name": "Potila", "place": "hamlet"}}, {"type": "node", "id": 7469470071, "lat": 66.1194409, "lon": 23.9102537, "tags": {"name": "Korpikyl\u00e4", "place": "hamlet"}}, {"type": "node", "id": 7469470962, "lat": 66.1876656, "lon": 23.7199406, "tags": {"name": "Mansikka", "place": "hamlet"}}, {"type": "node", "id": 7469471309, "lat": 66.1408038, "lon": 23.8986065, "tags": {"name": "Sipola", "place": "hamlet"}}, {"type": "node", "id": 7469471657, "lat": 66.116147, "lon": 23.9284815, "tags": {"name": "Perttu", "place": "hamlet"}}, {"type": "node", "id": 7469473558, "lat": 66.1281392, "lon": 23.9008066, "tags": {"name": "Harju", "place": "hamlet"}}, {"type": "node", "id": 7469474881, "lat": 66.1813068, "lon": 23.7745233, "tags": {"name": "Vitsaniemi", "name:fi": "Vitsaniemi", "place": "hamlet"}}, {"type": "node", "id": 7469477085, "lat": 66.1814675, "lon": 23.7748029, "tags": {"name": "Risudden", "name:sv": "Risudden", "place": "hamlet"}}]}