{"version": 0.6, "generator": "Overpass API 0.7.61.5 4133829e", "osm3s": {"timestamp_osm_base": "2024-03-06T11:43:14Z", "copyright": "The data included in this document is from www.openstreetmap.org. The data is made available under ODbL."}, "elements": [{"type": "node", "id": 44910346, "lat": -3.4047687, "lon": 38.3673001, "tags": {"is_in": "Taita taveta,Kenya", "name": "Wundanyi", "place": "town", "population": "4000", "population:source": "1999 census", "wikidata": "Q3056743", "wikipedia": "en:Wundanyi"}}, {"type": "node", "id": 44910362, "lat": -3.3166, "lon": 38.4333, "tags": {"GNS:id": "-2264775", "is_in": "Taita taveta,Kenya", "name": "Wongonyi", "place": "village", "source:name": "GNS"}}, {"type": "node", "id": 44913688, "lat": -3.4, "lon": 38.35, "tags": {"GNS:id": "-2264721", "is_in": "Taita taveta,Kenya", "name": "Wesu", "place": "village", "source:name": "GNS"}}, {"type": "node", "id": 44914176, "lat": -3.3976842, "lon": 38.584327, "tags": {"is_in:country": "Kenya", "is_in:county": "Taita taveta", "name": "Voi", "name:ru": "\u0412\u043e\u0438", "place": "town", "wikidata": "Q1552910", "wikimedia_commons": "Category:Voi", "wikipedia": "en:Voi"}}, {"type": "node", "id": 44915011, "lat": -3.3919069, "lon": 38.3653757, "tags": {"GNS:id": "-2263115", "is_in": "Taita taveta,Kenya", "name": "Sungululu", "place": "village", "source:name": "GNS"}}, {"type": "node", "id": 44915150, "lat": -3.5285545, "lon": 38.5840902, "tags": {"GNS:id": "-2263235", "is_in": "Taita taveta,Kenya", "name": "Talio", "place": "village", "source:name": "GNS"}}, {"type": "node", "id": 44915386, "lat": -3.4347147, "lon": 38.4642562, "tags": {"GNS:id": "-2262405", "is_in": "Taita taveta,Kenya", "name": "Shelemba", "place": "village", "source:name": "GNS"}}, {"type": "node", "id": 44915396, "lat": -3.4098942, "lon": 38.3758981, "tags": {"is_in": "Taita taveta,Kenya", "name": "Shigaro", "place": "village"}}, {"type": "node", "id": 44917763, "lat": -3.4915693, "lon": 38.5932316, "tags": {"GNS:id": "-2261968", "is_in": "Taita taveta,Kenya", "name": "Sagala", "place": "village", "source:name": "GNS"}}, {"type": "node", "id": 44924333, "lat": -3.425687, "lon": 38.642125, "tags": {"is_in": "Taita taveta,Kenya", "name": "Ngutuni", "place": "village", "wikidata": "Q7022745", "wikipedia": "en:Ngutuni"}}, {"type": "node", "id": 44924637, "lat": -3.3016849, "lon": 38.4859253, "tags": {"is_in": "Taita taveta,Kenya", "name": "Ndome", "place": "village", "wikidata": "Q6983794", "wikipedia": "en:Ndome"}}, {"type": "node", "id": 44924685, "lat": -3.3367203, "lon": 38.4794961, "tags": {"is_in": "Taita taveta,Kenya", "name": "Tausa", "place": "village", "wikidata": "Q6983752", "wikipedia": "en:Ndile"}}, {"type": "node", "id": 44925183, "lat": -3.5028625, "lon": 38.3795406, "tags": {"is_in": "Taita taveta,Kenya", "name": "Mwatate", "place": "town", "wikidata": "Q6944702", "wikipedia": "en:Mwatate"}}, {"type": "node", "id": 44925188, "lat": -3.3666, "lon": 38.35, "tags": {"is_in": "Taita taveta,Kenya", "name": "Mwarungu", "place": "village", "wikidata": "Q6944695", "wikipedia": "en:Mwarungu"}}, {"type": "node", "id": 44925653, "lat": -3.4382463, "lon": 38.3854097, "tags": {"GNS:id": "-2257637", "is_in": "Taita taveta,Kenya", "name": "Mwachawaza", "place": "village", "source:name": "GNS"}}, {"type": "node", "id": 44926020, "lat": -3.4330223, "lon": 38.4226787, "tags": {"is_in": "Taita taveta,Kenya", "name": "Mwakinyungu", "place": "village", "wikidata": "Q6944622", "wikipedia": "en:Mwakinyungu"}}, {"type": "node", "id": 44927136, "lat": -3.4171851, "lon": 38.4100165, "tags": {"is_in": "Taita taveta,Kenya", "name": "Msau", "place": "village", "wikidata": "Q6930124", "wikipedia": "en:Msau"}}, {"type": "node", "id": 44927157, "lat": -3.318234, "lon": 38.4420835, "tags": {"is_in": "Taita taveta,Kenya", "name": "Mrangi", "place": "village", "wikidata": "Q6929518", "wikipedia": "en:Mrangi"}}, {"type": "node", "id": 44927417, "lat": -3.4663246, "lon": 38.3832448, "tags": {"is_in": "Taita taveta,Kenya", "name": "Mtungi", "place": "village", "wikidata": "Q15260157", "wikipedia": "en:Mtungi"}}, {"type": "node", "id": 44928384, "lat": -3.4002674, "lon": 38.3802196, "tags": {"GNS:id": "-2255701", "is_in": "Taita taveta,Kenya", "name": "Mbale", "place": "village", "source:name": "GNS"}}, {"type": "node", "id": 44928998, "lat": -3.4076472, "lon": 38.3525328, "tags": {"is_in": "Taita taveta,Kenya", "name": "Mbauro", "place": "village", "wikidata": "Q6799646", "wikipedia": "en:Mbauro"}}, {"type": "node", "id": 44929337, "lat": -3.4342363, "lon": 38.515623, "tags": {"GNS:id": "-2255199", "is_in": "Taita taveta,Kenya", "name": "Mariwenyi", "place": "village", "source:name": "GNS"}}, {"type": "node", "id": 44929960, "lat": -3.4964726, "lon": 38.575923, "tags": {"is_in": "Taita taveta,Kenya", "name": "Mashanda", "place": "village", "wikidata": "Q15250122", "wikipedia": "en:Mashanda"}}, {"type": "node", "id": 44930823, "lat": -3.4668358, "lon": 38.4173631, "tags": {"is_in": "Taita taveta,Kenya", "name": "Majego", "place": "village", "wikidata": "Q6737639", "wikipedia": "en:Majego"}}, {"type": "node", "id": 44930932, "lat": -3.4188634, "lon": 38.3468688, "tags": {"GNS:id": "-2252530", "is_in": "Taita taveta,Kenya", "name": "Kungu", "place": "village", "source:name": "GNS"}}, {"type": "node", "id": 44931868, "lat": -3.4558289, "lon": 38.3955575, "tags": {"GNS:id": "-2251259", "is_in": "Taita taveta,Kenya", "name": "Kipusi", "place": "village", "source:name": "GNS"}}, {"type": "node", "id": 44990230, "lat": -3.3667166, "lon": 38.4866984, "tags": {"is_in": "Taita taveta,Kenya", "name": "Mkwachunyi", "place": "village"}}, {"type": "node", "id": 44990313, "lat": -3.4002262, "lon": 38.4423176, "tags": {"is_in": "Taita taveta,Kenya", "name": "Kighombo", "place": "village"}}, {"type": "node", "id": 44999193, "lat": -3.3666, "lon": 38.5166, "tags": {"GNS:id": "-2246158", "is_in": "Taita taveta,Kenya", "name": "Ikanga", "place": "village", "source:name": "GNS"}}, {"type": "node", "id": 44999579, "lat": -3.5175516, "lon": 38.612149, "tags": {"is_in": "Taita taveta,Kenya", "name": "Kajire", "place": "village", "wikidata": "Q6349004", "wikipedia": "en:Kajire"}}, {"type": "node", "id": 45001695, "lat": -3.4166, "lon": 38.6333, "tags": {"created_by": "JOSM", "is_in": "Taita taveta,Kenya", "name": "Gutini", "place": "village"}}, {"type": "node", "id": 45002580, "lat": -3.45, "lon": 38.3666, "tags": {"is_in": "Taita taveta,Kenya", "name": "Dembwa", "place": "village", "wikidata": "Q5255124"}}, {"type": "node", "id": 45003049, "lat": -3.478751, "lon": 38.349601, "tags": {"is_in": "Taita taveta,Kenya", "name": "Chawia", "place": "village", "wikidata": "Q5088560", "wikipedia": "en:Chawia"}}, {"type": "node", "id": 45003492, "lat": -3.3641841, "lon": 38.3952865, "tags": {"GNS:id": "-2243407", "is_in": "Taita taveta,Kenya", "name": "Choke", "place": "village", "source:name": "GNS"}}, {"type": "node", "id": 45004354, "lat": -3.3756281, "lon": 38.3969989, "tags": {"is_in": "Taita taveta,Kenya", "name": "Fighinyi", "place": "village", "wikidata": "Q5447953", "wikipedia": "en:Figini"}}, {"type": "node", "id": 656892142, "lat": -3.4032339, "lon": 38.3674487}, {"type": "node", "id": 656892145, "lat": -3.4032854, "lon": 38.3668834}, {"type": "node", "id": 1255829762, "lat": -3.4049931, "lon": 38.3664101}, {"type": "node", "id": 1255829776, "lat": -3.4046844, "lon": 38.3666979}, {"type": "node", "id": 1255829787, "lat": -3.4056378, "lon": 38.3663697}, {"type": "node", "id": 1262606096, "lat": -3.3442068, "lon": 38.4163986, "tags": {"name": "Mwokaleri", "place": "hamlet"}}, {"type": "node", "id": 1262606441, "lat": -3.3369015, "lon": 38.3800155, "tags": {"name": "Nyache", "place": "village"}}, {"type": "node", "id": 2149670901, "lat": -3.4033397, "lon": 38.3665681}, {"type": "node", "id": 2149670902, "lat": -3.4033804, "lon": 38.3667671}, {"type": "node", "id": 2149670903, "lat": -3.4034611, "lon": 38.3669166}, {"type": "node", "id": 2149670904, "lat": -3.4035329, "lon": 38.3670503}, {"type": "node", "id": 2149670905, "lat": -3.4038529, "lon": 38.3672544}, {"type": "node", "id": 2149670906, "lat": -3.4040918, "lon": 38.3673447}, {"type": "node", "id": 2149670907, "lat": -3.4042861, "lon": 38.3673545}, {"type": "node", "id": 2149670908, "lat": -3.4044258, "lon": 38.3672814}, {"type": "node", "id": 2149670909, "lat": -3.4045319, "lon": 38.3671516}, {"type": "node", "id": 2149670910, "lat": -3.4046475, "lon": 38.3669176}, {"type": "node", "id": 2149670915, "lat": -3.4052885, "lon": 38.3664278}, {"type": "node", "id": 4752377727, "lat": -3.4062784, "lon": 38.3650471}, {"type": "node", "id": 4752377728, "lat": -3.4061809, "lon": 38.3649396}, {"type": "node", "id": 4752377731, "lat": -3.4055302, "lon": 38.3658996}, {"type": "node", "id": 4752377736, "lat": -3.4056131, "lon": 38.3662274}, {"type": "node", "id": 4752377763, "lat": -3.4069026, "lon": 38.3647801}, {"type": "node", "id": 4752377764, "lat": -3.4070197, "lon": 38.3649494}, {"type": "node", "id": 4752377780, "lat": -3.4070031, "lon": 38.3649255}, {"type": "node", "id": 4753581509, "lat": -3.4054254, "lon": 38.3654584}, {"type": "node", "id": 4753581510, "lat": -3.4055574, "lon": 38.3664199}, {"type": "node", "id": 4753581511, "lat": -3.4047965, "lon": 38.3665752}, {"type": "node", "id": 4753597345, "lat": -3.4032248, "lon": 38.3671325}, {"type": "node", "id": 4788078479, "lat": -3.4054055, "lon": 38.3653538}, {"type": "node", "id": 4788078480, "lat": -3.4055142, "lon": 38.3653144}, {"type": "node", "id": 4788078481, "lat": -3.4056226, "lon": 38.3652647}, {"type": "node", "id": 4788078482, "lat": -3.405707, "lon": 38.3652232}, {"type": "node", "id": 4788078483, "lat": -3.4057685, "lon": 38.3651615}, {"type": "node", "id": 4788078484, "lat": -3.4058007, "lon": 38.3650984}, {"type": "node", "id": 4788078485, "lat": -3.4059158, "lon": 38.3650274}, {"type": "node", "id": 4788078486, "lat": -3.4059854, "lon": 38.3649576}, {"type": "node", "id": 4788078487, "lat": -3.4060537, "lon": 38.3649335}, {"type": "node", "id": 4788078488, "lat": -3.4061304, "lon": 38.3648715}, {"type": "node", "id": 4788275551, "lat": -3.4031959, "lon": 38.3676264}, {"type": "node", "id": 4788275552, "lat": -3.4032966, "lon": 38.3677147}, {"type": "node", "id": 4788275553, "lat": -3.4035746, "lon": 38.3674867}, {"type": "node", "id": 4788275554, "lat": -3.4037543, "lon": 38.3676427}, {"type": "node", "id": 4788275555, "lat": -3.4039556, "lon": 38.3676835}, {"type": "node", "id": 4788275556, "lat": -3.4041377, "lon": 38.3676907}, {"type": "node", "id": 4788275557, "lat": -3.4041521, "lon": 38.3678828}, {"type": "node", "id": 4788275558, "lat": -3.4045307, "lon": 38.3678468}, {"type": "node", "id": 4788275559, "lat": -3.4047416, "lon": 38.3678084}, {"type": "node", "id": 4788275560, "lat": -3.4048878, "lon": 38.3677219}, {"type": "node", "id": 4788275561, "lat": -3.4048518, "lon": 38.3676355}, {"type": "node", "id": 4788275562, "lat": -3.4049836, "lon": 38.3675179}, {"type": "node", "id": 4788275563, "lat": -3.4050076, "lon": 38.367417}, {"type": "node", "id": 4788275564, "lat": -3.4050723, "lon": 38.3671338}, {"type": "node", "id": 4788275565, "lat": -3.4051202, "lon": 38.3668025}, {"type": "node", "id": 4788275566, "lat": -3.405173, "lon": 38.366644}, {"type": "node", "id": 4788275567, "lat": -3.4052952, "lon": 38.3666872}, {"type": "node", "id": 4788275592, "lat": -3.4061816, "lon": 38.3667574}, {"type": "node", "id": 4788275593, "lat": -3.4065407, "lon": 38.3668104}, {"type": "node", "id": 4788275610, "lat": -3.4061118, "lon": 38.3667228}, {"type": "node", "id": 4788282191, "lat": -3.4031594, "lon": 38.3675902}, {"type": "node", "id": 4788451514, "lat": -3.4057103, "lon": 38.3668575}, {"type": "node", "id": 4788451515, "lat": -3.4059523, "lon": 38.3670063}, {"type": "node", "id": 4790487139, "lat": -3.407229, "lon": 38.3652431}, {"type": "node", "id": 4812828069, "lat": -3.4064326, "lon": 38.3650412}, {"type": "node", "id": 4812828070, "lat": -3.4063453, "lon": 38.3650237}, {"type": "node", "id": 4812828071, "lat": -3.4068538, "lon": 38.3647054}, {"type": "node", "id": 4812828072, "lat": -3.4067464, "lon": 38.3648843}, {"type": "node", "id": 4812828073, "lat": -3.4066231, "lon": 38.364806}, {"type": "node", "id": 4812828074, "lat": -3.4064947, "lon": 38.3648317}, {"type": "node", "id": 4812835465, "lat": -3.4054533, "lon": 38.3667209}, {"type": "node", "id": 4812835466, "lat": -3.4054233, "lon": 38.3664238}, {"type": "node", "id": 4819625940, "lat": -3.4070607, "lon": 38.3654685}, {"type": "node", "id": 4819625941, "lat": -3.4071594, "lon": 38.3655396}, {"type": "node", "id": 4819625942, "lat": -3.4072524, "lon": 38.3656193}, {"type": "node", "id": 4819625943, "lat": -3.407191, "lon": 38.3657769}, {"type": "node", "id": 4819625944, "lat": -3.4070799, "lon": 38.3660056}, {"type": "node", "id": 4819625945, "lat": -3.4069581, "lon": 38.3660023}, {"type": "node", "id": 4819625946, "lat": -3.4067489, "lon": 38.3659944}, {"type": "node", "id": 4819625947, "lat": -3.4065081, "lon": 38.3660141}, {"type": "node", "id": 4819625948, "lat": -3.4064883, "lon": 38.3663147}, {"type": "node", "id": 4819625949, "lat": -3.4067607, "lon": 38.3663147}, {"type": "node", "id": 4819625950, "lat": -3.4070054, "lon": 38.3663424}, {"type": "node", "id": 4819625951, "lat": -3.4070765, "lon": 38.3663938}, {"type": "node", "id": 4819625952, "lat": -3.4070449, "lon": 38.3665084}, {"type": "node", "id": 4819625953, "lat": -3.4069502, "lon": 38.366544}, {"type": "node", "id": 4819625954, "lat": -3.40691, "lon": 38.3668648}, {"type": "node", "id": 4889565139, "lat": -3.3534254, "lon": 38.3627389, "tags": {"GNS:id": "-2256027", "name": "Mgambonyi", "place": "village", "source:name": "GNS"}}, {"type": "node", "id": 4889623347, "lat": -3.5607321, "lon": 38.7508485, "tags": {"name": "Maungu", "place": "village"}}, {"type": "node", "id": 4889623350, "lat": -3.3499494, "lon": 38.4467553, "tags": {"name": "Mole", "place": "village"}}, {"type": "node", "id": 4889651051, "lat": -3.2378301, "lon": 38.5007805, "tags": {"GNS:id": "-2258690", "name": "Ndii", "place": "village", "source:name": "GNS"}}, {"type": "node", "id": 4889651052, "lat": -3.2488924, "lon": 38.4341073, "tags": {"name": "Mbulia", "place": "village"}}, {"type": "node", "id": 4889658511, "lat": -3.4552418, "lon": 38.3474987, "tags": {"GNS:id": "-2264790", "name": "Wusi", "place": "village", "source:name": "GNS"}}, {"type": "node", "id": 4889691876, "lat": -3.4326607, "lon": 38.3584751, "tags": {"name": "Josa", "place": "village"}}, {"type": "node", "id": 4889706434, "lat": -3.3897246, "lon": 38.4864782, "tags": {"name": "Kirutai", "place": "village"}}, {"type": "node", "id": 4889706436, "lat": -3.4432249, "lon": 38.4878395, "tags": {"name": "Kighononyi", "place": "village"}}, {"type": "node", "id": 4891845435, "lat": -3.4300387, "lon": 38.3744898, "tags": {"name": "Kishamba", "place": "village"}}, {"type": "node", "id": 4911643048, "lat": -3.5327, "lon": 38.3833141, "tags": {"name": "Mwandisha", "place": "village"}}, {"type": "node", "id": 4911643111, "lat": -3.5707509, "lon": 38.3626525, "tags": {"name": "Mwachabo", "place": "village"}}, {"type": "node", "id": 4913676959, "lat": -3.5947738, "lon": 38.7326521, "tags": {"name": "Itinyi", "place": "village"}}, {"type": "node", "id": 4914783839, "lat": -3.4269557, "lon": 38.355711, "tags": {"name": "Mwachara", "place": "village"}}, {"type": "node", "id": 4914784938, "lat": -3.4941234, "lon": 38.3994569, "tags": {"name": "Mwatunge", "place": "village"}}, {"type": "node", "id": 4914813305, "lat": -3.4060819, "lon": 38.4855796, "tags": {"name": "Mrabenyi", "place": "village"}}, {"type": "node", "id": 4914813489, "lat": -3.3834291, "lon": 38.450519, "tags": {"name": "Mwasere", "place": "village"}}, {"type": "node", "id": 4914813490, "lat": -3.3721029, "lon": 38.4270488, "tags": {"name": "Ronge", "place": "village"}}, {"type": "node", "id": 4914813509, "lat": -3.3527351, "lon": 38.4718082, "tags": {"name": "Mwakiki", "place": "village"}}, {"type": "node", "id": 4914813529, "lat": -3.3276961, "lon": 38.4809582, "tags": {"name": "Ndile", "place": "village"}}, {"type": "node", "id": 4916834127, "lat": -3.4417546, "lon": 38.5565296, "tags": {"GNS:id": "-2245430", "name": "Gimba", "place": "village", "source:name": "GNS"}}, {"type": "node", "id": 4916834209, "lat": -3.4512092, "lon": 38.5313355, "tags": {"name": "Kalambe", "place": "village"}}, {"type": "node", "id": 4916834214, "lat": -3.3985925, "lon": 38.5825466, "tags": {"name": "Kaloleni", "place": "village"}}, {"type": "node", "id": 4916834313, "lat": -3.3938441, "lon": 38.5908896, "tags": {"name": "Birikani", "place": "village"}}, {"type": "node", "id": 4917402597, "lat": -3.5010691, "lon": 38.6285388, "tags": {"name": "Mwambiti", "place": "village"}}, {"type": "node", "id": 4936661523, "lat": -3.4950973, "lon": 38.3543753, "tags": {"name": "Mruru", "place": "village"}}, {"type": "node", "id": 4936815463, "lat": -3.3259683, "lon": 38.3618239, "tags": {"name": "Kipusa", "place": "village"}}, {"type": "node", "id": 4936816188, "lat": -3.3816525, "lon": 38.3860945, "tags": {"name": "Iriwa", "place": "village"}}, {"type": "node", "id": 4936942700, "lat": -3.4404921, "lon": 38.5995991, "tags": {"name": "Kirumbi", "place": "village"}}, {"type": "node", "id": 4936958863, "lat": -3.2886105, "lon": 38.4472565, "tags": {"name": "Ghazi", "place": "village"}}, {"type": "node", "id": 4950654552, "lat": -3.3814849, "lon": 38.3949914, "tags": {"name": "Wanganga", "place": "village"}}, {"type": "node", "id": 4950654573, "lat": -3.3960102, "lon": 38.3872862, "tags": {"name": "Mlechi", "place": "village"}}, {"type": "node", "id": 4950654574, "lat": -3.3824393, "lon": 38.3682319, "tags": {"name": "Mwenga", "place": "village"}}, {"type": "node", "id": 4950654579, "lat": -3.3920176, "lon": 38.3773085, "tags": {"name": "Msesena", "place": "village"}}, {"type": "node", "id": 4950654580, "lat": -3.3850482, "lon": 38.381831, "tags": {"name": "Mugondmi", "place": "village"}}, {"type": "node", "id": 4950654593, "lat": -3.3844726, "lon": 38.3721082, "tags": {"name": "Mgahlu", "place": "village"}}, {"type": "node", "id": 4950654844, "lat": -3.3947348, "lon": 38.3692924, "tags": {"name": "Mwasungia", "place": "village"}}, {"type": "node", "id": 4950654845, "lat": -3.4135907, "lon": 38.4006964, "tags": {"name": "Kasungum", "place": "village"}}, {"type": "node", "id": 4950655123, "lat": -3.4255018, "lon": 38.3889552, "tags": {"name": "Mwandongo", "place": "village"}}, {"type": "node", "id": 4950757430, "lat": -3.3410418, "lon": 38.4681385, "tags": {"name": "Mwakongo", "place": "village"}}, {"type": "node", "id": 4996319895, "lat": -3.4829685, "lon": 38.3600676, "tags": {"name": "Mwawache", "place": "village"}}, {"type": "node", "id": 4996405679, "lat": -3.3335461, "lon": 38.43081, "tags": {"name": "Mwanyambo", "place": "village"}}, {"type": "node", "id": 4996405680, "lat": -3.3292459, "lon": 38.4212682, "tags": {"GNS:id": "-2247663", "name": "Kalanga", "place": "village", "source:name": "GNS"}}, {"type": "node", "id": 5050154810, "lat": -3.3668753, "lon": 38.4651708, "tags": {"name": "Konenyi", "place": "village"}}, {"type": "node", "id": 5051225085, "lat": -3.3479241, "lon": 38.3504747, "tags": {"name": "Mashighi", "place": "village"}}, {"type": "node", "id": 5051677701, "lat": -3.2941129, "lon": 38.3953883, "tags": {"name": "Paranga", "place": "village"}}, {"type": "node", "id": 5052874126, "lat": -3.3176539, "lon": 38.370405, "tags": {"name": "Shagha", "place": "village"}}, {"type": "node", "id": 5056125128, "lat": -3.4803728, "lon": 38.4441868, "tags": {"name": "Landi", "place": "village"}}, {"type": "node", "id": 5056132182, "lat": -3.4864663, "lon": 38.5841025, "tags": {"name": "Kanyanga", "place": "village"}}, {"type": "node", "id": 5056171273, "lat": -3.4120136, "lon": 38.3530918, "tags": {"name": "Wasinyi", "place": "village"}}, {"type": "node", "id": 5056210814, "lat": -3.2994295, "lon": 38.4765314, "tags": {"name": "Mwaghogho", "place": "village"}}, {"type": "node", "id": 5058516288, "lat": -3.3472411, "lon": 38.5029951, "tags": {"name": "Kambito", "place": "village"}}, {"type": "node", "id": 5058534982, "lat": -3.2734453, "lon": 38.4942685, "tags": {"name": "Mlundinyi", "place": "village"}}, {"type": "node", "id": 5058635919, "lat": -3.2293953, "lon": 38.380156, "tags": {"name": "Mlilo", "place": "village"}}, {"type": "node", "id": 5058668704, "lat": -3.3365881, "lon": 38.3478833, "tags": {"name": "Wumingu", "place": "village"}}, {"type": "node", "id": 5062353198, "lat": -3.4201557, "lon": 38.4368274, "tags": {"name": "Mwambota", "place": "village"}}, {"type": "node", "id": 5062668633, "lat": -3.3647468, "lon": 38.3830927, "tags": {"name": "Ngilinyi", "place": "village"}}, {"type": "node", "id": 5062680233, "lat": -3.386288, "lon": 38.3611892, "tags": {"name": "Nyambu", "place": "village"}}, {"type": "node", "id": 5096327199, "lat": -3.4914303, "lon": 38.3655297, "tags": {"name": "Mwakitutu", "place": "village"}}, {"type": "way", "id": 682813345, "nodes": [2149670901, 2149670902, 2149670903, 2149670904, 2149670905, 2149670906, 2149670907, 2149670908, 2149670909, 2149670910, 1255829776, 4753581511, 1255829762, 2149670915, 4812835466, 4753581510, 1255829787, 4752377736, 4752377731, 4753581509, 4788078479, 4788078480, 4788078481, 4788078482, 4788078483, 4788078484, 4788078485, 4788078486, 4788078487, 4788078488, 4752377728, 4752377727, 4812828070, 4812828069, 4812828074, 4812828073, 4812828072, 4812828071, 4752377763, 4752377780, 4752377764, 4790487139, 4819625940, 4819625941, 4819625942, 4819625943, 4819625944, 4819625945, 4819625946, 4819625947, 4819625948, 4819625949, 4819625950, 4819625951, 4819625952, 4819625953, 4819625954, 4788275593, 4788275592, 4788275610, 4788451515, 4788451514, 4812835465, 4788275567, 4788275566, 4788275565, 4788275564, 4788275563, 4788275562, 4788275561, 4788275560, 4788275559, 4788275558, 4788275557, 4788275556, 4788275555, 4788275554, 4788275553, 4788275552, 4788275551, 4788282191, 656892142, 4753597345, 656892145, 2149670901], "tags": {"name": "Wundanyi", "place": "town", "wikidata": "Q3056743", "wikipedia": "en:Wundanyi"}}]}