{"version": 0.6, "generator": "Overpass API 0.7.61.5 4133829e", "osm3s": {"timestamp_osm_base": "2024-03-05T11:05:12Z", "copyright": "The data included in this document is from www.openstreetmap.org. The data is made available under ODbL."}, "elements": [{"type": "node", "id": 240023188, "lat": 5.085879, "lon": -1.350578, "tags": {"capital": "6", "name": "Elmina", "place": "town", "wikidata": "Q968662", "wikipedia": "fr:Elmina"}}, {"type": "node", "id": 990128439, "lat": 5.2577781, "lon": -1.3388004, "tags": {"alt_name": "Yukwa", "name": "Jukwa", "place": "town"}}, {"type": "node", "id": 990128538, "lat": 5.239391, "lon": -1.3323045, "tags": {"name": "Dehia", "place": "town"}}, {"type": "node", "id": 990128619, "lat": 5.3351566, "lon": -1.3810645, "tags": {"name": "Abrafo Odumase", "place": "town"}}, {"type": "node", "id": 990129400, "lat": 5.2939605, "lon": -1.3650029, "tags": {"place": "town"}}, {"type": "node", "id": 990129709, "lat": 5.107467, "lon": -1.2430793, "tags": {"capital": "4", "name": "Cape Coast", "name:ar": "\u0643\u064a\u0628 \u0643\u0648\u0633\u062a", "name:ru": "\u041a\u0435\u0439\u043f-\u041a\u043e\u0441\u0442", "name:uk": "\u041a\u0435\u0439\u043f-\u041a\u043e\u0441\u0442", "place": "city", "population": "155000", "wikidata": "Q221283", "wikipedia": "en:Cape Coast"}}, {"type": "node", "id": 990130055, "lat": 5.1622995, "lon": -1.2012721, "tags": {"name": "Yamoransa", "place": "village", "wikidata": "Q20536978"}}, {"type": "node", "id": 990130482, "lat": 5.2005481, "lon": -1.3195795, "tags": {"name": "Efutu", "place": "town"}}, {"type": "node", "id": 990130699, "lat": 5.3119436, "lon": -1.3742301, "tags": {"name": "Frami", "place": "town"}}, {"type": "node", "id": 1136669387, "lat": 5.1473966, "lon": -1.2115802, "tags": {"name": "Eguase", "place": "village"}}, {"type": "node", "id": 1193913920, "lat": 5.0674473, "lon": -1.4272899, "tags": {"name": "Brenu", "place": "village"}}, {"type": "node", "id": 1193913953, "lat": 5.0660438, "lon": -1.4361162, "tags": {"name": "Ampenyi", "place": "village"}}, {"type": "node", "id": 1193973004, "lat": 5.1043744, "lon": -1.3600932, "tags": {"name": "Bronyibima", "place": "village"}}, {"type": "node", "id": 1820144727, "lat": 5.0724504, "lon": -1.3928895, "tags": {"name": "Ankwanda", "place": "village"}}, {"type": "node", "id": 1820144731, "lat": 5.1041633, "lon": -1.3941806, "tags": {"name": "Essaman", "place": "village"}}, {"type": "node", "id": 1820144735, "lat": 5.1108281, "lon": -1.4425575, "tags": {"place": "village"}}, {"type": "node", "id": 1820144742, "lat": 5.1453006, "lon": -1.2833562, "tags": {"place": "village"}}, {"type": "node", "id": 1820144746, "lat": 5.1481104, "lon": -1.3058579, "tags": {"place": "village"}}, {"type": "node", "id": 1820144752, "lat": 5.1509578, "lon": -1.2877608, "tags": {"place": "village"}}, {"type": "node", "id": 1820144754, "lat": 5.1931945, "lon": -1.2056306, "tags": {"place": "village"}}, {"type": "node", "id": 1830247443, "lat": 5.0948318, "lon": -1.5043107, "tags": {"name": "Kisi", "place": "village"}}, {"type": "node", "id": 1830247445, "lat": 5.1052947, "lon": -1.3561939, "tags": {"place": "village"}}, {"type": "node", "id": 1830247459, "lat": 5.1243143, "lon": -1.3408565, "tags": {"place": "village"}}, {"type": "node", "id": 1830247462, "lat": 5.1247696, "lon": -1.3257222, "tags": {"place": "village"}}, {"type": "node", "id": 1830247463, "lat": 5.1248056, "lon": -1.3699036, "tags": {"name": "Sanka", "place": "village"}}, {"type": "node", "id": 1830247464, "lat": 5.1314971, "lon": -1.3349653, "tags": {"place": "village"}}, {"type": "node", "id": 1830247465, "lat": 5.1322399, "lon": -1.444135, "tags": {"name": "Dabri", "place": "village"}}, {"type": "node", "id": 1830247466, "lat": 5.1331184, "lon": -1.4239953, "tags": {"name": "Abreshia", "place": "village"}}, {"type": "node", "id": 1830247467, "lat": 5.1372635, "lon": -1.3575144, "tags": {"name": "Amoana", "place": "village"}}, {"type": "node", "id": 1830247468, "lat": 5.1394891, "lon": -1.3370475, "tags": {"place": "village"}}, {"type": "node", "id": 1830247469, "lat": 5.1406525, "lon": -1.3432942, "tags": {"place": "village"}}, {"type": "node", "id": 1830247470, "lat": 5.1438898, "lon": -1.3400947, "tags": {"place": "village"}}, {"type": "node", "id": 1830247472, "lat": 5.1629632, "lon": -1.2806457, "tags": {"place": "village"}}, {"type": "node", "id": 1830247473, "lat": 5.1702551, "lon": -1.3376014, "tags": {"place": "village"}}, {"type": "node", "id": 1830247474, "lat": 5.1733421, "lon": -1.2897768, "tags": {"place": "village"}}, {"type": "node", "id": 1830247475, "lat": 5.1755662, "lon": -1.2769238, "tags": {"place": "village"}}, {"type": "node", "id": 1830247476, "lat": 5.1815463, "lon": -1.290025, "tags": {"place": "village"}}, {"type": "node", "id": 1830247477, "lat": 5.185253, "lon": -1.2570241, "tags": {"place": "village"}}, {"type": "node", "id": 2021501638, "lat": 5.1404084, "lon": -1.2421676, "tags": {"name": "Nkanfoa", "place": "village"}}, {"type": "node", "id": 2120725148, "lat": 5.1901898, "lon": -1.3951965, "tags": {"place": "village"}}, {"type": "node", "id": 2120725160, "lat": 5.1905098, "lon": -1.3899555, "tags": {"place": "hamlet"}}, {"type": "node", "id": 2120725255, "lat": 5.1983058, "lon": -1.4050227, "tags": {"place": "village"}}, {"type": "node", "id": 2120725627, "lat": 5.2126279, "lon": -1.3573535, "tags": {"place": "village"}}, {"type": "node", "id": 2120725684, "lat": 5.2146411, "lon": -1.3010939, "tags": {"place": "village"}}, {"type": "node", "id": 2120725724, "lat": 5.2166828, "lon": -1.3496291, "tags": {"place": "village"}}, {"type": "node", "id": 2120725740, "lat": 5.2172224, "lon": -1.2943352, "tags": {"place": "village"}}, {"type": "node", "id": 2120725800, "lat": 5.2454359, "lon": -1.2476191, "tags": {"place": "village"}}, {"type": "node", "id": 2120725803, "lat": 5.2456864, "lon": -1.398534, "tags": {"place": "village"}}, {"type": "node", "id": 2120725805, "lat": 5.2482441, "lon": -1.234513, "tags": {"place": "village"}}, {"type": "node", "id": 2120725808, "lat": 5.2575576, "lon": -1.2626932, "tags": {"place": "village"}}, {"type": "node", "id": 2120725825, "lat": 5.2887465, "lon": -1.3457832, "tags": {"place": "village"}}, {"type": "node", "id": 2120725836, "lat": 5.2910606, "lon": -1.3344357, "tags": {"place": "village"}}, {"type": "node", "id": 2120725853, "lat": 5.2951811, "lon": -1.2571697, "tags": {"name": "Asuansi", "place": "village"}}, {"type": "node", "id": 2120725856, "lat": 5.3016993, "lon": -1.2370794, "tags": {"place": "village"}}, {"type": "node", "id": 2120725859, "lat": 5.3032949, "lon": -1.3647092, "tags": {"place": "village"}}, {"type": "node", "id": 2120725983, "lat": 5.3338625, "lon": -1.2817815, "tags": {"place": "village"}}, {"type": "node", "id": 2145887366, "lat": 5.1189357, "lon": -1.2141671, "tags": {"name": "Akong", "place": "village"}}, {"type": "node", "id": 2145887373, "lat": 5.1808855, "lon": -1.2264217, "tags": {"name": "Akruma", "place": "village"}}, {"type": "node", "id": 2145887378, "lat": 5.1436577, "lon": -1.4791548, "tags": {"name": "Amawafur", "place": "village"}}, {"type": "node", "id": 2145887382, "lat": 5.1665554, "lon": -1.232015, "tags": {"name": "Amosima", "place": "village"}}, {"type": "node", "id": 2145887394, "lat": 5.081077, "lon": -1.5222667, "tags": {"name": "Anteado", "place": "village"}}, {"type": "node", "id": 2145887396, "lat": 5.1059094, "lon": -1.2881142, "tags": {"name": "Apewosika", "place": "village"}}, {"type": "node", "id": 2145887416, "lat": 5.2151968, "lon": -1.2092397, "tags": {"name": "Asebu", "place": "village"}}, {"type": "node", "id": 2145887453, "lat": 5.1138037, "lon": -1.5048632, "tags": {"name": "Besiasi", "place": "village"}}, {"type": "node", "id": 2145887473, "lat": 5.1614044, "lon": -1.4280376, "tags": {"name": "Bremang", "place": "village"}}, {"type": "node", "id": 2145887480, "lat": 5.0817943, "lon": -1.5497677, "tags": {"name": "Komenda Dominase", "place": "village"}}, {"type": "node", "id": 2145887495, "lat": 5.1619975, "lon": -1.4122451, "tags": {"name": "Eguafo", "place": "village"}}, {"type": "node", "id": 2145887523, "lat": 5.0651344, "lon": -1.5883066, "tags": {"name": "Fawumaye", "place": "village"}}, {"type": "node", "id": 2145887545, "lat": 5.0382333, "lon": -1.5532296, "tags": {"name": "Kafodzidzi", "place": "hamlet"}}, {"type": "node", "id": 2145887557, "lat": 5.0507934, "lon": -1.4899853, "tags": {"name": "Komenda", "place": "village"}}, {"type": "node", "id": 2145887560, "lat": 5.0698362, "lon": -1.4666695, "tags": {"name": "Mandu", "place": "village"}}, {"type": "node", "id": 2145887566, "lat": 5.1301756, "lon": -1.2039271, "tags": {"name": "Moree", "place": "village", "wikidata": "Q6911238"}}, {"type": "node", "id": 2145889063, "lat": 5.0545358, "lon": -1.4792451, "tags": {"name": "Wuagyan", "place": "village"}}, {"type": "node", "id": 3407499422, "lat": 5.0297195, "lon": -1.6092708, "tags": {"name": "Awuna Beach", "place": "village"}}, {"type": "node", "id": 3685673792, "lat": 5.0938386, "lon": -1.5691244, "tags": {"name": "Komenda Sefwi", "place": "village"}}, {"type": "node", "id": 3819267398, "lat": 5.1069399, "lon": -1.5909363, "tags": {"name": "Antseambua", "place": "village"}}, {"type": "node", "id": 3819267399, "lat": 5.101333, "lon": -1.5900277, "tags": {"name": "Asamaasa", "name:ak": "Asemasa", "place": "village"}}, {"type": "node", "id": 3819267400, "lat": 5.1114158, "lon": -1.6015815, "tags": {"name": "Badukrom", "place": "village"}}, {"type": "node", "id": 3819267401, "lat": 5.1213133, "lon": -1.6030047, "tags": {"name": "Beposo Nkran", "place": "village"}}, {"type": "node", "id": 4953795502, "lat": 5.0431951, "lon": -1.5344596, "tags": {"place": "hamlet"}}, {"type": "node", "id": 4953795503, "lat": 5.0352063, "lon": -1.5672523, "tags": {"place": "hamlet"}}, {"type": "node", "id": 4953795504, "lat": 5.0551915, "lon": -1.5705943, "tags": {"place": "town"}}, {"type": "node", "id": 4953795520, "lat": 5.0695815, "lon": -1.5437937, "tags": {"place": "hamlet"}}, {"type": "node", "id": 5472879074, "lat": 5.0528826, "lon": -1.4855882, "tags": {"name": "Dutch Komenda", "place": "village"}}, {"type": "node", "id": 5712533797, "lat": 5.0906984, "lon": -1.466184, "tags": {"name": "Enyinase", "place": "village"}}, {"type": "node", "id": 6166590634, "lat": 5.1610033, "lon": -1.6087767, "tags": {"name": "Adiembra", "place": "village"}}, {"type": "node", "id": 8977593310, "lat": 5.1034366, "lon": -1.4045656, "tags": {"name": "Mempeasem", "place": "village"}}, {"type": "node", "id": 8986123813, "lat": 5.078366, "lon": -1.5388799, "tags": {"name": "Abransa", "place": "village"}}, {"type": "node", "id": 8986166225, "lat": 5.1048686, "lon": -1.3863051, "tags": {"name": "Yesunkwa", "place": "village"}}, {"type": "node", "id": 8986166226, "lat": 5.0916602, "lon": -1.4485216, "tags": {"name": "Ayensudo", "place": "village"}}, {"type": "node", "id": 10219330626, "lat": 5.2429166, "lon": -1.6084426, "tags": {"name": "Sekeyre Krobo", "place": "village"}}, {"type": "node", "id": 11098804407, "lat": 5.3555583, "lon": -1.4177888, "tags": {"place": "hamlet"}}, {"type": "node", "id": 11308988169, "lat": 5.3729944, "lon": -1.4075428, "tags": {"name": "Woawosempa", "place": "village"}}]}