{"version": 0.6, "generator": "Overpass API 0.7.61.5 4133829e", "osm3s": {"timestamp_osm_base": "2024-03-05T15:08:00Z", "copyright": "The data included in this document is from www.openstreetmap.org. The data is made available under ODbL."}, "elements": [{"type": "node", "id": 33223793, "lat": 56.2576017, "lon": 16.4149986, "tags": {"name": "Parbo\u00e4ng", "place": "hamlet"}}, {"type": "node", "id": 33223794, "lat": 56.2342062, "lon": 16.4132213, "tags": {"created_by": "JOSM", "name": "Ottenby", "place": "hamlet"}}, {"type": "node", "id": 33223807, "lat": 56.2598235, "lon": 16.4763149, "tags": {"created_by": "JOSM", "name": "Enetri", "place": "hamlet"}}, {"type": "node", "id": 33224192, "lat": 56.3564029, "lon": 16.4097883, "tags": {"name": "Degerhamn", "place": "village", "population": "331", "ref:se:pts:postort": "DEGERHAMN", "ref:se:scb": "2152"}}, {"type": "node", "id": 2121243902, "lat": 56.4168922, "lon": 16.4338741, "tags": {"name": "Alvl\u00f6sa", "place": "hamlet"}}, {"type": "node", "id": 2121847412, "lat": 56.3826452, "lon": 16.4293249, "tags": {"name": "Gettlinge", "place": "hamlet"}}, {"type": "node", "id": 2122364417, "lat": 56.328566, "lon": 16.4073078, "tags": {"name": "Albrunna", "place": "hamlet"}}, {"type": "node", "id": 2532613510, "lat": 56.2797491, "lon": 16.4596061, "tags": {"name": "Lindby", "place": "hamlet"}}, {"type": "node", "id": 2532614531, "lat": 56.270892, "lon": 16.4426478, "tags": {"name": "Svibo", "place": "hamlet"}}, {"type": "node", "id": 2532615961, "lat": 56.2675374, "lon": 16.4704844, "tags": {"name": "K\u00e4rra", "place": "hamlet"}}, {"type": "node", "id": 2996097602, "lat": 56.3583625, "lon": 16.4211773, "tags": {"name": "S\u00f6dra M\u00f6ckleby", "place": "hamlet"}}, {"type": "node", "id": 2996097610, "lat": 56.2841876, "lon": 16.4076089, "tags": {"name": "Ventlinge", "place": "hamlet"}}, {"type": "node", "id": 2996097613, "lat": 56.2792133, "lon": 16.4946487, "tags": {"name": "\u00d6ssby", "place": "hamlet"}}, {"type": "node", "id": 2996098637, "lat": 56.2931078, "lon": 16.4716959, "tags": {"name": "Eketorp", "place": "hamlet"}}, {"type": "node", "id": 2996098643, "lat": 56.3220157, "lon": 16.5186395, "tags": {"name": "Gammalsby", "place": "hamlet"}}, {"type": "node", "id": 2996098649, "lat": 56.3092429, "lon": 16.5087022, "tags": {"name": "Gr\u00e4sg\u00e5rd", "place": "hamlet"}}, {"type": "node", "id": 2996098650, "lat": 56.2694038, "lon": 16.4022793, "tags": {"name": "Gr\u00f6nh\u00f6gen", "place": "hamlet", "population": "145", "ref:se:scb": "S9701"}}, {"type": "node", "id": 2996098657, "lat": 56.4463987, "lon": 16.5667608, "tags": {"name": "Hulterstad", "place": "hamlet", "population": "55", "ref:se:scb": "S2117"}}, {"type": "node", "id": 2996098670, "lat": 56.3184582, "lon": 16.4938432, "tags": {"name": "Kvinnsgr\u00f6ta", "place": "hamlet"}}, {"type": "node", "id": 2996098680, "lat": 56.2698019, "lon": 16.4354442, "tags": {"name": "Lunda", "place": "hamlet"}}, {"type": "node", "id": 2996098686, "lat": 56.3148209, "lon": 16.5134293, "tags": {"name": "Mellstaby", "place": "hamlet"}}, {"type": "node", "id": 2996098687, "lat": 56.3035126, "lon": 16.4164913, "tags": {"name": "M\u00f6rbylilla", "place": "hamlet"}}, {"type": "node", "id": 2996098694, "lat": 56.2481512, "lon": 16.469642, "tags": {"name": "N\u00e4sby", "place": "hamlet"}}, {"type": "node", "id": 2996098698, "lat": 56.3553311, "lon": 16.4411573, "tags": {"name": "Pilekulla", "place": "hamlet"}}, {"type": "node", "id": 2996098706, "lat": 56.288154, "lon": 16.4498664, "tags": {"name": "Sebberneby", "place": "hamlet"}}, {"type": "node", "id": 2996098707, "lat": 56.3401477, "lon": 16.5297453, "tags": {"name": "Seby", "place": "hamlet"}}, {"type": "node", "id": 2996098708, "lat": 56.362918, "lon": 16.5369728, "tags": {"name": "Segerstad", "place": "hamlet"}}, {"type": "node", "id": 2996098712, "lat": 56.4204528, "lon": 16.5548565, "tags": {"name": "Sk\u00e4rl\u00f6v", "place": "hamlet"}}, {"type": "node", "id": 2996098714, "lat": 56.3398964, "lon": 16.5029997, "tags": {"name": "Solberga", "place": "hamlet"}}, {"type": "node", "id": 3075044443, "lat": 56.3909868, "lon": 16.4139371, "tags": {"name": "Hammarby", "place": "hamlet"}}, {"type": "node", "id": 3075044445, "lat": 56.3910178, "lon": 16.4356749, "tags": {"name": "Klinta", "place": "hamlet"}}, {"type": "node", "id": 3075044446, "lat": 56.4074685, "lon": 16.4310922, "tags": {"name": "Smedby", "place": "hamlet"}}, {"type": "node", "id": 3075044469, "lat": 56.3707023, "lon": 16.4081617, "tags": {"name": "\u00c5rsvik", "place": "hamlet"}}, {"type": "node", "id": 3084550334, "lat": 56.3484404, "lon": 16.5076872, "tags": {"name": "Tr\u00e4by", "place": "hamlet"}}, {"type": "node", "id": 3135507720, "lat": 56.3316013, "lon": 16.5257966, "tags": {"name": "Torng\u00e5rd", "place": "hamlet"}}, {"type": "node", "id": 3137954719, "lat": 56.3377179, "lon": 16.5117066, "tags": {"name": "Torng\u00e5rds station", "place": "hamlet"}}, {"type": "node", "id": 3139870382, "lat": 56.3714011, "lon": 16.4236786, "tags": {"name": "G\u00e5rdstorp", "place": "hamlet"}}, {"type": "node", "id": 3140911206, "lat": 56.2382912, "lon": 16.4479906, "tags": {"name": "\u00c5s", "place": "hamlet"}}, {"type": "node", "id": 3140916496, "lat": 56.4435112, "lon": 16.4252494, "tags": {"name": "Bj\u00e4rby", "place": "hamlet"}}, {"type": "node", "id": 3140916497, "lat": 56.4247169, "lon": 16.4114789, "tags": {"name": "Nedra V\u00e4sterstad", "place": "hamlet"}}, {"type": "node", "id": 3140916498, "lat": 56.4293692, "lon": 16.4174707, "tags": {"name": "\u00d6vra V\u00e4sterstad", "place": "hamlet"}}, {"type": "node", "id": 3140961760, "lat": 56.3952241, "lon": 16.4047164, "tags": {"name": "G\u00e5ssten", "place": "hamlet"}}, {"type": "node", "id": 3141890078, "lat": 56.3669958, "lon": 16.5420233, "tags": {"name": "Nedra Segerstad", "place": "hamlet"}}, {"type": "node", "id": 3141891867, "lat": 56.3713127, "lon": 16.5369539, "tags": {"name": "\u00d6vra Segerstad", "place": "hamlet"}}, {"type": "node", "id": 3141898031, "lat": 56.3930671, "lon": 16.5451212, "tags": {"name": "Mellby", "place": "hamlet"}}, {"type": "node", "id": 3141898032, "lat": 56.3854453, "lon": 16.5418666, "tags": {"name": "Mellbytorp", "place": "hamlet"}}]}