{"version": 0.6, "generator": "Overpass API 0.7.61.5 4133829e", "osm3s": {"timestamp_osm_base": "2024-03-05T11:24:46Z", "copyright": "The data included in this document is from www.openstreetmap.org. The data is made available under ODbL."}, "elements": [{"type": "node", "id": 531919711, "lat": 7.1545175, "lon": 0.4772341, "tags": {"amenity": "bank", "atm": "yes", "name": "Bank of Ghana"}}, {"type": "node", "id": 2319477798, "lat": 7.1515224, "lon": 0.4743599, "tags": {"amenity": "bank", "atm": "yes", "name": "GCB Bank, Hohoe"}}, {"type": "node", "id": 2319494375, "lat": 7.1527304, "lon": 0.4758079, "tags": {"amenity": "bank", "atm": "yes", "brand": "Fidelity Bank", "brand:wikidata": "Q5446778", "brand:wikipedia": "en:Fidelity Bank Ghana", "name": "Fidelity Bank"}}, {"type": "node", "id": 2319498610, "lat": 7.1531272, "lon": 0.476401, "tags": {"alt_name": "ADB", "amenity": "bank", "atm": "yes", "name": "Agricultural Development Bank"}}, {"type": "node", "id": 2319499076, "lat": 7.1536513, "lon": 0.4767225, "tags": {"amenity": "bank", "atm": "no", "name": "First National Bank"}}, {"type": "node", "id": 2319540325, "lat": 7.155102, "lon": 0.4798424, "tags": {"addr:city": "Hohoe", "addr:country": "GH", "addr:region": "Volta", "addr:street": "St. Francis College Road", "addr:suburb": "Agordome", "alt_name": "Absa - Hohoe Branch", "amenity": "bank", "atm": "yes", "branch": "Hohoe", "brand": "Absa", "brand:wikidata": "Q58641733", "brand:wikipedia": "en:Absa Group Limited", "contact:instagram": "absaghana", "contact:linkedin": "absa-ghana", "contact:twitter": "AbsaGhana", "contact:whatsapp": "+233 50 164 4644", "contact:youtube": "https://www.youtube.com/channel/UCKpKPyfJ69tf7lnxudpzKJQ", "email": "service.excellence.GH@absa.africa", "facebook": "AbsaGhana", "name": "Absa", "old_name": "Barclays Bank", "opening_hours": "Mo-Fr 08:30-16:30; PH off", "operator": "Absa Bank Ghana Limited", "operator:type": "public", "operator:wikidata": "Q96371413", "operator:wikipedia": "en:Absa Bank Ghana", "phone": "+233 57 770 2035", "website": "https://www.absa.com.gh"}}, {"type": "node", "id": 2319541516, "lat": 7.1549103, "lon": 0.4795446, "tags": {"amenity": "bank", "name": "Asoubonteng Rural Bank"}}, {"type": "node", "id": 2321150262, "lat": 7.150676, "lon": 0.4700038, "tags": {"amenity": "bank", "atm": "no", "name": "Weto Rural Bank"}}, {"type": "node", "id": 2321151125, "lat": 7.1509581, "lon": 0.4718759, "tags": {"amenity": "bank", "name": "Gbi Rural Bank"}}, {"type": "node", "id": 3117092205, "lat": 6.9068831, "lon": 0.6330412}, {"type": "node", "id": 3117092288, "lat": 6.9067055, "lon": 0.6329036}, {"type": "node", "id": 3117092296, "lat": 6.906739, "lon": 0.633067}, {"type": "node", "id": 3117092302, "lat": 6.906831, "lon": 0.6328884}, {"type": "node", "id": 3117092315, "lat": 6.9068593, "lon": 0.632885}, {"type": "node", "id": 3120400665, "lat": 6.9104779, "lon": 0.6317217, "tags": {"amenity": "bank", "atm": "yes", "name": "Women and Associations For Gain Both Economie and Social", "phone": "+22824410618", "short_name": "WAGES"}}, {"type": "node", "id": 3120441861, "lat": 6.9125617, "lon": 0.6324028, "tags": {"amenity": "bank", "atm": "yes", "name": "BANQUE POPULAIRE", "operator": "prive"}}, {"type": "node", "id": 3295646085, "lat": 6.9069542, "lon": 0.6321961}, {"type": "node", "id": 3295646086, "lat": 6.9069465, "lon": 0.6322702}, {"type": "node", "id": 3295646087, "lat": 6.9071421, "lon": 0.6322517}, {"type": "node", "id": 3295646088, "lat": 6.9071347, "lon": 0.6321827}, {"type": "node", "id": 4335117503, "lat": 6.9009891, "lon": 0.6299976, "tags": {"amenity": "bank", "name": "ORABANK"}}, {"type": "node", "id": 4563543928, "lat": 6.9215063, "lon": 0.6343806, "tags": {"amenity": "bank", "name": "BTCI"}}, {"type": "node", "id": 5475371926, "lat": 6.9071423, "lon": 0.6322274}, {"type": "node", "id": 5475371927, "lat": 6.9071393, "lon": 0.6321064}, {"type": "node", "id": 5475371928, "lat": 6.9071635, "lon": 0.6321003}, {"type": "node", "id": 5475371929, "lat": 6.9071484, "lon": 0.6320454}, {"type": "node", "id": 5475371930, "lat": 6.9072846, "lon": 0.6319956}, {"type": "node", "id": 5475371931, "lat": 6.907335, "lon": 0.6321623}, {"type": "node", "id": 5475427608, "lat": 6.9069364, "lon": 0.6322202}, {"type": "node", "id": 5475427609, "lat": 6.9069542, "lon": 0.63222}, {"type": "node", "id": 5949170685, "lat": 6.8575427, "lon": 0.637909, "tags": {"amenity": "bank", "name": "ORA BANQUE"}}, {"type": "node", "id": 7056654072, "lat": 6.9207128, "lon": 0.6206404, "tags": {"amenity": "bank", "atm": "yes", "name": "Microfinance SEBADERS"}}, {"type": "node", "id": 7057766761, "lat": 6.9102178, "lon": 0.6289874, "tags": {"amenity": "bank", "atm": "yes", "name": "FECECAV Kpalim\u00e9"}}, {"type": "node", "id": 7057766763, "lat": 6.9069506, "lon": 0.6304371, "tags": {"amenity": "bank", "atm": "yes", "name": "COPEC IPEDE Solidarit\u00e9", "operator": "private"}}, {"type": "node", "id": 8427564207, "lat": 6.8486376, "lon": 0.5734684, "tags": {"amenity": "bank", "atm": "yes", "name": "Microfinance FECECAV"}}, {"type": "node", "id": 8427574818, "lat": 6.8427076, "lon": 0.59274, "tags": {"amenity": "bank", "atm": "yes", "name": "Microfinance FECECAV"}}, {"type": "node", "id": 8855298754, "lat": 6.8077531, "lon": 0.6327492, "tags": {"amenity": "bank", "atm": "yes", "name": "FECECAV"}}, {"type": "node", "id": 9053455713, "lat": 6.8513932, "lon": 0.7159889, "tags": {"amenity": "bank", "atm": "yes", "name": "FUCEC"}}, {"type": "node", "id": 10778874028, "lat": 7.1548116, "lon": 0.4804869, "tags": {"addr:housenumber": "29", "addr:street": "St. Francis College Road", "alt_name": "NIB", "amenity": "bank", "atm": "yes", "branch": "Hohoe", "email": "hohoe.branch@nib-ghana.com", "name": "National Investment Bank", "opening_hours": "Mo-Fr 08:30-16:00", "phone": "+233 24 651 6825"}}, {"type": "way", "id": 306734776, "nodes": [3117092288, 3117092302, 3117092315, 3117092205, 3117092296, 3117092288], "tags": {"amenity": "bank", "building": "yes", "name": "UTB"}}, {"type": "way", "id": 322778079, "nodes": [3295646085, 5475427609, 5475427608, 3295646086, 3295646087, 3295646088, 3295646085], "tags": {"amenity": "bank", "atm": "yes", "building": "yes", "drive_through": "yes", "name": "ECOBANK Kpalim\u00e9"}}, {"type": "way", "id": 569312166, "nodes": [5475371926, 5475371927, 5475371928, 5475371929, 5475371930, 5475371931, 5475371926], "tags": {"amenity": "bank", "atm": "yes", "building": "yes", "drive_through": "yes", "name": "BSIC", "operator": "Priv\u00e9"}}]}