{"version": 0.6, "generator": "Overpass API 0.7.61.5 4133829e", "osm3s": {"timestamp_osm_base": "2024-03-06T11:08:30Z", "copyright": "The data included in this document is from www.openstreetmap.org. The data is made available under ODbL."}, "elements": [{"type": "node", "id": 1108650843, "lat": 37.0746705, "lon": 44.2955769}, {"type": "node", "id": 1108651051, "lat": 37.0746908, "lon": 44.2957388}, {"type": "node", "id": 1108651749, "lat": 37.0745136, "lon": 44.2957738}, {"type": "node", "id": 1108652765, "lat": 37.0744933, "lon": 44.295612}, {"type": "node", "id": 2765225050, "lat": 37.0746527, "lon": 44.2953375, "tags": {"amenity": "pharmacy", "healthcare": "pharmacy", "name": "Eczane"}}, {"type": "node", "id": 4682625631, "lat": 36.9851191, "lon": 44.2060464, "tags": {"amenity": "doctors", "email": "kawan.sherwani@gmail.com", "internet_access": "wlan", "name": "rash posh", "name:ar": "rash posh", "name:en": "my home", "name:ku": "rash posh", "phone": "07508323435"}}, {"type": "node", "id": 11212866337, "lat": 37.0562562, "lon": 44.0909442, "tags": {"addr:street": "gishk 1", "amenity": "clinic"}}, {"type": "way", "id": 95608846, "nodes": [1108651749, 1108652765, 1108650843, 1108651051, 1108651749], "tags": {"amenity": "hospital", "building": "public", "name": "Aile Sa\u011fl\u0131\u011f\u0131 Merkezi", "operator": "T.C. Sa\u011fl\u0131k Bakanl\u0131\u011f\u0131", "source": "bing"}}]}