{"version": 0.6, "generator": "Overpass API 0.7.61.5 4133829e", "osm3s": {"timestamp_osm_base": "2024-03-05T11:24:46Z", "copyright": "The data included in this document is from www.openstreetmap.org. The data is made available under ODbL."}, "elements": [{"type": "node", "id": 434446595, "lat": 7.7277198, "lon": 0.5106069, "tags": {"name": "Papase", "place": "town"}}, {"type": "node", "id": 434446768, "lat": 7.7292507, "lon": 0.552149, "tags": {"name": "Ahamasu", "place": "town"}}, {"type": "node", "id": 1952227079, "lat": 8.00465, "lon": 0.6594638, "tags": {"addr:country": "TG", "name": "Assoukoko", "place": "village"}}, {"type": "node", "id": 2085532018, "lat": 7.6860869, "lon": 0.8455713, "tags": {"name": "Akomin\u00e9kop\u00e9", "place": "village"}}, {"type": "node", "id": 2085532023, "lat": 7.6540066, "lon": 0.7893158, "tags": {"name": "Kougnohou", "place": "village"}}, {"type": "node", "id": 2085536322, "lat": 7.7499881, "lon": 0.8732374, "tags": {"name": "Tikemou", "place": "village"}}, {"type": "node", "id": 2086761238, "lat": 7.7357486, "lon": 0.8293317, "tags": {"name": "Hohoe", "place": "village"}}, {"type": "node", "id": 2086761241, "lat": 7.7326274, "lon": 0.8258518, "tags": {"name": "Tsafe", "place": "village"}}, {"type": "node", "id": 2086761243, "lat": 7.719619, "lon": 0.7191631, "tags": {"name": "Bato", "place": "village"}}, {"type": "node", "id": 2086761246, "lat": 7.7118523, "lon": 0.7193148, "tags": {"name": "Broukoukou", "place": "village"}}, {"type": "node", "id": 2086761249, "lat": 7.7298334, "lon": 0.7919267, "tags": {"name": "Djon", "place": "village"}}, {"type": "node", "id": 2086761254, "lat": 7.720235, "lon": 0.8004127, "tags": {"name": "Djitriam\u00e9", "place": "village"}}, {"type": "node", "id": 2086761258, "lat": 7.7469938, "lon": 0.7503683, "tags": {"name": "Gbend\u00e9", "place": "village"}}, {"type": "node", "id": 2086761262, "lat": 7.7337673, "lon": 0.787384, "tags": {"name": "Kotora", "place": "village"}}, {"type": "node", "id": 2086762767, "lat": 7.7815451, "lon": 0.7459541, "tags": {"name": "Yala", "place": "village"}}, {"type": "node", "id": 2087748399, "lat": 7.7034226, "lon": 0.6999643, "tags": {"name": "Elavanyo", "place": "village"}}, {"type": "node", "id": 2087748403, "lat": 7.7640874, "lon": 0.794404, "tags": {"name": "Ayagba", "place": "village"}}, {"type": "node", "id": 2090665108, "lat": 7.8381114, "lon": 0.7715554, "tags": {"name": "Brada", "place": "village", "population": "711", "population:date": "2014"}}, {"type": "node", "id": 2090665109, "lat": 7.8111437, "lon": 0.7604785, "tags": {"name": "Dagni", "place": "village"}}, {"type": "node", "id": 2090665110, "lat": 7.8054072, "lon": 0.7726506, "tags": {"name": "Dagnivi", "place": "village"}}, {"type": "node", "id": 2090665111, "lat": 7.7957438, "lon": 0.7812172, "tags": {"name": "Fonhouo", "place": "village"}}, {"type": "node", "id": 2090665447, "lat": 7.8669359, "lon": 0.7399035, "tags": {"name": "Seregban\u00e9", "place": "village"}}, {"type": "node", "id": 2091583076, "lat": 7.8643164, "lon": 0.8118646, "tags": {"name": "Adoukrom", "place": "village"}}, {"type": "node", "id": 2091583077, "lat": 7.8551031, "lon": 0.8226857, "tags": {"name": "Agb\u00e9djip\u00e9", "place": "village"}}, {"type": "node", "id": 2091583079, "lat": 7.8850222, "lon": 0.774357, "tags": {"name": "Kabagni", "place": "village"}}, {"type": "node", "id": 2091583080, "lat": 7.9238478, "lon": 0.8547007, "tags": {"name": "Kamina", "place": "village"}}, {"type": "node", "id": 2091583081, "lat": 7.8510834, "lon": 0.8516265, "tags": {"name": "Ouadagni", "place": "village"}}, {"type": "node", "id": 2091583756, "lat": 7.8601982, "lon": 0.7179259, "tags": {"name": "Salaga", "place": "village"}}, {"type": "node", "id": 2092718418, "lat": 7.8060586, "lon": 0.7147419, "tags": {"name": "Kapo", "place": "village"}}, {"type": "node", "id": 2092718423, "lat": 7.7830874, "lon": 0.8346356, "tags": {"name": "Kpalav\u00e9", "place": "village"}}, {"type": "node", "id": 2163867721, "lat": 8.0453026, "lon": 0.491955, "tags": {"name": "Pusupu", "place": "village"}}, {"type": "node", "id": 2203523037, "lat": 7.6373967, "lon": 0.5176056, "tags": {"name": "Mempeasem", "place": "village"}}, {"type": "node", "id": 2203523461, "lat": 7.6581647, "lon": 0.5206717, "tags": {"name": "Poase Cement", "place": "town"}}, {"type": "node", "id": 2203622533, "lat": 7.7006115, "lon": 0.5138215, "tags": {"place": "village"}}, {"type": "node", "id": 2203622550, "lat": 7.7208537, "lon": 0.5368178, "tags": {"name": "Ahamasu Junction", "place": "hamlet"}}, {"type": "node", "id": 2203622787, "lat": 7.7422831, "lon": 0.5101573, "tags": {"name": "Dodi Papase", "place": "village"}}, {"type": "node", "id": 2203622909, "lat": 7.7634936, "lon": 0.5094357, "tags": {"place": "village"}}, {"type": "node", "id": 2203622962, "lat": 7.7708035, "lon": 0.5604162, "tags": {"name": "Ampeyoo", "place": "village"}}, {"type": "node", "id": 2203623019, "lat": 7.7815679, "lon": 0.5336073, "tags": {"place": "village"}}, {"type": "node", "id": 2203623046, "lat": 7.7901452, "lon": 0.5009566, "tags": {"name": "Dain", "place": "village"}}, {"type": "node", "id": 2203623110, "lat": 7.8131815, "lon": 0.5659741, "tags": {"name": "Pampawie", "place": "village"}}, {"type": "node", "id": 2203623185, "lat": 7.820744, "lon": 0.5342408, "tags": {"name": "Dapa", "place": "village"}}, {"type": "node", "id": 2203623207, "lat": 7.8220369, "lon": 0.5023889, "tags": {"place": "village"}}, {"type": "node", "id": 2203623256, "lat": 7.8253046, "lon": 0.5464491, "tags": {"place": "village"}}, {"type": "node", "id": 2203623322, "lat": 7.849161, "lon": 0.5182311, "tags": {"place": "village"}}, {"type": "node", "id": 2203623328, "lat": 7.8503156, "lon": 0.4821912, "tags": {"place": "village"}}, {"type": "node", "id": 2203623362, "lat": 7.8724666, "lon": 0.5320022, "tags": {"name": "Dodo Pepesu", "place": "village"}}, {"type": "node", "id": 2203623435, "lat": 7.907759, "lon": 0.538666, "tags": {"name": "Dodo Tamale", "place": "village"}}, {"type": "node", "id": 2203623453, "lat": 7.9369167, "lon": 0.5403144, "tags": {"name": "Abrubruwa", "place": "village"}}, {"type": "node", "id": 2203623499, "lat": 7.9419333, "lon": 0.5110723, "tags": {"name": "Obanda", "place": "village"}}, {"type": "node", "id": 2203623523, "lat": 7.9526748, "lon": 0.5549352, "tags": {"name": "Fankyeneko", "place": "hamlet"}}, {"type": "node", "id": 2203623538, "lat": 7.956678, "lon": 0.5100997, "tags": {"place": "hamlet"}}, {"type": "node", "id": 2203738410, "lat": 8.0030281, "lon": 0.5583855, "tags": {"name": "Brewaniase", "place": "village", "wikidata": "Q15045828"}}, {"type": "node", "id": 2239799385, "lat": 8.0065544, "lon": 0.5252954, "tags": {"place": "hamlet"}}, {"type": "node", "id": 2239799394, "lat": 8.0116995, "lon": 0.5176147, "tags": {"place": "hamlet"}}, {"type": "node", "id": 2239799401, "lat": 8.0138008, "lon": 0.5109243, "tags": {"place": "hamlet"}}, {"type": "node", "id": 2897399339, "lat": 7.8924973, "lon": 0.8099411, "tags": {"place": "village"}}, {"type": "node", "id": 3662919708, "lat": 7.9558457, "lon": 0.6458459, "tags": {"place": "village", "population": "200"}}, {"type": "node", "id": 3662927244, "lat": 7.9421066, "lon": 0.6538872, "tags": {"name": "Etuve", "place": "village", "population": "500"}}, {"type": "node", "id": 3664494642, "lat": 7.6964247, "lon": 0.6876762, "tags": {"place": "village", "population": "100"}}, {"type": "node", "id": 3664498793, "lat": 7.6626742, "lon": 0.6961681, "tags": {"place": "village", "population": "50"}}, {"type": "node", "id": 3664499543, "lat": 7.7103718, "lon": 0.6699853, "tags": {"place": "village", "population": "50"}}, {"type": "node", "id": 3664501022, "lat": 7.6615375, "lon": 0.7067744, "tags": {"name": "Boinkere", "place": "village", "population": "500"}}, {"type": "node", "id": 3664504169, "lat": 7.6769024, "lon": 0.6941431, "tags": {"place": "village", "population": "50"}}, {"type": "node", "id": 3664504485, "lat": 7.6672328, "lon": 0.6960134, "tags": {"place": "village", "population": "30"}}, {"type": "node", "id": 3664507237, "lat": 7.6438568, "lon": 0.6813385, "tags": {"place": "village", "population": "50"}}, {"type": "node", "id": 3744166506, "lat": 7.6907485, "lon": 0.7672166, "tags": {"place": "village"}}, {"type": "node", "id": 3744171303, "lat": 7.6858499, "lon": 0.7807409, "tags": {"place": "village"}}, {"type": "node", "id": 3744171315, "lat": 7.6867287, "lon": 0.7424364, "tags": {"place": "village"}}, {"type": "node", "id": 3744171687, "lat": 7.6561849, "lon": 0.5935408, "tags": {"place": "village"}}, {"type": "node", "id": 3744172103, "lat": 7.7060321, "lon": 0.681423, "tags": {"place": "village"}}, {"type": "node", "id": 3744172186, "lat": 7.7093819, "lon": 0.7067794, "tags": {"place": "village"}}, {"type": "node", "id": 3744172209, "lat": 7.7110468, "lon": 0.7567268, "tags": {"place": "village"}}, {"type": "node", "id": 3744172946, "lat": 7.7306187, "lon": 0.6944001, "tags": {"place": "village"}}, {"type": "node", "id": 3744172986, "lat": 7.7348139, "lon": 0.6771117, "tags": {"place": "village"}}, {"type": "node", "id": 3744194766, "lat": 8.0454059, "lon": 0.5546819, "tags": {"fixme": "name+residential area", "place": "village", "source": "Bing", "source:date": "2012"}}, {"type": "node", "id": 3744744921, "lat": 7.7411358, "lon": 0.8062029, "tags": {"fixme": "name+residential area", "place": "village", "source": "Bing", "source:date": "2012"}}, {"type": "node", "id": 3744745483, "lat": 7.8044073, "lon": 0.7835766, "tags": {"fixme": "name+residential area", "place": "village", "source": "Bing", "source:date": "2012"}}, {"type": "node", "id": 3744745496, "lat": 7.8109525, "lon": 0.7902194, "tags": {"fixme": "name+residential area", "place": "village", "source": "Bing", "source:date": "2012"}}, {"type": "node", "id": 6548981973, "lat": 7.9594832, "lon": 0.5519357, "tags": {"fixme": "location", "name": "Fankyeneko", "place": "village"}}, {"type": "node", "id": 8635735194, "lat": 7.6718877, "lon": 0.519917, "tags": {"name": "Manida", "place": "hamlet"}}, {"type": "node", "id": 8645189310, "lat": 7.7258545, "lon": 0.5353558, "tags": {"name": "Dodi Papaso", "place": "village"}}, {"type": "node", "id": 8645228717, "lat": 7.7084626, "lon": 0.5557346, "tags": {"name": "Yadzo", "place": "village"}}, {"type": "node", "id": 8653718690, "lat": 7.6716729, "lon": 0.5199847, "tags": {"name": "Brafoni", "place": "hamlet"}}, {"type": "node", "id": 10185563374, "lat": 7.7503002, "lon": 0.8732723, "tags": {"name": "VILLAGE", "place": "hamlet"}}, {"type": "node", "id": 10275950707, "lat": 7.7160206, "lon": 0.657139, "tags": {"name": "Nyande", "place": "village"}}]}