{"version": 0.6, "generator": "Overpass API 0.7.61.5 4133829e", "osm3s": {"timestamp_osm_base": "2024-03-05T15:08:00Z", "copyright": "The data included in this document is from www.openstreetmap.org. The data is made available under ODbL."}, "elements": [{"type": "node", "id": 29398378, "lat": 66.0517686, "lon": 17.89168, "tags": {"name": "Arjeplog", "name:se": "\u00c1rjepluovve", "name:sje": "\u00c1rjepluovve", "name:sju": "\u00c1rjieplu\u00f6vvie", "name:sma": "Aarjepluevie", "name:smj": "\u00c1rjepluovve", "name:sv": "Arjeplog", "name:uk": "\u0410\u0440\u2019\u0454\u043f\u043b\u0443\u0433", "place": "town", "population": "1977", "ref:se:pts:postort": "ARJEPLOG", "ref:se:scb": "8512", "wikidata": "Q671330", "wikipedia": "sv:Arjeplog"}}, {"type": "node", "id": 2858134533, "lat": 65.6681665, "lon": 17.7546527, "tags": {"name": "Nyby", "place": "hamlet"}}, {"type": "node", "id": 2858134538, "lat": 65.641172, "lon": 17.7268936, "tags": {"name": "Fj\u00e4lln\u00e4s", "name:sma": "M\u00e5skien\u00e5jvvie", "name:sv": "Fj\u00e4lln\u00e4s", "place": "hamlet"}}, {"type": "node", "id": 2975772354, "lat": 66.0568576, "lon": 17.351705, "tags": {"name": "B\u00e5tsjaur", "name:sju": "B\u00e5sjarg\u014ba", "name:sv": "B\u00e5tsjaur", "place": "hamlet"}}, {"type": "node", "id": 3509653301, "lat": 65.7272031, "lon": 17.0686315, "tags": {"name": "Skansn\u00e4s", "place": "hamlet"}}, {"type": "node", "id": 3510243601, "lat": 66.0453874, "lon": 17.6200132, "tags": {"name": "Racksund", "name:sje": "R\u00e1hkkotj\u00e5lbme", "name:sv": "Racksund", "place": "hamlet"}}, {"type": "node", "id": 6786553883, "lat": 66.0325008, "lon": 17.3766749, "tags": {"name": "Korstr\u00e4sk", "place": "hamlet"}}, {"type": "node", "id": 6787287558, "lat": 66.0171687, "lon": 17.6633046, "tags": {"name": "Stibma", "place": "hamlet"}}, {"type": "node", "id": 6800122029, "lat": 65.8875342, "lon": 17.349698, "tags": {"name": "Bj\u00f6rkliden", "place": "hamlet"}}, {"type": "node", "id": 6800122156, "lat": 65.8364298, "lon": 17.5716438, "tags": {"name": "Marielund", "place": "hamlet"}}, {"type": "node", "id": 6800122164, "lat": 65.8200257, "lon": 17.584969, "tags": {"name": "Johannelund", "place": "hamlet"}}, {"type": "node", "id": 7723800081, "lat": 65.8182686, "lon": 16.8265056, "tags": {"alt_name": "Gillesnuole", "name": "Jillesn\u00e5le", "name:sma": "Jilliesn\u00e5llie", "place": "hamlet"}}, {"type": "node", "id": 7723800992, "lat": 65.7915867, "lon": 16.9807005, "tags": {"name": "Sejaur", "place": "hamlet"}}, {"type": "node", "id": 7723801158, "lat": 65.7681359, "lon": 17.0413397, "tags": {"name": "Storsj\u00f6", "place": "hamlet"}}, {"type": "node", "id": 7723801159, "lat": 65.7739125, "lon": 17.0181654, "tags": {"name": "H\u00e4lln\u00e4s", "place": "hamlet"}}, {"type": "node", "id": 7723801298, "lat": 65.8075956, "lon": 16.8946123, "tags": {"name": "Hemfj\u00e4ll", "place": "hamlet"}}, {"type": "node", "id": 7723801299, "lat": 65.8096884, "lon": 16.9166708, "tags": {"name": "Valln\u00e4s", "place": "hamlet"}}, {"type": "node", "id": 7723801300, "lat": 65.8058721, "lon": 16.9363689, "tags": {"name": "\u00d6vre Svarttj\u00e4rn", "place": "hamlet"}}, {"type": "node", "id": 7723801301, "lat": 65.7990822, "lon": 16.965208, "tags": {"name": "Nedre Svarttj\u00e4rn", "place": "hamlet"}}, {"type": "node", "id": 7723801479, "lat": 65.8026269, "lon": 16.9518398, "tags": {"name": "Svarttj\u00e4rn", "place": "hamlet"}}, {"type": "node", "id": 7997064453, "lat": 65.9116962, "lon": 17.5714087, "tags": {"name": "Innervik", "place": "hamlet"}}, {"type": "node", "id": 8567679418, "lat": 65.8978595, "lon": 17.1126866, "tags": {"name": "Klippen", "name:sma": "Sj\u00e5llja", "place": "hamlet"}}, {"type": "node", "id": 8576202597, "lat": 65.7466645, "lon": 17.0918083, "tags": {"name": "Vindelberga", "place": "hamlet"}}, {"type": "node", "id": 8578285283, "lat": 65.6659415, "lon": 17.401421, "tags": {"name": "Bj\u00e4rdaken", "name:sma": "Bierdake", "place": "hamlet"}}, {"type": "node", "id": 8578285288, "lat": 65.6396858, "lon": 17.4216771, "tags": {"name": "Karlsten", "place": "hamlet"}}, {"type": "node", "id": 8578285289, "lat": 65.6356407, "lon": 17.4398732, "tags": {"name": "Forsn\u00e4s", "place": "hamlet"}}, {"type": "node", "id": 8578958018, "lat": 65.6847853, "lon": 17.2936177, "tags": {"name": "Grann\u00e4s", "place": "hamlet"}}, {"type": "node", "id": 8578958019, "lat": 65.6873562, "lon": 17.2073364, "tags": {"name": "Karlsg\u00e5rd", "place": "hamlet"}}, {"type": "node", "id": 9105081886, "lat": 65.7121868, "lon": 17.6532483, "tags": {"name": "Granselet", "name:sje": "Guossasuvvane", "place": "hamlet"}}, {"type": "node", "id": 9105081889, "lat": 65.7345968, "lon": 17.6418371, "tags": {"name": "Mj\u00f6lkberg", "name:sje": "Me\u00e4lkkiev\u00e1r\u00e1tje", "place": "hamlet"}}, {"type": "node", "id": 9112495182, "lat": 65.894363, "lon": 17.5612592, "tags": {"name": "Maskaur", "name:sje": "M\u00e5ssk\u00e1vrrie", "place": "hamlet"}}]}