{"version": 0.6, "generator": "Overpass API 0.7.61.5 4133829e", "osm3s": {"timestamp_osm_base": "2024-03-05T14:53:32Z", "copyright": "The data included in this document is from www.openstreetmap.org. The data is made available under ODbL."}, "elements": [{"type": "node", "id": 656642128, "lat": 56.045599, "lon": 12.6944239, "tags": {"amenity": "bank", "atm": "yes", "bic": "SWEDSESS", "branch": "J\u00e4rnv\u00e4gsgatan", "brand": "Swedbank", "brand:wikidata": "Q1145493", "name": "Swedbank", "opening_hours": "Mo,Th 10:00-18:00; Tu,We,Fr 10:00-16:00", "operator": "Swedbank", "wheelchair": "yes"}}, {"type": "node", "id": 656642131, "lat": 56.0460419, "lon": 12.6934771, "tags": {"amenity": "bank", "atm": "yes", "bic": "ESSESESS", "brand": "SEB", "brand:wikidata": "Q975655", "brand:wikipedia": "sv:Skandinaviska Enskilda Banken", "name": "SEB", "opening_hours": "Mo-We 10:00-15:00; Th 10:00-18:00; Fr 10:00-15:00", "operator": "SEB", "wheelchair": "yes"}}, {"type": "node", "id": 656642133, "lat": 56.0467318, "lon": 12.6936745, "tags": {"amenity": "bank", "atm": "yes", "bic": "HANDSESS", "brand": "Handelsbanken", "brand:wikidata": "Q1421630", "name": "Handelsbanken Stortorget", "opening_hours": "Mo-We 09:30-15:00; Th 08:00-19:00; Fr 09:30-16:00", "operator": "Handelsbanken", "wheelchair": "yes"}}, {"type": "node", "id": 656642134, "lat": 56.0467396, "lon": 12.6940851, "tags": {"amenity": "bank", "atm": "no", "bic": "DABASESX", "brand": "Danske Bank", "brand:wikidata": "Q1636974", "brand:wikipedia": "sv:Danske Bank", "drive_through": "no", "name": "Danske Bank", "opening_hours": "Mo-Fr 10:00-15:00", "operator": "Danske Bank", "website": "https://danskebank.se"}}, {"type": "node", "id": 675631271, "lat": 56.0483557, "lon": 12.6929124, "tags": {"addr:city": "Helsingborg", "addr:country": "SE", "addr:housenumber": "26", "addr:street": "Kullagatan", "amenity": "bank", "bic": "NDEASESS", "brand": "Nordea", "brand:wikidata": "Q1123823", "brand:wikipedia": "sv:Nordea", "name": "Nordea", "opening_hours": "Mo-We 10:00-15:00; Th 10:00-17:30; Fr 10:00-15:00", "operator": "Nordea"}}, {"type": "node", "id": 676843844, "lat": 56.1996696, "lon": 12.5602963, "tags": {"addr:city": "H\u00f6gan\u00e4s", "addr:country": "SE", "addr:housenumber": "63", "addr:postcode": "263 31", "addr:street": "Storgatan", "atm": "yes", "email": "info@loppan-hoganas.se", "name": "Loppan", "opening_hours": "mo-fr 10:00-18:00; sa 10:00-14:00", "phone": "+46 735 131785", "second_hand": "yes", "shop": "second_hand"}}, {"type": "node", "id": 1025536663, "lat": 56.0575284, "lon": 12.701677, "tags": {"amenity": "bank", "atm": "yes", "bic": "HANDSESS", "name": "Handelsbanken Helsingborg Norr", "opening_hours": "Mo-We 09:00-17:00; Th 09:00-18:00; Fr 09:00-15:00", "operator": "Handelsbanken", "wheelchair": "limited"}}, {"type": "node", "id": 1314862540, "lat": 56.007485, "lon": 12.737911, "tags": {"amenity": "bank", "atm": "yes", "brand": "SEB", "brand:wikidata": "Q975655", "brand:wikipedia": "sv:Skandinaviska Enskilda Banken", "name": "SEB"}}, {"type": "node", "id": 1584592734, "lat": 56.0342002, "lon": 12.6114823, "tags": {"amenity": "bank", "atm": "yes", "brand": "Nordea", "brand:wikidata": "Q1123823", "name": "Nordea", "wheelchair": "yes"}}, {"type": "node", "id": 1778422576, "lat": 56.1345738, "lon": 12.9477244, "tags": {"amenity": "bank", "atm": "yes", "brand": "Swedbank", "brand:wikidata": "Q1145493", "brand:wikipedia": "sv:Swedbank", "name": "Swedbank"}}, {"type": "node", "id": 9891335809, "lat": 56.2001565, "lon": 12.5597186, "tags": {"amenity": "atm", "brand": "Bankomat", "brand:wikipedia": "sv:Bankomat", "opening_hours": "24/7", "operator": "Bankomat AB"}}, {"type": "node", "id": 9891335810, "lat": 56.2001908, "lon": 12.5592338}, {"type": "node", "id": 9891335811, "lat": 56.2001252, "lon": 12.5597045}, {"type": "node", "id": 9891335812, "lat": 56.2002475, "lon": 12.5597596}, {"type": "node", "id": 9891335813, "lat": 56.2003131, "lon": 12.5592888}, {"type": "node", "id": 10111934821, "lat": 56.0350379, "lon": 12.6135297, "tags": {"amenity": "bank", "atm": "yes", "brand": "Nykredit", "check_date": "2022-10-18"}}, {"type": "node", "id": 10111934825, "lat": 56.0347693, "lon": 12.6133829, "tags": {"amenity": "bank", "brand": "Sparkassen Sj\u00e6lland", "check_date": "2022-10-18"}}, {"type": "node", "id": 10111934832, "lat": 56.0347458, "lon": 12.612817, "tags": {"amenity": "bank", "atm": "yes", "brand": "Danske Bank", "brand:wikidata": "Q1636974", "check_date": "2022-10-18", "name": "Danske Bank"}}, {"type": "node", "id": 11473034504, "lat": 56.2443641, "lon": 12.8628911, "tags": {"addr:housenumber": "46", "addr:postcode": "26221", "addr:street": "Storgatan", "amenity": "bank", "brand": "SEB", "brand:wikidata": "Q975655", "name": "SEB"}}, {"type": "node", "id": 11473034515, "lat": 56.242994, "lon": 12.8623654, "tags": {"amenity": "bank", "brand": "Handelsbanken", "brand:wikidata": "Q1421630", "name": "Handelsbanken"}}, {"type": "way", "id": 1079001313, "nodes": [9891335813, 9891335812, 9891335809, 9891335811, 9891335810, 9891335813], "tags": {"amenity": "bank", "brand": "Swedbank", "building": "yes", "name": "Swedbank"}}]}