{"version": 0.6, "generator": "Overpass API 0.7.61.5 4133829e", "osm3s": {"timestamp_osm_base": "2024-03-05T14:47:30Z", "copyright": "The data included in this document is from www.openstreetmap.org. The data is made available under ODbL."}, "elements": [{"type": "node", "id": 1846595463, "lat": 59.3153484, "lon": 14.504813, "tags": {"amenity": "atm", "operator": "Swedbank", "wheelchair": "yes"}}, {"type": "node", "id": 1846595465, "lat": 59.3259524, "lon": 14.5232001, "tags": {"amenity": "atm", "operator": "Swedbank"}}, {"type": "node", "id": 1859365698, "lat": 59.3263091, "lon": 14.522865, "tags": {"amenity": "atm", "operator": "Bankomat"}}, {"type": "node", "id": 1878289305, "lat": 59.3280037, "lon": 14.5750238, "tags": {"amenity": "atm", "operator": "Bankomat"}}, {"type": "node", "id": 4304607090, "lat": 59.3127186, "lon": 14.1015072, "tags": {"amenity": "atm", "check_date": "2021-12-28"}}, {"type": "node", "id": 4998339572, "lat": 59.3115226, "lon": 14.1279274, "tags": {"addr:city": "Kristinehamn", "addr:country": "SE", "addr:housenumber": "28", "addr:postcode": "681 43", "addr:street": "N\u00e4rkev\u00e4gen", "amenity": "atm", "cash_in": "no", "check_date": "2023-06-24", "name": "ICA Banken"}}]}