{"version": 0.6, "generator": "Overpass API 0.7.61.5 4133829e", "osm3s": {"timestamp_osm_base": "2024-03-05T14:52:35Z", "copyright": "The data included in this document is from www.openstreetmap.org. The data is made available under ODbL."}, "elements": [{"type": "node", "id": 519160589, "lat": 62.6325151, "lon": 17.9385868, "tags": {"amenity": "bank", "operator": "Nordea", "source": "local_knowledge"}}, {"type": "node", "id": 3556936787, "lat": 62.9307916, "lon": 17.7767594, "tags": {"amenity": "bank", "atm": "no", "brand": "Handelsbanken", "brand:wikidata": "Q1421630", "brand:wikipedia": "en:Handelsbanken", "name": "Handelsbanken"}}, {"type": "node", "id": 3556937597, "lat": 62.9309751, "lon": 17.7774834, "tags": {"amenity": "bank", "atm": "no", "brand": "Nordea", "brand:wikidata": "Q1123823", "brand:wikipedia": "en:Nordea", "name": "Nordea"}}, {"type": "node", "id": 3556937604, "lat": 62.9315817, "lon": 17.780303, "tags": {"amenity": "bank", "brand": "Swedbank", "brand:wikidata": "Q1145493", "brand:wikipedia": "en:Swedbank", "name": "Swedbank"}}, {"type": "node", "id": 5931012572, "lat": 62.6341314, "lon": 17.9397016, "tags": {"amenity": "bank", "name": "L\u00e4nsf\u00f6rs\u00e4kringar V\u00e4sternorrland AB", "office": "company", "opening_hours": "Mo-Fr 10:00-15:00", "website": "https://www.lansforsakringar.se/vasternorrland/privat/"}}, {"type": "node", "id": 6622061093, "lat": 62.6334741, "lon": 17.9384881, "tags": {"amenity": "bank", "brand": "Swedbank", "brand:wikidata": "Q1145493", "brand:wikipedia": "en:Swedbank", "name": "Swedbank"}}]}