{"version": 0.6, "generator": "Overpass API 0.7.61.5 4133829e", "osm3s": {"timestamp_osm_base": "2024-03-05T15:08:58Z", "copyright": "The data included in this document is from www.openstreetmap.org. The data is made available under ODbL."}, "elements": [{"type": "node", "id": 220219, "lat": 62.991599, "lon": 18.2924826, "tags": {"name": "Skatan", "place": "hamlet"}}, {"type": "node", "id": 27560253, "lat": 63.2888613, "lon": 18.7160209, "tags": {"name": "\u00d6rnsk\u00f6ldsvik", "name:ru": "\u042d\u0440\u043d\u0448\u0451\u043b\u044c\u0434\u0441\u0432\u0438\u043a", "name:sma": "Orrestaare", "name:sv": "\u00d6rnsk\u00f6ldsvik", "name:uk": "\u0415\u0440\u043d\u0448\u0435\u043b\u044c\u0434\u0441\u0432\u0456\u043a", "place": "city", "population": "32953", "ref:se:pts:postort": "\u00d6RNSK\u00d6LDSVIK", "ref:se:scb": "7744", "short_name": "\u00d6-vik", "wikidata": "Q28327", "wikipedia": "sv:\u00d6rnsk\u00f6ldsvik"}}, {"type": "node", "id": 57513293, "lat": 63.4247722, "lon": 18.3088234, "tags": {"name": "Mellansel", "place": "village", "ref:se:pts:postort": "MELLANSEL", "ref:se:scb": "7584", "wikidata": "Q1919508", "wikipedia": "sv:Mellansel"}}, {"type": "node", "id": 249281150, "lat": 63.3792944, "lon": 18.4555731, "tags": {"name": "Moliden", "place": "village", "ref:se:pts:postort": "MOLIDEN", "ref:se:scb": "7592", "wikidata": "Q175885"}}, {"type": "node", "id": 249282163, "lat": 63.1694675, "lon": 18.5546217, "tags": {"name": "K\u00f6pmanholmen", "place": "village", "ref:se:pts:postort": "K\u00d6PMANHOLMEN", "ref:se:scb": "7540", "wikidata": "Q2785610"}}, {"type": "node", "id": 249282164, "lat": 63.2038751, "lon": 18.5002737, "tags": {"name": "Bj\u00e4sta", "place": "village", "ref:se:pts:postort": "BJ\u00c4STA", "ref:se:scb": "7424", "wikidata": "Q1611156"}}, {"type": "node", "id": 262185953, "lat": 63.312016, "lon": 18.2644227, "tags": {"name": "Sidensj\u00f6", "place": "village", "ref:se:pts:postort": "SIDENSJ\u00d6", "ref:se:scb": "7644"}}, {"type": "node", "id": 289468490, "lat": 63.0104567, "lon": 18.1844672, "tags": {"addr:postcode": "870 32", "name": "Ull\u00e5nger", "place": "village", "population": "626", "ref:se:pts:postort": "ULL\u00c5NGER", "ref:se:scb": "7680", "wikidata": "Q2622251", "wikipedia": "sv:Ull\u00e5nger"}}, {"type": "node", "id": 289485937, "lat": 63.0573209, "lon": 18.327456, "tags": {"name": "Docksta", "place": "village", "population": "378", "postal_code": "870 33", "ref:se:pts:postort": "DOCKSTA", "ref:se:scb": "7448", "wikidata": "Q1233779", "wikipedia": "sv:Docksta"}}, {"type": "node", "id": 431350782, "lat": 62.9866904, "lon": 18.4304287, "tags": {"name": "Mj\u00e4llom", "place": "village", "population": "275", "ref:se:pts:postort": "MJ\u00c4LLOM", "ref:se:scb": "7588", "wikidata": "Q765760"}}, {"type": "node", "id": 431417288, "lat": 62.9941715, "lon": 18.2748015, "tags": {"name": "Sals\u00e5ker", "place": "village"}}, {"type": "node", "id": 584771586, "lat": 63.0425037, "lon": 17.6527352, "tags": {"name": "H\u00e5lls\u00e4tter", "place": "hamlet", "source": "historical", "source_ref": "ekonomiska kartan"}}, {"type": "node", "id": 588453117, "lat": 63.0462615, "lon": 17.7444771, "tags": {"name": "Viksb\u00e4cken", "place": "hamlet"}}, {"type": "node", "id": 588453420, "lat": 63.0817514, "lon": 17.7545387, "tags": {"name": "Pr\u00e4stmon", "place": "village"}}, {"type": "node", "id": 588453729, "lat": 63.11268, "lon": 17.7332372, "tags": {"name": "K\u00e4rvsta", "place": "hamlet"}}, {"type": "node", "id": 588523919, "lat": 63.0617536, "lon": 17.6176205, "tags": {"name": "Kyrkdal", "place": "hamlet", "population": "61", "ref:se:scb": "S7721"}}, {"type": "node", "id": 588526086, "lat": 63.0085095, "lon": 17.7570693, "tags": {"name": "Nyland", "place": "village", "population": "903", "ref:se:pts:postort": "NYLAND", "ref:se:scb": "7661", "wikidata": "Q3470247"}}, {"type": "node", "id": 588526088, "lat": 63.0228471, "lon": 17.7984024, "tags": {"name": "Dannero", "place": "hamlet"}}, {"type": "node", "id": 702159651, "lat": 63.2846493, "lon": 18.7008065}, {"type": "node", "id": 739291897, "lat": 63.1604718, "lon": 18.5133012, "tags": {"name": "N\u00e4ske", "place": "hamlet"}}, {"type": "node", "id": 739291920, "lat": 63.1623877, "lon": 18.4630786, "tags": {"name": "J\u00e4rvvik", "place": "hamlet"}}, {"type": "node", "id": 846056787, "lat": 63.3838651, "lon": 17.8573639, "tags": {"name": "Skorped", "place": "village", "ref:se:pts:postort": "SKORPED"}}, {"type": "node", "id": 888833546, "lat": 63.1731101, "lon": 17.8020228, "tags": {"name": "G\u00e5lsj\u00f6 bruk", "place": "hamlet"}}, {"type": "node", "id": 889331844, "lat": 63.2542617, "lon": 18.2625384, "tags": {"name": "Dr\u00f6mme", "place": "hamlet"}}, {"type": "node", "id": 889333581, "lat": 63.2167075, "lon": 18.2939047, "tags": {"name": "R\u00f6ssj\u00f6", "place": "hamlet"}}, {"type": "node", "id": 889337988, "lat": 63.2402466, "lon": 18.3069295, "tags": {"name": "Orrvik", "place": "hamlet"}}, {"type": "node", "id": 902322200, "lat": 63.2898354, "lon": 18.5575503, "tags": {"name": "\u00d6verh\u00f6rn\u00e4s", "place": "hamlet", "ref:se:pts:postort": "\u00d6VERH\u00d6RN\u00c4S", "ref:se:scb": "7756", "wikidata": "Q2077385"}}, {"type": "node", "id": 1089234622, "lat": 63.2843635, "lon": 18.566494, "tags": {"name": "Fr\u00e4mmerh\u00f6rn\u00e4s", "place": "hamlet"}}, {"type": "node", "id": 1089234625, "lat": 63.286559, "lon": 18.533741, "tags": {"name": "Haffsta", "place": "hamlet"}}, {"type": "node", "id": 1089348429, "lat": 63.1495358, "lon": 17.6930649, "tags": {"name": "Grillom", "place": "hamlet"}}, {"type": "node", "id": 1089353668, "lat": 63.0135368, "lon": 17.797665, "tags": {"name": "Sandsl\u00e5n", "place": "village", "population": "272", "ref:se:scb": "7636", "wikidata": "Q2457823"}}, {"type": "node", "id": 1094093773, "lat": 63.3860734, "lon": 18.4725005, "tags": {"name": "Backe", "place": "hamlet"}}, {"type": "node", "id": 1094093799, "lat": 63.3258189, "lon": 18.5534649, "tags": {"name": "V\u00e4sterhus", "place": "hamlet", "ref:se:scb": "7728", "wikidata": "Q2310207"}}, {"type": "node", "id": 1120078958, "lat": 63.2174892, "lon": 18.437278, "tags": {"name": "Kornsj\u00f6", "place": "hamlet"}}, {"type": "node", "id": 1120078982, "lat": 63.2483823, "lon": 18.4308923, "tags": {"name": "Mj\u00e4la", "place": "hamlet"}}, {"type": "node", "id": 1120079007, "lat": 63.2441184, "lon": 18.5099605, "tags": {"name": "S\u00f6rtj\u00e4rn", "place": "hamlet"}}, {"type": "node", "id": 1120079040, "lat": 63.2552547, "lon": 18.380395, "tags": {"name": "V\u00e4stersel", "place": "hamlet"}}, {"type": "node", "id": 1120079189, "lat": 63.2726515, "lon": 18.4621793, "tags": {"name": "Kilen", "place": "hamlet"}}, {"type": "node", "id": 1120079214, "lat": 63.2893416, "lon": 18.4625211, "tags": {"name": "G\u00e4rdal", "place": "hamlet"}}, {"type": "node", "id": 1137970819, "lat": 63.2921197, "lon": 18.6893748}, {"type": "node", "id": 1137970835, "lat": 63.2944052, "lon": 18.6919498}, {"type": "node", "id": 1137970840, "lat": 63.2839308, "lon": 18.7029576}, {"type": "node", "id": 1137970851, "lat": 63.2924379, "lon": 18.6899757}, {"type": "node", "id": 1137970857, "lat": 63.2906537, "lon": 18.6889028}, {"type": "node", "id": 1137970862, "lat": 63.288609, "lon": 18.6926579}, {"type": "node", "id": 1140772025, "lat": 63.0241918, "lon": 18.1688112, "tags": {"name": "Invik", "place": "hamlet"}}, {"type": "node", "id": 1140772284, "lat": 63.0080865, "lon": 18.189956, "tags": {"name": "Utvik", "place": "hamlet"}}, {"type": "node", "id": 1140772450, "lat": 62.9981382, "lon": 18.2218071, "tags": {"name": "R\u00f6viken", "place": "hamlet"}}, {"type": "node", "id": 1142872302, "lat": 63.0231446, "lon": 17.7601989, "tags": {"name": "Hammar", "place": "hamlet"}}, {"type": "node", "id": 1142872311, "lat": 63.1172745, "lon": 17.7086275, "tags": {"name": "Fanom", "place": "hamlet"}}, {"type": "node", "id": 1142893739, "lat": 63.0240965, "lon": 17.6689737, "tags": {"name": "Ed", "place": "hamlet"}}, {"type": "node", "id": 1142893742, "lat": 63.0518298, "lon": 17.7261327, "tags": {"name": "Vik", "place": "hamlet"}}, {"type": "node", "id": 1142893745, "lat": 63.0519853, "lon": 17.6948216, "tags": {"name": "Barktj\u00e4rn", "place": "hamlet"}}, {"type": "node", "id": 1142893749, "lat": 63.0569501, "lon": 17.6322382, "tags": {"name": "\u00c4rsta", "place": "hamlet"}}, {"type": "node", "id": 1142951695, "lat": 63.118592, "lon": 17.7355311, "tags": {"name": "Undrom", "place": "hamlet", "ref:se:pts:postort": "UNDROM"}}, {"type": "node", "id": 1142951708, "lat": 63.1294601, "lon": 17.754946, "tags": {"name": "Kalkn\u00e4s", "place": "hamlet"}}, {"type": "node", "id": 1144589669, "lat": 63.0039563, "lon": 18.3951787, "tags": {"name": "Mj\u00e4llomslandet", "place": "hamlet"}}, {"type": "node", "id": 1154848995, "lat": 62.9967929, "lon": 18.1840122, "tags": {"name": "Klappsta", "place": "hamlet"}}, {"type": "node", "id": 1154854546, "lat": 63.0503673, "lon": 17.8030098, "tags": {"name": "Lo", "place": "hamlet"}}, {"type": "node", "id": 1154884748, "lat": 63.0770398, "lon": 17.963496, "tags": {"alt_name": "Idsj\u00f6", "name": "Idsj\u00f6n", "place": "hamlet"}}, {"type": "node", "id": 1154884771, "lat": 63.0736352, "lon": 17.8443029, "tags": {"name": "Sj\u00f6", "place": "hamlet"}}, {"type": "node", "id": 1154884777, "lat": 63.0691767, "lon": 17.8151463, "tags": {"name": "Myckelby", "place": "hamlet"}}, {"type": "node", "id": 1154884846, "lat": 63.0621746, "lon": 17.8330849, "tags": {"name": "D\u00e4msta", "place": "hamlet"}}, {"type": "node", "id": 1154884849, "lat": 63.0866103, "lon": 17.7784365, "tags": {"name": "Styrn\u00e4s", "place": "hamlet"}}, {"type": "node", "id": 1154915528, "lat": 63.0669336, "lon": 17.9950989, "tags": {"name": "Bj\u00f6rnsj\u00f6", "place": "hamlet"}}, {"type": "node", "id": 1154915593, "lat": 63.0656156, "lon": 18.0591286, "tags": {"name": "Almsj\u00f6n\u00e4s", "place": "hamlet"}}, {"type": "node", "id": 1154933667, "lat": 63.125889, "lon": 17.9162977, "tags": {"name": "F\u00e5lasj\u00f6", "place": "hamlet"}}, {"type": "node", "id": 1156202477, "lat": 63.1095125, "lon": 17.7652697, "tags": {"name": "Solum", "place": "hamlet"}}, {"type": "node", "id": 1156244066, "lat": 63.1402224, "lon": 17.6976265, "tags": {"alt_name": "Golva", "name": "G\u00e5lva", "place": "hamlet"}}, {"type": "node", "id": 1156258528, "lat": 63.0061493, "lon": 18.1071848, "tags": {"alt_name": "Viks\u00e4ter", "name": "Viks\u00e4tter", "place": "hamlet"}}, {"type": "node", "id": 1156276401, "lat": 63.0608494, "lon": 18.3271712, "tags": {"name": "Herresta", "place": "hamlet"}}, {"type": "node", "id": 1156276406, "lat": 63.0911526, "lon": 18.2627958, "tags": {"name": "Utanskog", "place": "hamlet"}}, {"type": "node", "id": 1156276409, "lat": 63.0741181, "lon": 18.3144058, "tags": {"name": "Hemsta", "place": "hamlet"}}, {"type": "node", "id": 1156276411, "lat": 63.078469, "lon": 18.3273662, "tags": {"name": "Norrg\u00e4llsta", "place": "hamlet"}}, {"type": "node", "id": 1156276419, "lat": 63.0775772, "lon": 18.312775, "tags": {"name": "S\u00f6rg\u00e4llsta", "place": "hamlet"}}, {"type": "node", "id": 1156276420, "lat": 63.0798855, "lon": 18.2845324, "tags": {"name": "Nyland", "place": "hamlet"}}, {"type": "node", "id": 1156276424, "lat": 63.1220332, "lon": 18.2582897, "tags": {"name": "Otte", "place": "hamlet"}}, {"type": "node", "id": 1156278836, "lat": 63.0488278, "lon": 18.0531286, "tags": {"name": "Djupdalen", "place": "hamlet"}}, {"type": "node", "id": 1156278840, "lat": 63.1295756, "lon": 18.2326864, "tags": {"name": "V\u00e4stmarkum", "place": "hamlet"}}, {"type": "node", "id": 1156278842, "lat": 63.1245786, "lon": 18.2426342, "tags": {"name": "Eriksdal", "place": "hamlet"}}, {"type": "node", "id": 1156278866, "lat": 63.1353009, "lon": 18.220198, "tags": {"name": "\u00c5svedjan", "place": "hamlet"}}, {"type": "node", "id": 1156278874, "lat": 63.1297657, "lon": 18.2545046, "tags": {"name": "\u00d6stmarkum", "place": "hamlet"}}, {"type": "node", "id": 1156280038, "lat": 63.0351781, "lon": 17.9975361, "tags": {"name": "\u00c5kersj\u00f6torp", "place": "hamlet"}}, {"type": "node", "id": 1156280039, "lat": 63.0544252, "lon": 17.9891075, "tags": {"name": "Norrtj\u00e4rn", "place": "hamlet"}}, {"type": "node", "id": 1156466902, "lat": 63.0144851, "lon": 18.218078, "tags": {"name": "M\u00e4ja", "place": "hamlet"}}, {"type": "node", "id": 1156466924, "lat": 63.0071622, "lon": 18.2560152, "tags": {"name": "Stensland", "place": "hamlet"}}, {"type": "node", "id": 1156506064, "lat": 63.0900766, "lon": 18.2141127, "tags": {"name": "Vamme", "place": "hamlet"}}, {"type": "node", "id": 1156506081, "lat": 63.0805257, "lon": 18.2736169, "tags": {"name": "Dyn\u00e4s", "place": "hamlet"}}, {"type": "node", "id": 1156519423, "lat": 63.0544018, "lon": 18.343511, "tags": {"name": "N\u00e4s", "place": "hamlet"}}, {"type": "node", "id": 1156521779, "lat": 63.0285805, "lon": 18.4059013, "tags": {"name": "V\u00e4rns", "place": "hamlet"}}, {"type": "node", "id": 1156539601, "lat": 63.1623916, "lon": 18.4146131, "tags": {"name": "Skuln\u00e4s", "place": "hamlet"}}, {"type": "node", "id": 1156539622, "lat": 63.1645848, "lon": 18.3995241, "tags": {"name": "G\u00e4rden", "place": "hamlet"}}, {"type": "node", "id": 1156539624, "lat": 63.0459334, "lon": 18.4489626, "tags": {"name": "Sund", "place": "hamlet"}}, {"type": "node", "id": 1156539626, "lat": 63.0676421, "lon": 18.417909, "tags": {"name": "K\u00e4xed", "place": "hamlet"}}, {"type": "node", "id": 1156539629, "lat": 63.0621695, "lon": 18.3476699, "tags": {"name": "Berg", "place": "hamlet"}}, {"type": "node", "id": 1156539634, "lat": 63.1684533, "lon": 18.4200591, "tags": {"name": "B\u00f6len", "place": "hamlet"}}, {"type": "node", "id": 1156539641, "lat": 63.1523771, "lon": 18.4097036, "tags": {"name": "Skule", "place": "hamlet"}}, {"type": "node", "id": 1156539655, "lat": 63.1683778, "lon": 18.3809847, "tags": {"name": "Br\u00e4cke", "place": "hamlet"}}, {"type": "node", "id": 1156544259, "lat": 63.1818296, "lon": 18.3264221, "tags": {"name": "Fj\u00e4ll\u00e5kern", "place": "hamlet"}}, {"type": "node", "id": 1156544264, "lat": 63.1794635, "lon": 18.353742, "tags": {"name": "L\u00e5ngn\u00e4s", "place": "hamlet"}}, {"type": "node", "id": 1156545239, "lat": 63.1427158, "lon": 18.3420004, "tags": {"name": "Bj\u00f6rk\u00e5b\u00e4ck", "place": "hamlet"}}, {"type": "node", "id": 1156546033, "lat": 63.1776162, "lon": 18.4352211, "tags": {"name": "Norum", "place": "hamlet"}}, {"type": "node", "id": 1156550817, "lat": 63.1778369, "lon": 18.5318922, "tags": {"name": "Bred\u00e5nger", "place": "hamlet"}}, {"type": "node", "id": 1156568652, "lat": 63.2202487, "lon": 18.5112928, "tags": {"name": "Skrike", "place": "hamlet"}}, {"type": "node", "id": 1156569987, "lat": 63.1539644, "lon": 18.5146102, "tags": {"name": "N\u00e4ske brygga", "place": "hamlet"}}, {"type": "node", "id": 1156605900, "lat": 63.1831655, "lon": 18.4458898, "tags": {"name": "Spjute", "place": "hamlet"}}, {"type": "node", "id": 1156623450, "lat": 63.2636317, "lon": 18.2441311, "tags": {"name": "Kl\u00e4ppen", "place": "hamlet"}}, {"type": "node", "id": 1156623453, "lat": 63.2519849, "lon": 18.2867941, "tags": {"name": "Orrlunden", "place": "hamlet"}}, {"type": "node", "id": 1156626926, "lat": 63.2363318, "lon": 18.3972324, "tags": {"name": "Vik", "place": "hamlet"}}, {"type": "node", "id": 1156629002, "lat": 63.2465453, "lon": 18.4113602, "tags": {"name": "\u00d6stersel", "place": "hamlet"}}, {"type": "node", "id": 1156629006, "lat": 63.2545923, "lon": 18.463159, "tags": {"name": "Fors", "place": "hamlet"}}, {"type": "node", "id": 1156636785, "lat": 63.1591598, "lon": 17.7145952, "tags": {"name": "Sunnersta", "place": "hamlet"}}, {"type": "node", "id": 1156636786, "lat": 63.1522647, "lon": 17.6749586, "tags": {"name": "Tybr\u00e4nn", "place": "hamlet"}}, {"type": "node", "id": 1156636788, "lat": 63.1576096, "lon": 17.6928543, "tags": {"name": "Valla", "place": "hamlet"}}, {"type": "node", "id": 1157878043, "lat": 63.3822647, "lon": 17.8208591, "tags": {"name": "L\u00e4nn\u00e4s", "place": "hamlet"}}, {"type": "node", "id": 1157892006, "lat": 63.3233103, "lon": 17.8933432, "tags": {"name": "Degersj\u00f6", "place": "hamlet"}}, {"type": "node", "id": 1157892010, "lat": 63.376592, "lon": 17.9071619, "tags": {"name": "Mosj\u00f6", "place": "hamlet"}}, {"type": "node", "id": 1157911268, "lat": 63.3301684, "lon": 18.252536, "tags": {"name": "Nybyn", "place": "hamlet"}}, {"type": "node", "id": 1157911311, "lat": 63.3241425, "lon": 17.996134, "tags": {"name": "Sj\u00f6land", "place": "hamlet"}}, {"type": "node", "id": 1157911445, "lat": 63.3369403, "lon": 18.0251276, "tags": {"name": "Djupsj\u00f6", "place": "hamlet"}}, {"type": "node", "id": 1157925076, "lat": 63.303223, "lon": 18.3373796, "tags": {"name": "By", "place": "hamlet"}}, {"type": "node", "id": 1157925086, "lat": 63.3154647, "lon": 18.2714401, "tags": {"addr:city": "Sidensj\u00f6", "addr:postcode": "89396", "addr:street": "Nyland", "name": "Nyland", "place": "hamlet"}}, {"type": "node", "id": 1157931867, "lat": 63.317144, "lon": 18.4342052, "tags": {"name": "\u00d6sterbillsj\u00f6", "place": "hamlet"}}, {"type": "node", "id": 1157931883, "lat": 63.3008822, "lon": 18.3669312, "tags": {"name": "Butsj\u00f6b\u00f6le", "place": "hamlet"}}, {"type": "node", "id": 1157939237, "lat": 63.3298756, "lon": 18.3844149, "tags": {"name": "V\u00e4sterbillsj\u00f6", "place": "hamlet"}}, {"type": "node", "id": 1157939281, "lat": 63.31014, "lon": 18.5090496, "tags": {"name": "Fr\u00e4mmerbilla", "place": "hamlet"}}, {"type": "node", "id": 1158105708, "lat": 63.3966857, "lon": 18.4645807, "tags": {"name": "V\u00e4sterbacke", "place": "hamlet"}}, {"type": "node", "id": 1158105710, "lat": 63.3617492, "lon": 18.4552509, "tags": {"name": "Gala", "place": "hamlet"}}, {"type": "node", "id": 1158109100, "lat": 63.374189, "lon": 18.4814186, "tags": {"name": "\u00d6sterbacke", "place": "hamlet"}}, {"type": "node", "id": 1158161182, "lat": 63.3158147, "lon": 18.503573, "tags": {"name": "\u00d6verbilla", "place": "hamlet"}}, {"type": "node", "id": 1158167624, "lat": 63.3228771, "lon": 18.5144955, "tags": {"name": "Billsta", "place": "village", "ref:se:scb": "7420", "wikidata": "Q862932"}}, {"type": "node", "id": 1174726873, "lat": 63.4199573, "lon": 18.4126138, "tags": {"name": "S\u00f6der\u00e5", "place": "hamlet"}}, {"type": "node", "id": 1191592140, "lat": 63.1861108, "lon": 18.5306961, "tags": {"name": "\u00c5mynnet", "place": "hamlet", "ref:se:scb": "7732", "wikidata": "Q2418177"}}, {"type": "node", "id": 1192795835, "lat": 63.1640922, "lon": 18.5574952, "tags": {"name": "Hummelvik", "place": "hamlet"}}, {"type": "node", "id": 1200475265, "lat": 63.3012748, "lon": 18.5819152, "tags": {"name": "S\u00e5gudden", "place": "hamlet"}}, {"type": "node", "id": 1200475397, "lat": 63.3022726, "lon": 18.5777095, "tags": {"name": "Bj\u00f6rkudden", "place": "hamlet"}}, {"type": "node", "id": 1233548212, "lat": 62.9860222, "lon": 18.4431159, "tags": {"name": "Petsamo", "place": "hamlet"}}, {"type": "node", "id": 1253107475, "lat": 63.3099673, "lon": 18.4091486, "tags": {"name": "Komn\u00e4s", "place": "hamlet"}}, {"type": "node", "id": 1253117008, "lat": 63.306465, "lon": 18.4007053, "tags": {"name": "L\u00f6vsj\u00f6", "place": "hamlet"}}, {"type": "node", "id": 1254079746, "lat": 63.2691113, "lon": 18.5290553, "tags": {"name": "\u00c5te", "place": "hamlet"}}, {"type": "node", "id": 1560974516, "lat": 63.3344057, "lon": 18.2023734, "tags": {"addr:city": "Sidensj\u00f6", "addr:postcode": "89396", "addr:street": "Myre", "name": "Myre", "place": "hamlet"}}, {"type": "node", "id": 1639644675, "lat": 63.2334188, "lon": 18.575402, "tags": {"name": "Bergom", "place": "hamlet"}}, {"type": "node", "id": 1997403793, "lat": 63.3128268, "lon": 18.2131091, "tags": {"name": "\u00c5s", "place": "hamlet"}}, {"type": "node", "id": 2396224623, "lat": 63.268495, "lon": 18.1860201, "tags": {"name": "Anundsb\u00f6le", "place": "hamlet"}}, {"type": "node", "id": 2396224641, "lat": 63.2795948, "lon": 18.0427106, "tags": {"name": "Gr\u00e4tn\u00e4s", "place": "hamlet"}}, {"type": "node", "id": 2396224672, "lat": 63.270328, "lon": 18.257452, "tags": {"name": "N\u00e4s", "place": "hamlet"}}, {"type": "node", "id": 2396224673, "lat": 63.1493249, "lon": 17.7490575, "tags": {"name": "Offer", "place": "hamlet"}}, {"type": "node", "id": 2396225599, "lat": 63.2822407, "lon": 18.2791064, "tags": {"name": "\u00c5", "place": "hamlet"}}, {"type": "node", "id": 2416409190, "lat": 63.0048372, "lon": 18.1709847, "tags": {"name": "Salum", "place": "hamlet"}}, {"type": "node", "id": 2416409192, "lat": 63.0104942, "lon": 18.1747913, "tags": {"name": "T\u00f6rna", "place": "hamlet"}}, {"type": "node", "id": 2653438985, "lat": 63.3228439, "lon": 18.259935, "tags": {"name": "Grindn\u00e4set", "place": "hamlet"}}, {"type": "node", "id": 2653475430, "lat": 63.3008237, "lon": 18.2682353, "tags": {"name": "H\u00e4mra", "place": "hamlet"}}, {"type": "node", "id": 2654542335, "lat": 63.2859391, "lon": 18.2180699, "tags": {"name": "Teg", "place": "hamlet"}}, {"type": "node", "id": 2881675056, "lat": 63.3930727, "lon": 17.6464988, "tags": {"name": "N\u00e4set", "place": "hamlet"}}, {"type": "node", "id": 2881675057, "lat": 63.3931011, "lon": 17.6763775, "tags": {"name": "Holm", "place": "hamlet"}}, {"type": "node", "id": 3645123525, "lat": 63.0577264, "lon": 18.352383, "tags": {"name": "Germesta", "place": "hamlet"}}, {"type": "node", "id": 4014242620, "lat": 63.3301788, "lon": 18.3237437, "tags": {"name": "Nol\u00e5s", "place": "hamlet"}}, {"type": "node", "id": 4281870025, "lat": 63.0045762, "lon": 17.69059, "tags": {"name": "Holmen", "place": "hamlet"}}, {"type": "node", "id": 4281870029, "lat": 63.0082577, "lon": 17.7178198, "tags": {"name": "Nordan\u00e5ker", "place": "hamlet"}}, {"type": "node", "id": 4281870033, "lat": 63.0077123, "lon": 17.6951605, "tags": {"name": "Sunnan\u00e5ker", "place": "hamlet"}}, {"type": "node", "id": 5763144749, "lat": 63.0725433, "lon": 18.4437918, "tags": {"name": "K\u00e4l", "place": "hamlet"}}, {"type": "node", "id": 6966297835, "lat": 63.2818276, "lon": 18.6545276}, {"type": "node", "id": 6966297836, "lat": 63.2590507, "lon": 18.6656856}, {"type": "node", "id": 6966297837, "lat": 63.2485441, "lon": 18.6716937}, {"type": "node", "id": 6966297838, "lat": 63.2459941, "lon": 18.6741828}, {"type": "node", "id": 6966297839, "lat": 63.2445259, "lon": 18.6700629}, {"type": "node", "id": 6966297840, "lat": 63.2469601, "lon": 18.6642264}, {"type": "node", "id": 6966297841, "lat": 63.2435985, "lon": 18.6505794}, {"type": "node", "id": 6966297842, "lat": 63.2405844, "lon": 18.6539268}, {"type": "node", "id": 6966297843, "lat": 63.2409322, "lon": 18.6768436}, {"type": "node", "id": 6966297844, "lat": 63.249394, "lon": 18.6871432}, {"type": "node", "id": 6966297845, "lat": 63.2531026, "lon": 18.6883449}, {"type": "node", "id": 6966297846, "lat": 63.2516347, "lon": 18.7089442}, {"type": "node", "id": 6966297847, "lat": 63.2442168, "lon": 18.7147807}, {"type": "node", "id": 6966297848, "lat": 63.2398887, "lon": 18.7192439}, {"type": "node", "id": 6966297849, "lat": 63.2408549, "lon": 18.7286853}, {"type": "node", "id": 6966297850, "lat": 63.2497804, "lon": 18.7346076}, {"type": "node", "id": 6966297851, "lat": 63.2543, "lon": 18.7329768}, {"type": "node", "id": 6966297852, "lat": 63.2563472, "lon": 18.7386417}, {"type": "node", "id": 6966297853, "lat": 63.2524073, "lon": 18.7555503}, {"type": "node", "id": 6966297854, "lat": 63.254918, "lon": 18.7857627}, {"type": "node", "id": 6966297855, "lat": 63.2604024, "lon": 18.7870502}, {"type": "node", "id": 6966297856, "lat": 63.2664262, "lon": 18.7952899}, {"type": "node", "id": 6966297857, "lat": 63.2664648, "lon": 18.8036155}, {"type": "node", "id": 6966297858, "lat": 63.2587417, "lon": 18.7970924}, {"type": "node", "id": 6966297859, "lat": 63.2490463, "lon": 18.8086795}, {"type": "node", "id": 6966297860, "lat": 63.248235, "lon": 18.8248157}, {"type": "node", "id": 6966297861, "lat": 63.2541069, "lon": 18.8346004}, {"type": "node", "id": 6966297862, "lat": 63.2556133, "lon": 18.8205241}, {"type": "node", "id": 6966297863, "lat": 63.2596149, "lon": 18.814778}, {"type": "node", "id": 6966297864, "lat": 63.2640111, "lon": 18.8127144}, {"type": "node", "id": 6966297865, "lat": 63.2652944, "lon": 18.819694}, {"type": "node", "id": 6966297866, "lat": 63.2722011, "lon": 18.814171}, {"type": "node", "id": 6966297867, "lat": 63.2746577, "lon": 18.8132}, {"type": "node", "id": 6966297868, "lat": 63.2771413, "lon": 18.7995444}, {"type": "node", "id": 6966297869, "lat": 63.2721192, "lon": 18.7961457}, {"type": "node", "id": 6966297870, "lat": 63.2736478, "lon": 18.7914117}, {"type": "node", "id": 6966297871, "lat": 63.271819, "lon": 18.7800017}, {"type": "node", "id": 6966297872, "lat": 63.2745758, "lon": 18.7817011}, {"type": "node", "id": 6966297873, "lat": 63.2789425, "lon": 18.775632}, {"type": "node", "id": 6966297874, "lat": 63.2803342, "lon": 18.7613695}, {"type": "node", "id": 6966297875, "lat": 63.2781238, "lon": 18.7508698}, {"type": "node", "id": 6966297876, "lat": 63.2809619, "lon": 18.7540258}, {"type": "node", "id": 6966297877, "lat": 63.2856823, "lon": 18.7526906}, {"type": "node", "id": 6966297878, "lat": 63.2908656, "lon": 18.7451042}, {"type": "node", "id": 6966297879, "lat": 63.2925841, "lon": 18.7395812}, {"type": "node", "id": 6966297880, "lat": 63.2954753, "lon": 18.7390957}, {"type": "node", "id": 6966297881, "lat": 63.294548, "lon": 18.7458325}, {"type": "node", "id": 6966297882, "lat": 63.3005479, "lon": 18.7518408}, {"type": "node", "id": 6966297883, "lat": 63.3066556, "lon": 18.7691986}, {"type": "node", "id": 6966297884, "lat": 63.3050742, "lon": 18.7814583}, {"type": "node", "id": 6966306185, "lat": 63.3040927, "lon": 18.7945676}, {"type": "node", "id": 6966306186, "lat": 63.3110174, "lon": 18.8012437}, {"type": "node", "id": 6966306187, "lat": 63.3143429, "lon": 18.8115612}, {"type": "node", "id": 6966306188, "lat": 63.3220826, "lon": 18.8074342}, {"type": "node", "id": 6966306189, "lat": 63.3289485, "lon": 18.7923827}, {"type": "node", "id": 6966306190, "lat": 63.329112, "lon": 18.7824293}, {"type": "node", "id": 6966306191, "lat": 63.3146154, "lon": 18.7776954}, {"type": "node", "id": 6966306192, "lat": 63.3166323, "lon": 18.7571817}, {"type": "node", "id": 6966306193, "lat": 63.3157602, "lon": 18.7415233}, {"type": "node", "id": 6966306194, "lat": 63.3248074, "lon": 18.7059581}, {"type": "node", "id": 6966306195, "lat": 63.3278588, "lon": 18.6850802}, {"type": "node", "id": 6966306196, "lat": 63.3256247, "lon": 18.6586188}, {"type": "node", "id": 6966306197, "lat": 63.3194666, "lon": 18.6574049}, {"type": "node", "id": 6966306198, "lat": 63.3188125, "lon": 18.6461163}, {"type": "node", "id": 6966306199, "lat": 63.3154331, "lon": 18.6496364}, {"type": "node", "id": 6966306200, "lat": 63.3094909, "lon": 18.6383477}, {"type": "node", "id": 6966306201, "lat": 63.3034929, "lon": 18.6269377}, {"type": "node", "id": 6966306202, "lat": 63.3013115, "lon": 18.6247528}, {"type": "node", "id": 6966306203, "lat": 63.3000026, "lon": 18.6191692}, {"type": "node", "id": 6966306204, "lat": 63.3041473, "lon": 18.612129}, {"type": "node", "id": 6966306205, "lat": 63.303711, "lon": 18.5963492}, {"type": "node", "id": 6966306206, "lat": 63.3081823, "lon": 18.5815405}, {"type": "node", "id": 6966306207, "lat": 63.3462004, "lon": 18.5393428}, {"type": "node", "id": 6966306208, "lat": 63.343505, "lon": 18.5256957}, {"type": "node", "id": 6966306209, "lat": 63.3348781, "lon": 18.5335921}, {"type": "node", "id": 6966306210, "lat": 63.3177708, "lon": 18.553934}, {"type": "node", "id": 6966306211, "lat": 63.3051649, "lon": 18.5672378}, {"type": "node", "id": 6966306212, "lat": 63.2974522, "lon": 18.5771941}, {"type": "node", "id": 6966306213, "lat": 63.2938651, "lon": 18.597536}, {"type": "node", "id": 6966306214, "lat": 63.2907019, "lon": 18.60363}, {"type": "node", "id": 6966306215, "lat": 63.2932093, "lon": 18.5771941}, {"type": "node", "id": 6966306216, "lat": 63.2972593, "lon": 18.5541915}, {"type": "node", "id": 6966306217, "lat": 63.2936722, "lon": 18.5400294}, {"type": "node", "id": 6966306218, "lat": 63.2927464, "lon": 18.5274982}, {"type": "node", "id": 6966306219, "lat": 63.2842201, "lon": 18.5257815}, {"type": "node", "id": 6966306220, "lat": 63.2799366, "lon": 18.5299872}, {"type": "node", "id": 6966306221, "lat": 63.2819048, "lon": 18.5618304}, {"type": "node", "id": 6966306222, "lat": 63.2795507, "lon": 18.6019992}, {"type": "node", "id": 6966306223, "lat": 63.2773894, "lon": 18.6310958}, {"type": "node", "id": 6966306224, "lat": 63.2818276, "lon": 18.6454295}, {"type": "node", "id": 6966306225, "lat": 63.2903547, "lon": 18.6452579}, {"type": "node", "id": 6966306226, "lat": 63.2913962, "lon": 18.641138}, {"type": "node", "id": 6966306227, "lat": 63.2916277, "lon": 18.6250877}, {"type": "node", "id": 6966306228, "lat": 63.2979536, "lon": 18.6420821}, {"type": "node", "id": 6966306229, "lat": 63.2966754, "lon": 18.6532779}, {"type": "node", "id": 6966306230, "lat": 63.2940025, "lon": 18.6858085}, {"type": "node", "id": 6966306231, "lat": 63.2831526, "lon": 18.6971901}, {"type": "node", "id": 6966306232, "lat": 63.2787788, "lon": 18.6917563}, {"type": "node", "id": 6966306233, "lat": 63.2799249, "lon": 18.67804}, {"type": "node", "id": 6966306234, "lat": 63.2787109, "lon": 18.6419731}, {"type": "node", "id": 6966306235, "lat": 63.2692973, "lon": 18.6477162}, {"type": "node", "id": 6966306236, "lat": 63.2691711, "lon": 18.661532}, {"type": "node", "id": 6966306237, "lat": 63.2669325, "lon": 18.658376}, {"type": "node", "id": 6966306238, "lat": 63.2644207, "lon": 18.6637168}, {"type": "node", "id": 6966306239, "lat": 63.2618541, "lon": 18.6610464}, {"type": "node", "id": 6966306240, "lat": 63.2590687, "lon": 18.6818029}, {"type": "node", "id": 7414887473, "lat": 63.0865621, "lon": 18.2960558, "tags": {"name": "\u00d6verdal", "place": "hamlet"}}, {"type": "node", "id": 7447905643, "lat": 63.3805607, "lon": 18.3623892, "tags": {"name": "S\u00f6dra Fl\u00e4rke", "place": "hamlet"}}, {"type": "node", "id": 7447910511, "lat": 63.0126967, "lon": 17.9770218, "tags": {"name": "Hj\u00e4ltansbodarna", "place": "hamlet"}}, {"type": "node", "id": 7447927967, "lat": 63.0251496, "lon": 17.819182, "tags": {"name": "Kungsg\u00e5rden", "place": "hamlet"}}, {"type": "node", "id": 7447933228, "lat": 63.2554123, "lon": 18.2835354, "tags": {"name": "Furun\u00e4set", "place": "hamlet"}}, {"type": "node", "id": 7449293452, "lat": 63.0646814, "lon": 17.6338223, "tags": {"name": "\u00c5llsta", "place": "hamlet"}}, {"type": "node", "id": 7449306490, "lat": 63.0532255, "lon": 17.6501448, "tags": {"name": "Norum", "place": "hamlet"}}, {"type": "node", "id": 7449307744, "lat": 63.0541119, "lon": 17.7877405, "tags": {"name": "Fr\u00f6ksmon", "place": "hamlet"}}, {"type": "node", "id": 7449309040, "lat": 63.0719995, "lon": 17.6171382, "tags": {"name": "Pannsj\u00f6berg", "place": "hamlet"}}, {"type": "node", "id": 7449327234, "lat": 63.014085, "lon": 17.6711173, "tags": {"name": "Svedje", "place": "hamlet"}}, {"type": "node", "id": 7449329243, "lat": 63.0278585, "lon": 17.672532, "tags": {"name": "\u00d6kne", "place": "hamlet"}}, {"type": "node", "id": 7449334159, "lat": 63.0603438, "lon": 17.6532074, "tags": {"name": "Galag\u00f6k", "place": "hamlet"}}, {"type": "node", "id": 7449338180, "lat": 63.1103354, "lon": 17.709525, "tags": {"name": "H\u00e4mra", "place": "hamlet"}}, {"type": "node", "id": 7449338825, "lat": 63.0375789, "lon": 17.685534, "tags": {"name": "F\u00e4resta", "place": "hamlet"}}, {"type": "node", "id": 7449352124, "lat": 63.0131861, "lon": 17.691196, "tags": {"name": "Egna hem", "place": "hamlet"}}, {"type": "node", "id": 7449361936, "lat": 63.0045682, "lon": 17.6494657, "tags": {"name": "Stens\u00e4tter", "place": "hamlet"}}, {"type": "node", "id": 7449365609, "lat": 63.0808157, "lon": 17.7216138, "tags": {"name": "Rogsta", "place": "hamlet"}}, {"type": "node", "id": 7449370023, "lat": 63.0299315, "lon": 17.8218588, "tags": {"name": "Berg", "place": "hamlet"}}, {"type": "node", "id": 7449372071, "lat": 63.0358182, "lon": 17.799483, "tags": {"name": "Lo\u00f6n", "place": "hamlet"}}, {"type": "node", "id": 7449380383, "lat": 63.0635756, "lon": 17.7483954, "tags": {"name": "\u00d6steraspby", "place": "hamlet"}}, {"type": "node", "id": 7449383109, "lat": 63.0347037, "lon": 17.7565728, "tags": {"name": "V\u00e4sthammar", "place": "hamlet"}}, {"type": "node", "id": 7449408774, "lat": 63.0675263, "lon": 17.7452035, "tags": {"name": "V\u00e4steraspby", "place": "hamlet"}}, {"type": "node", "id": 7449437287, "lat": 63.0828883, "lon": 17.7412838, "tags": {"name": "Hola", "place": "hamlet"}}, {"type": "node", "id": 7449444307, "lat": 63.072169, "lon": 17.727462, "tags": {"name": "H\u00e4lsingsta", "place": "hamlet"}}, {"type": "node", "id": 7449470073, "lat": 63.0247867, "lon": 17.7621414, "tags": {"name": "Mellanhammar", "place": "hamlet"}}, {"type": "node", "id": 7449476016, "lat": 63.0776723, "lon": 17.7757547, "tags": {"name": "Utn\u00e4s", "place": "hamlet"}}, {"type": "node", "id": 7449480077, "lat": 63.0752301, "lon": 17.7285987, "tags": {"name": "Klen", "place": "hamlet"}}, {"type": "node", "id": 7449493064, "lat": 63.0286711, "lon": 17.7907479, "tags": {"name": "Hammars\u00f6n", "place": "hamlet"}}, {"type": "node", "id": 7449493238, "lat": 63.0045062, "lon": 17.8356035, "tags": {"name": "Kungsg\u00e5rden", "place": "hamlet"}}, {"type": "node", "id": 7449494196, "lat": 63.0663613, "lon": 17.7269767, "tags": {"name": "Bringsta", "place": "hamlet"}}, {"type": "node", "id": 7449509058, "lat": 63.0727608, "lon": 17.8315146, "tags": {"name": "Vi\u00e4tt", "place": "hamlet"}}, {"type": "node", "id": 7449533829, "lat": 63.0204187, "lon": 17.8429821, "tags": {"name": "Nyb\u00f6le", "place": "hamlet"}}, {"type": "node", "id": 7449564796, "lat": 63.0678163, "lon": 18.0270687, "tags": {"name": "Almsj\u00f6n\u00e4s", "place": "hamlet"}}, {"type": "node", "id": 7449573431, "lat": 63.0753091, "lon": 18.0551716, "tags": {"name": "Valla", "place": "hamlet"}}, {"type": "node", "id": 7449595196, "lat": 62.9902757, "lon": 18.2608913, "tags": {"name": "R\u00f6ksta", "place": "hamlet"}}, {"type": "node", "id": 7449596554, "lat": 63.0378536, "lon": 18.1999461, "tags": {"name": "B\u00f6len", "place": "hamlet"}}, {"type": "node", "id": 7449604772, "lat": 63.0173195, "lon": 18.1861166, "tags": {"name": "Skidsta", "place": "hamlet"}}, {"type": "node", "id": 7449608263, "lat": 63.0047907, "lon": 18.1549379, "tags": {"name": "Kallsta", "place": "hamlet"}}, {"type": "node", "id": 7449613868, "lat": 63.0175922, "lon": 18.2000105, "tags": {"name": "\u00c4skja", "place": "hamlet"}}, {"type": "node", "id": 7449614987, "lat": 63.0009495, "lon": 18.1459074, "tags": {"name": "\u00d6d", "place": "hamlet"}}, {"type": "node", "id": 7449618172, "lat": 62.9963126, "lon": 18.1528368, "tags": {"name": "K\u00e5lsta", "place": "hamlet"}}, {"type": "node", "id": 7449626220, "lat": 63.0415988, "lon": 18.3505039, "tags": {"name": "Solvik", "place": "hamlet"}}, {"type": "node", "id": 7449630916, "lat": 63.0489866, "lon": 18.1910746, "tags": {"name": "Getberg", "place": "hamlet"}}, {"type": "node", "id": 7449636829, "lat": 63.004756, "lon": 18.198868, "tags": {"name": "\u00d6den", "place": "hamlet"}}, {"type": "node", "id": 7449656728, "lat": 63.0641817, "lon": 18.3631804, "tags": {"name": "Ve\u00e5sand", "place": "hamlet"}}, {"type": "node", "id": 7449660755, "lat": 63.0517608, "lon": 18.3127505, "tags": {"name": "S\u00e4tra", "place": "hamlet"}}, {"type": "node", "id": 7449666988, "lat": 63.0310911, "lon": 18.3079862, "tags": {"name": "Skoved", "place": "hamlet"}}, {"type": "node", "id": 7449667527, "lat": 63.009066, "lon": 18.2672595, "tags": {"name": "Kn\u00e4ppa", "place": "hamlet"}}, {"type": "node", "id": 7449667958, "lat": 63.031443, "lon": 18.2809436, "tags": {"name": "\u00c5s", "place": "hamlet"}}, {"type": "node", "id": 7449672862, "lat": 63.0365864, "lon": 18.2834518, "tags": {"name": "Ed\u00e5nger", "place": "hamlet"}}, {"type": "node", "id": 7449677114, "lat": 63.0740627, "lon": 18.2786872, "tags": {"name": "Mj\u00e4llom", "place": "hamlet"}}, {"type": "node", "id": 7449685485, "lat": 63.0228164, "lon": 18.2918592, "tags": {"name": "Sj\u00f6land", "place": "hamlet"}}, {"type": "node", "id": 7449921948, "lat": 63.2581378, "lon": 18.1805901, "tags": {"name": "Bj\u00f6rnb\u00f6le", "place": "hamlet"}}, {"type": "node", "id": 7449925638, "lat": 63.2631884, "lon": 18.3281721, "tags": {"name": "Brynge", "place": "hamlet"}}, {"type": "node", "id": 7449926316, "lat": 63.2656074, "lon": 18.3107414, "tags": {"name": "N\u00e4tersj\u00f6", "place": "hamlet"}}, {"type": "node", "id": 7449932236, "lat": 63.1733119, "lon": 18.3651219, "tags": {"name": "Lill-Br\u00e4cke", "place": "hamlet"}}, {"type": "node", "id": 7449932239, "lat": 63.0833999, "lon": 18.257074, "tags": {"name": "Gr\u00f6de", "place": "hamlet"}}, {"type": "node", "id": 7449936898, "lat": 63.1335975, "lon": 18.1884585, "tags": {"name": "Storsvedjan", "place": "hamlet"}}, {"type": "node", "id": 7449937447, "lat": 63.244087, "lon": 18.2564615, "tags": {"name": "Dr\u00f6mmeb\u00e4ckarna", "place": "hamlet"}}, {"type": "node", "id": 7449938448, "lat": 63.1392877, "lon": 18.1525839, "tags": {"name": "Risn\u00e4s", "place": "hamlet"}}, {"type": "node", "id": 7449941652, "lat": 63.2331124, "lon": 18.3612649, "tags": {"name": "Sunnansj\u00f6", "place": "hamlet"}}, {"type": "node", "id": 7449947417, "lat": 63.2593107, "lon": 18.2353494, "tags": {"name": "H\u00e5llen", "place": "hamlet"}}, {"type": "node", "id": 7449947964, "lat": 63.2548885, "lon": 18.231505, "tags": {"name": "Dr\u00f6mmemon", "place": "hamlet"}}, {"type": "node", "id": 7449948138, "lat": 63.2574891, "lon": 18.330713, "tags": {"name": "Bl\u00e5vik", "place": "hamlet"}}, {"type": "node", "id": 7449948437, "lat": 63.2573221, "lon": 18.3689777, "tags": {"name": "Nyfors", "place": "hamlet"}}, {"type": "node", "id": 7449963099, "lat": 63.0784061, "lon": 18.2538797, "tags": {"name": "Backe", "place": "hamlet"}}, {"type": "node", "id": 7449966122, "lat": 63.2437158, "lon": 18.3570175, "tags": {"name": "V\u00e4stan\u00e5marken", "place": "hamlet"}}, {"type": "node", "id": 7449967523, "lat": 63.2467779, "lon": 18.3634548, "tags": {"name": "V\u00e4stan\u00e5", "place": "hamlet"}}, {"type": "node", "id": 7449981123, "lat": 63.2175267, "lon": 18.3748442, "tags": {"name": "Bj\u00e4llsta", "place": "hamlet"}}, {"type": "node", "id": 7449997792, "lat": 63.240188, "lon": 18.448451, "tags": {"name": "Fr\u00f6stdal", "place": "hamlet"}}, {"type": "node", "id": 7450000875, "lat": 63.2248971, "lon": 18.5097254, "tags": {"name": "Alby", "place": "hamlet"}}, {"type": "node", "id": 7450001445, "lat": 63.1932013, "lon": 18.4282912, "tags": {"name": "V\u00e4stansj\u00f6", "place": "hamlet"}}, {"type": "node", "id": 7450003439, "lat": 63.1515163, "lon": 18.4277939, "tags": {"name": "Nyland", "place": "hamlet"}}, {"type": "node", "id": 7450003440, "lat": 63.2097773, "lon": 18.5146994, "tags": {"name": "F\u00f6rn\u00e4tra", "place": "hamlet"}}, {"type": "node", "id": 7450003898, "lat": 63.0498369, "lon": 18.358476, "tags": {"name": "Myre", "place": "hamlet"}}, {"type": "node", "id": 7450009355, "lat": 63.1572963, "lon": 18.4888242, "tags": {"name": "Gladom", "place": "hamlet"}}, {"type": "node", "id": 7450021865, "lat": 63.2475609, "lon": 18.5124077, "tags": {"name": "S\u00f6rbyn", "place": "hamlet"}}, {"type": "node", "id": 7450024335, "lat": 63.2401159, "lon": 18.3834203, "tags": {"name": "Eden", "place": "hamlet"}}, {"type": "node", "id": 7450024392, "lat": 63.2571879, "lon": 18.5243466, "tags": {"name": "Norrtj\u00e4rn", "place": "hamlet"}}, {"type": "node", "id": 7450024550, "lat": 63.2282632, "lon": 18.4019523, "tags": {"name": "N\u00e4s", "place": "hamlet"}}, {"type": "node", "id": 7450025200, "lat": 63.1881841, "lon": 18.5429727, "tags": {"name": "Kuba", "place": "hamlet"}}, {"type": "node", "id": 7450026528, "lat": 63.1523537, "lon": 18.4789911, "tags": {"name": "Ytterb\u00f6le", "place": "hamlet"}}, {"type": "node", "id": 7450027298, "lat": 63.1819479, "lon": 18.394106, "tags": {"name": "Dal", "place": "hamlet"}}, {"type": "node", "id": 7450030471, "lat": 63.2493947, "lon": 18.5002149, "tags": {"name": "\u00d6verbyn", "place": "hamlet"}}, {"type": "node", "id": 7450033683, "lat": 63.2301181, "lon": 18.5501828, "tags": {"name": "Bj\u00f6rsby", "place": "hamlet"}}, {"type": "node", "id": 7450033820, "lat": 63.1878574, "lon": 18.4905163, "tags": {"name": "S\u00f6rsvedje", "place": "hamlet"}}, {"type": "node", "id": 7450038672, "lat": 63.2423263, "lon": 18.5221465, "tags": {"name": "H\u00e4lle", "place": "hamlet"}}, {"type": "node", "id": 7450044713, "lat": 63.2375201, "lon": 18.5562407, "tags": {"name": "\u00d6den", "place": "hamlet"}}, {"type": "node", "id": 7450054408, "lat": 63.2123471, "lon": 18.5572202, "tags": {"name": "N\u00e4ssj\u00f6", "place": "hamlet"}}, {"type": "node", "id": 7451100467, "lat": 63.1635088, "lon": 17.6585797, "tags": {"name": "L\u00e4nn\u00e4s", "place": "hamlet"}}, {"type": "node", "id": 7451142069, "lat": 63.1571178, "lon": 17.6192635, "tags": {"name": "L\u00f6kom", "place": "hamlet"}}, {"type": "node", "id": 7451149534, "lat": 63.1570614, "lon": 17.6988441, "tags": {"name": "F\u00f6lja", "place": "hamlet"}}, {"type": "node", "id": 7451153233, "lat": 63.1493673, "lon": 17.6591975, "tags": {"name": "Macked", "place": "hamlet"}}, {"type": "node", "id": 7451162664, "lat": 63.1338464, "lon": 17.7529396, "tags": {"name": "T\u00f6rsta", "place": "hamlet"}}, {"type": "node", "id": 7451176410, "lat": 63.1401003, "lon": 17.6739109, "tags": {"name": "Skadom", "place": "hamlet"}}, {"type": "node", "id": 7451176651, "lat": 63.1430096, "lon": 17.6910535, "tags": {"name": "Sundby", "place": "hamlet"}}, {"type": "node", "id": 7451186591, "lat": 63.1739595, "lon": 17.7973121, "tags": {"name": "Offersj\u00f6n", "place": "hamlet"}}, {"type": "node", "id": 7451191967, "lat": 63.1415676, "lon": 17.756312, "tags": {"name": "Subbersta", "place": "hamlet"}}, {"type": "node", "id": 7451192851, "lat": 63.1514114, "lon": 17.7275178, "tags": {"name": "St\u00f6ndar", "place": "hamlet"}}, {"type": "node", "id": 7451194663, "lat": 63.1612087, "lon": 17.735472, "tags": {"name": "St\u00f6ndarbr\u00e4nnan", "place": "hamlet"}}, {"type": "node", "id": 7451194869, "lat": 63.1510803, "lon": 17.7410039, "tags": {"name": "Arlom", "place": "hamlet"}}, {"type": "node", "id": 7451205313, "lat": 63.1031278, "lon": 17.7443209, "tags": {"name": "Bj\u00f6rned", "place": "hamlet"}}, {"type": "node", "id": 7451205681, "lat": 63.1031614, "lon": 17.7730318, "tags": {"name": "Djuped", "place": "hamlet"}}, {"type": "node", "id": 7451211585, "lat": 63.0911722, "lon": 17.7494956, "tags": {"name": "Hj\u00e4rtn\u00e4s", "place": "hamlet"}}, {"type": "node", "id": 7451211862, "lat": 63.0863431, "lon": 17.7428175, "tags": {"name": "Harv", "place": "hamlet"}}, {"type": "node", "id": 7451212549, "lat": 63.0869488, "lon": 17.7286677, "tags": {"name": "Salum", "place": "hamlet"}}, {"type": "node", "id": 7451551089, "lat": 63.3310685, "lon": 18.064748, "tags": {"name": "\u00d6ver\u00e5", "place": "hamlet"}}, {"type": "node", "id": 7451555771, "lat": 63.3251135, "lon": 18.0592992, "tags": {"name": "S\u00f6dra \u00d6ver\u00e5", "place": "hamlet"}}, {"type": "node", "id": 7451620923, "lat": 63.4100868, "lon": 18.2520639, "tags": {"name": "V\u00e4sterselsbodarna", "place": "hamlet"}}, {"type": "node", "id": 7451623027, "lat": 63.3236696, "lon": 18.1834497, "tags": {"name": "V\u00e4sterk\u00e4l", "place": "hamlet"}}, {"type": "node", "id": 7451626994, "lat": 63.3371001, "lon": 18.1773786, "tags": {"name": "B\u00f6len", "place": "hamlet"}}, {"type": "node", "id": 7451659471, "lat": 63.3355568, "lon": 18.1489427, "tags": {"name": "Skure\u00e5", "place": "hamlet"}}, {"type": "node", "id": 7451664288, "lat": 63.3248061, "lon": 18.2012806, "tags": {"name": "\u00d6sterk\u00e4l", "place": "hamlet"}}, {"type": "node", "id": 7451673200, "lat": 63.3343742, "lon": 18.1263458, "tags": {"name": "K\u00e4llom", "place": "hamlet"}}, {"type": "node", "id": 7451680573, "lat": 63.3077805, "lon": 18.2546301, "tags": {"name": "\u00d6dsbyn", "place": "hamlet"}}, {"type": "node", "id": 7451845725, "lat": 63.4145184, "lon": 18.3402686, "tags": {"name": "Brandk\u00e4l", "place": "hamlet"}}, {"type": "node", "id": 7451896770, "lat": 63.3128627, "lon": 18.3070357, "tags": {"name": "V\u00e4sterby", "place": "hamlet"}}, {"type": "node", "id": 7451915703, "lat": 63.292377, "lon": 18.297425, "tags": {"name": "Sidensj\u00f6", "place": "village"}}, {"type": "node", "id": 7451933780, "lat": 63.3253889, "lon": 18.3983742, "tags": {"name": "Stensland", "place": "hamlet"}}, {"type": "node", "id": 7451958447, "lat": 63.3719715, "lon": 18.4414981, "tags": {"name": "Skortsj\u00f6", "place": "hamlet"}}, {"type": "node", "id": 7451960985, "lat": 63.3886788, "lon": 18.3686087, "tags": {"name": "Fl\u00e4rke", "place": "hamlet"}}, {"type": "node", "id": 7451968747, "lat": 63.3763904, "lon": 18.4026047, "tags": {"name": "Skortsj\u00f6", "place": "hamlet"}}, {"type": "node", "id": 7451969549, "lat": 63.3398328, "lon": 18.5328948, "tags": {"name": "Stenslandet", "place": "hamlet"}}, {"type": "node", "id": 7451981157, "lat": 63.4192392, "lon": 18.4404675, "tags": {"name": "H\u00e5llen", "place": "hamlet"}}, {"type": "node", "id": 7451987610, "lat": 63.3476867, "lon": 18.5300232, "tags": {"name": "Fors\u00e5n", "place": "hamlet"}}, {"type": "node", "id": 7451990599, "lat": 63.3950018, "lon": 18.4257456, "tags": {"name": "Berget", "place": "hamlet"}}, {"type": "node", "id": 7452022640, "lat": 63.2922903, "lon": 18.484987, "tags": {"name": "Kittelsb\u00f6le", "place": "hamlet"}}, {"type": "node", "id": 7452022941, "lat": 63.3364254, "lon": 18.5064061, "tags": {"name": "Happsta", "place": "hamlet"}}, {"type": "node", "id": 7452024032, "lat": 63.2668701, "lon": 18.5218905, "tags": {"name": "S\u00f6rb\u00f6le", "place": "hamlet"}}, {"type": "node", "id": 7452054331, "lat": 63.2940722, "lon": 18.4925489, "tags": {"name": "Klatsb\u00f6le", "place": "hamlet"}}, {"type": "node", "id": 7452077875, "lat": 63.2755372, "lon": 18.5182868, "tags": {"name": "Sj\u00e4land", "place": "hamlet"}}, {"type": "node", "id": 7452086796, "lat": 63.2941467, "lon": 18.463409, "tags": {"name": "Bringen", "place": "hamlet"}}, {"type": "node", "id": 7452139753, "lat": 63.2830186, "lon": 18.4495401, "tags": {"name": "Nyland", "place": "hamlet"}}, {"type": "node", "id": 7452139917, "lat": 63.2918564, "lon": 18.4181659, "tags": {"name": "Flene", "place": "hamlet"}}, {"type": "node", "id": 7452146385, "lat": 63.2921365, "lon": 18.4414471, "tags": {"name": "G\u00e4rdal", "place": "hamlet"}}, {"type": "node", "id": 7452146626, "lat": 63.2969772, "lon": 18.438374, "tags": {"name": "Kasta", "place": "hamlet"}}, {"type": "node", "id": 7452147948, "lat": 63.3542562, "lon": 18.5161641, "tags": {"name": "Aln\u00f6holmen", "place": "hamlet"}}, {"type": "node", "id": 7452155123, "lat": 63.3618927, "lon": 18.5179168, "tags": {"name": "\u00d6steraln\u00f6", "place": "hamlet"}}, {"type": "node", "id": 7452164099, "lat": 63.2881707, "lon": 18.5849752, "tags": {"name": "Gr\u00f6nn\u00e4s", "place": "hamlet"}}, {"type": "node", "id": 7452165141, "lat": 63.3680526, "lon": 18.5028391, "tags": {"name": "V\u00e4steraln\u00f6", "place": "hamlet"}}, {"type": "node", "id": 7452174154, "lat": 63.2870914, "lon": 18.5489221, "tags": {"name": "Berg", "place": "hamlet"}}, {"type": "node", "id": 7452176969, "lat": 63.2821445, "lon": 18.5330784, "tags": {"name": "V\u00e4gersta", "place": "hamlet"}}, {"type": "node", "id": 7452177947, "lat": 63.3322148, "lon": 18.5410227, "tags": {"name": "\u00c4nget", "place": "hamlet"}}, {"type": "node", "id": 7452196155, "lat": 63.2790259, "lon": 18.5284285, "tags": {"name": "G\u00e4lven", "place": "hamlet"}}, {"type": "node", "id": 7452203854, "lat": 63.3120111, "lon": 18.5686889, "tags": {"name": "\u00d6steraln\u00e4s", "place": "hamlet"}}, {"type": "node", "id": 7452206804, "lat": 63.3200447, "lon": 18.5571596, "tags": {"name": "V\u00e4steraln\u00e4s", "place": "hamlet"}}, {"type": "node", "id": 7452235344, "lat": 63.4286945, "lon": 17.7831969, "tags": {"name": "\u00d6nskan", "place": "hamlet"}}, {"type": "node", "id": 7452246836, "lat": 63.357608, "lon": 17.9823, "tags": {"name": "Djupsj\u00f6liden", "place": "hamlet"}}, {"type": "node", "id": 7452249565, "lat": 63.3880363, "lon": 17.8446335, "tags": {"name": "Nordan\u00e5", "place": "hamlet"}}, {"type": "node", "id": 7452252634, "lat": 63.3839497, "lon": 17.7749276, "tags": {"name": "L\u00e4nn\u00e4s", "place": "hamlet"}}, {"type": "node", "id": 7452274599, "lat": 63.3692483, "lon": 17.9985969, "tags": {"name": "Uberg", "place": "hamlet"}}, {"type": "node", "id": 7452279861, "lat": 63.4140826, "lon": 17.8125028, "tags": {"name": "Johannesberg", "place": "hamlet"}}, {"type": "way", "id": 744316932, "nodes": [1137970840, 702159651, 1137970862, 1137970857, 1137970819, 1137970851, 1137970835]}, {"type": "way", "id": 744316934, "nodes": [1137970835, 6966306230, 6966306229, 6966306228, 6966306227, 6966306226, 6966306225, 6966306224, 6966306223, 6966306222, 6966306221, 6966306220, 6966306219, 6966306218, 6966306217, 6966306216, 6966306215, 6966306214, 6966306213, 6966306212, 6966306211, 6966306210, 6966306209, 6966306208, 6966306207, 6966306206, 6966306205, 6966306204, 6966306203, 6966306202, 6966306201, 6966306200, 6966306199, 6966306198, 6966306197, 6966306196, 6966306195, 6966306194, 6966306193, 6966306192, 6966306191, 6966306190, 6966306189, 6966306188, 6966306187, 6966306186, 6966306185, 6966297884, 6966297883, 6966297882, 6966297881, 6966297880, 6966297879, 6966297878, 6966297877, 6966297876, 6966297875, 6966297874, 6966297873, 6966297872, 6966297871, 6966297870, 6966297869, 6966297868, 6966297867, 6966297866, 6966297865, 6966297864, 6966297863, 6966297862, 6966297861, 6966297860, 6966297859, 6966297858, 6966297857, 6966297856, 6966297855, 6966297854, 6966297853, 6966297852, 6966297851, 6966297850, 6966297849, 6966297848, 6966297847, 6966297846, 6966297845, 6966297844, 6966297843, 6966297842, 6966297841, 6966297840, 6966297839, 6966297838, 6966297837, 6966306240]}, {"type": "way", "id": 744316935, "nodes": [6966306240, 6966297836, 6966306239, 6966306238, 6966306237, 6966306236, 6966306235, 6966306234, 6966297835, 6966306233, 6966306232, 6966306231, 1137970840]}, {"type": "relation", "id": 10285521, "members": [{"type": "way", "ref": 744316932, "role": "outer"}, {"type": "way", "ref": 744316935, "role": "outer"}, {"type": "way", "ref": 744316934, "role": "outer"}, {"type": "node", "ref": 27560253, "role": "label"}], "tags": {"admin_level": "8", "boundary": "administrative", "loc_name": "\u00f6vik", "name": "\u00d6rnsk\u00f6ldsvik", "name:en": "\u00d6rnsk\u00f6ldsvik", "name:ru": "\u042d\u0440\u043d\u0448\u0451\u043b\u044c\u0434\u0441\u0432\u0438\u043a", "name:sma": "Orrestaare", "name:uk": "\u0415\u0440\u043d\u0448\u0435\u043b\u044c\u0434\u0441\u0432\u0456\u043a", "note": "SCBs t\u00e4tortsdata \u00e4r inte kompatibel \u00e4n, s\u00e5 denna polygon f\u00f6ljer inte deras linjer, men innehar samma bostadsomr\u00e5den ungef\u00e4r", "place": "city", "population": "32953", "ref:se:pts:postort": "\u00d6RNSK\u00d6LDSVIK", "ref:se:scb": "7744", "short_name": "\u00d6-vik", "type": "boundary", "wikidata": "Q28327", "wikipedia": "sv:\u00d6rnsk\u00f6ldsvik"}}]}