{"version": 0.6, "generator": "Overpass API 0.7.61.5 4133829e", "osm3s": {"timestamp_osm_base": "2024-03-05T15:06:00Z", "copyright": "The data included in this document is from www.openstreetmap.org. The data is made available under ODbL."}, "elements": [{"type": "node", "id": 27374565, "lat": 55.4295203, "lon": 13.8201171, "tags": {"name": "Ystad", "name:ru": "\u0418\u0441\u0442\u0430\u0434", "name:sv": "Ystad", "place": "town", "population": "18350", "ref:se:pts:postort": "YSTAD", "ref:se:scb": "3808", "wikidata": "Q28287", "wikipedia": "sv:Ystad"}}, {"type": "node", "id": 102968966, "lat": 55.3704318, "lon": 13.3556644, "tags": {"name": "Hemmesdynge", "place": "hamlet"}}, {"type": "node", "id": 112159159, "lat": 55.5437984, "lon": 13.9541222, "tags": {"name": "Tomelilla", "name:ru": "\u0422\u0443\u043c\u0435\u043b\u0438\u043b\u043b\u0430", "name:sv": "Tomelilla", "place": "town", "population": "6444", "ref:se:pts:postort": "TOMELILLA", "ref:se:scb": "3112", "wikidata": "Q983681", "wikipedia": "sv:Tomelilla"}}, {"type": "node", "id": 122200099, "lat": 55.4720203, "lon": 13.9477136, "tags": {"name": "Stora K\u00f6pinge", "place": "hamlet"}}, {"type": "node", "id": 122728348, "lat": 55.4840328, "lon": 13.5015909, "tags": {"name": "Skurup", "name:ru": "\u0421\u043a\u0443\u0440\u0443\u043f", "name:sv": "Skurup", "place": "town", "population": "7565", "ref:se:pts:postort": "SKURUP", "ref:se:scb": "3684", "wikidata": "Q39059", "wikipedia": "sv:Skurup"}}, {"type": "node", "id": 133318460, "lat": 55.4748918, "lon": 13.874225, "tags": {"name": "Stora Herrestad", "place": "village", "population": "293", "ref:se:scb": "3708"}}, {"type": "node", "id": 257107482, "lat": 55.5549328, "lon": 13.273687, "tags": {"name": "Holmeja", "place": "village", "ref:se:scb": "3466"}}, {"type": "node", "id": 261212171, "lat": 55.5013994, "lon": 13.7952608, "tags": {"name": "S\u00f6vestad", "place": "village", "ref:se:scb": "3740"}}, {"type": "node", "id": 261212174, "lat": 55.4876237, "lon": 13.7144553, "tags": {"name": "Sk\u00e5rby", "place": "hamlet"}}, {"type": "node", "id": 261212175, "lat": 55.5037604, "lon": 13.6703068, "tags": {"name": "R\u00f6gla", "place": "hamlet"}}, {"type": "node", "id": 262174420, "lat": 55.5310032, "lon": 13.6664831, "tags": {"created_by": "Potlatch 0.10f", "name": "Knickarp", "place": "hamlet"}}, {"type": "node", "id": 267711822, "lat": 55.4505599, "lon": 13.590736, "tags": {"name": "T\u00e5nebro", "place": "hamlet"}}, {"type": "node", "id": 267730368, "lat": 55.433008, "lon": 13.9502983, "tags": {"name": "Nybrostrand", "place": "village", "ref:se:pts:postort": "NYBROSTRAND", "ref:se:scb": "3632"}}, {"type": "node", "id": 276265433, "lat": 55.4524524, "lon": 13.9354174, "tags": {"name": "K\u00f6pingebro", "place": "village", "ref:se:pts:postort": "K\u00d6PINGEBRO", "ref:se:scb": "3556"}}, {"type": "node", "id": 278927485, "lat": 55.5159604, "lon": 13.3573014, "tags": {"name": "N\u00f6tesj\u00f6", "place": "hamlet"}}, {"type": "node", "id": 278927486, "lat": 55.5055433, "lon": 13.3611955, "tags": {"name": "B\u00f6rringe", "place": "hamlet"}}, {"type": "node", "id": 278928236, "lat": 55.4165551, "lon": 13.5028084, "tags": {"created_by": "JOSM", "name": "\u00d6stra Vemmenh\u00f6g", "place": "hamlet"}}, {"type": "node", "id": 278928275, "lat": 55.3992749, "lon": 13.6002756, "tags": {"name": "Abbek\u00e5s", "place": "village", "ref:se:pts:postort": "ABBEK\u00c5S", "ref:se:scb": "3300", "wikidata": "Q2199524"}}, {"type": "node", "id": 282842697, "lat": 55.3872747, "lon": 13.3126796, "tags": {"created_by": "JOSM", "name": "S\u00f6dra \u00c5by", "place": "hamlet"}}, {"type": "node", "id": 282842700, "lat": 55.3899284, "lon": 13.3436091, "tags": {"name": "Vallby", "place": "hamlet"}}, {"type": "node", "id": 282842703, "lat": 55.393439, "lon": 13.3754255, "tags": {"name": "Klagstorp", "place": "village", "ref:se:pts:postort": "KLAGSTORP", "ref:se:scb": "3528", "wikidata": "Q2392188"}}, {"type": "node", "id": 282842709, "lat": 55.3957989, "lon": 13.448638, "tags": {"name": "Stora Beddinge", "place": "hamlet"}}, {"type": "node", "id": 282842712, "lat": 55.4270273, "lon": 13.4723965, "tags": {"created_by": "JOSM", "name": "V\u00e4stra Vemmenh\u00f6g", "place": "hamlet"}}, {"type": "node", "id": 282927133, "lat": 55.4388771, "lon": 13.3186826, "tags": {"name": "Andersl\u00f6v", "place": "village", "ref:se:pts:postort": "ANDERSL\u00d6V", "ref:se:scb": "3312", "wikidata": "Q2767924"}}, {"type": "node", "id": 282928413, "lat": 55.4442235, "lon": 13.3291477, "tags": {"name": "S\u00f6rby", "place": "hamlet"}}, {"type": "node", "id": 282928414, "lat": 55.4973864, "lon": 13.3321355, "tags": {"created_by": "JOSM", "name": "B\u00f6rringe station", "place": "hamlet"}}, {"type": "node", "id": 282928419, "lat": 55.4406735, "lon": 13.3563639, "tags": {"name": "Gr\u00f6nby", "place": "hamlet"}}, {"type": "node", "id": 285068633, "lat": 55.4246303, "lon": 13.5697188, "tags": {"name": "Skivarp", "place": "village", "ref:se:pts:postort": "SKIVARP", "ref:se:scb": "3680"}}, {"type": "node", "id": 290107154, "lat": 55.4699535, "lon": 13.3299261, "tags": {"name": "Gr\u00f6nalund", "place": "hamlet"}}, {"type": "node", "id": 299502069, "lat": 55.5700057, "lon": 13.9272256, "tags": {"name": "Tryde", "place": "hamlet"}}, {"type": "node", "id": 303575964, "lat": 55.3464469, "lon": 13.374123, "tags": {"name": "Smygehamn", "place": "village", "ref:se:pts:postort": "SMYGEHAMN", "ref:se:scb": "3688"}}, {"type": "node", "id": 314516196, "lat": 55.338238, "lon": 13.3593569, "tags": {"description": "Sveriges sydligaste udde", "name": "Smygehuk", "place": "hamlet"}}, {"type": "node", "id": 316674088, "lat": 55.404702, "lon": 13.3038855, "tags": {"created_by": "Potlatch 0.10f", "name": "Norra \u00c5by", "place": "hamlet"}}, {"type": "node", "id": 317477458, "lat": 55.5091949, "lon": 13.2645332, "tags": {"name": "\u00d6stra Svenstorp", "place": "hamlet"}}, {"type": "node", "id": 319311027, "lat": 55.3433078, "lon": 13.315965, "tags": {"name": "B\u00f6ste l\u00e4ge", "place": "hamlet"}}, {"type": "node", "id": 325791967, "lat": 55.4369265, "lon": 13.4436941, "tags": {"name": "\u00d6nnarp", "place": "hamlet"}}, {"type": "node", "id": 325898110, "lat": 55.4707894, "lon": 13.5882902, "tags": {"name": "Rydsg\u00e5rd", "place": "village", "ref:se:pts:postort": "RYDSG\u00c5RD", "ref:se:scb": "3656"}}, {"type": "node", "id": 325920044, "lat": 55.4309311, "lon": 13.7151312, "tags": {"name": "Svarte", "place": "village", "ref:se:scb": "3720"}}, {"type": "node", "id": 325963948, "lat": 55.5799518, "lon": 14.0145542, "tags": {"name": "Spjutstorp", "place": "hamlet"}}, {"type": "node", "id": 330311260, "lat": 55.451134, "lon": 14.0237947, "tags": {"name": "Glemmingebro", "place": "village", "ref:se:pts:postort": "GLEMMINGEBRO", "ref:se:scb": "3424"}}, {"type": "node", "id": 330312628, "lat": 55.4511826, "lon": 13.7973243, "tags": {"name": "Hedeskoga", "place": "village", "ref:se:scb": "3448"}}, {"type": "node", "id": 330317247, "lat": 55.4618005, "lon": 13.7522013, "tags": {"name": "Bj\u00e4resj\u00f6", "place": "hamlet"}}, {"type": "node", "id": 330321891, "lat": 55.5266548, "lon": 13.5134962, "tags": {"created_by": "Potlatch 0.10f", "name": "Janstorp", "place": "hamlet"}}, {"type": "node", "id": 330325751, "lat": 55.4472102, "lon": 13.4999287, "tags": {"name": "Lindby", "place": "hamlet"}}, {"type": "node", "id": 330327583, "lat": 55.4957445, "lon": 13.5110929, "tags": {"created_by": "Potlatch 0.10f", "name": "Sand\u00e5kra", "place": "hamlet"}}, {"type": "node", "id": 330328122, "lat": 55.5109111, "lon": 13.55109, "tags": {"created_by": "Potlatch 0.10f", "name": "Slimminge", "place": "hamlet"}}, {"type": "node", "id": 330328813, "lat": 55.4364623, "lon": 13.6166646, "tags": {"name": "V\u00e4stra N\u00f6bbel\u00f6v", "place": "hamlet"}}, {"type": "node", "id": 333862600, "lat": 55.4529713, "lon": 13.8134756, "tags": {"name": "Folkestorp", "place": "hamlet"}}, {"type": "node", "id": 348371978, "lat": 55.3545287, "lon": 13.3137753, "tags": {"name": "V\u00e4stra Torp", "place": "hamlet"}}, {"type": "node", "id": 694638595, "lat": 55.3606336, "lon": 13.4251847, "tags": {"name": "Beddingestrand", "place": "village", "ref:se:pts:postort": "BEDDINGESTRAND", "ref:se:scb": "3338"}}, {"type": "node", "id": 807248859, "lat": 55.4643851, "lon": 13.6950431, "tags": {"name": "Marsvinsholm", "place": "hamlet", "population": "10"}}, {"type": "node", "id": 930191482, "lat": 55.4916769, "lon": 13.8533171, "tags": {"name": "Borrie", "place": "hamlet"}}, {"type": "node", "id": 1149300350, "lat": 55.4382564, "lon": 13.5749407, "tags": {"name": "Steglarp", "place": "hamlet"}}, {"type": "node", "id": 1151466622, "lat": 55.4508318, "lon": 13.547566, "tags": {"name": "Torsj\u00f6", "place": "hamlet"}}, {"type": "node", "id": 1163868992, "lat": 55.4404475, "lon": 13.674738, "tags": {"name": "Sn\u00e5restad", "place": "hamlet", "ref:se:scb": "S3693"}}, {"type": "node", "id": 1163869001, "lat": 55.4430417, "lon": 13.640841, "tags": {"name": "Sj\u00f6rup", "place": "hamlet"}}, {"type": "node", "id": 1372291562, "lat": 55.4076458, "lon": 14.0178403, "tags": {"name": "Hammar", "place": "hamlet"}}, {"type": "node", "id": 1760096163, "lat": 55.4228981, "lon": 13.6179729, "tags": {"name": "Mossby", "place": "hamlet"}}, {"type": "node", "id": 2010598582, "lat": 55.4691955, "lon": 13.7998179}, {"type": "node", "id": 2010598587, "lat": 55.4690875, "lon": 13.8020521}, {"type": "node", "id": 2010598590, "lat": 55.4704498, "lon": 13.7989944}, {"type": "node", "id": 2010598595, "lat": 55.4691316, "lon": 13.7994665}, {"type": "node", "id": 2010598642, "lat": 55.4707052, "lon": 13.8019609}, {"type": "node", "id": 2010598651, "lat": 55.4709681, "lon": 13.7973272}, {"type": "node", "id": 2010598653, "lat": 55.4712495, "lon": 13.8002095}, {"type": "node", "id": 2010598656, "lat": 55.4717372, "lon": 13.7991018}, {"type": "node", "id": 2010598659, "lat": 55.472224, "lon": 13.8004401}, {"type": "node", "id": 2010598662, "lat": 55.4723229, "lon": 13.7992251}, {"type": "node", "id": 2103349640, "lat": 55.52961, "lon": 13.9854061, "tags": {"name": "Ullstorp", "place": "hamlet"}}, {"type": "node", "id": 2104729520, "lat": 55.5732791, "lon": 14.0084907, "tags": {"name": "Hedeberga", "place": "hamlet"}}, {"type": "node", "id": 2104735000, "lat": 55.5243775, "lon": 13.9078632, "tags": {"name": "Benestad", "place": "hamlet"}}, {"type": "node", "id": 2104736110, "lat": 55.5596432, "lon": 13.8842049, "tags": {"name": "Rams\u00e5sa", "place": "hamlet"}}, {"type": "node", "id": 2115671839, "lat": 55.4688027, "lon": 13.8003497}, {"type": "node", "id": 2115671840, "lat": 55.4688051, "lon": 13.8000238}, {"type": "node", "id": 2115671853, "lat": 55.4690657, "lon": 13.8003787}, {"type": "node", "id": 2115671995, "lat": 55.4703814, "lon": 13.7978277}, {"type": "node", "id": 2115672136, "lat": 55.4719424, "lon": 13.7976901}, {"type": "node", "id": 2160100108, "lat": 55.5078053, "lon": 13.9527019, "tags": {"name": "\u00d6vraby", "place": "hamlet"}}, {"type": "node", "id": 2160108484, "lat": 55.5070575, "lon": 13.8730756, "tags": {"name": "H\u00f6gestad", "place": "hamlet"}}, {"type": "node", "id": 2324403355, "lat": 55.5210895, "lon": 13.2727492, "tags": {"name": "Norrskog", "place": "hamlet", "population": "62", "ref:se:scb": "S3598"}}, {"type": "node", "id": 2518214821, "lat": 55.4523535, "lon": 13.5252793, "tags": {"name": "Hassle-B\u00f6sarp", "place": "hamlet"}}, {"type": "node", "id": 2518313393, "lat": 55.3829718, "lon": 13.4212925, "tags": {"name": "Lilla Beddinge", "place": "hamlet"}}, {"type": "node", "id": 2518313400, "lat": 55.3906092, "lon": 13.2845828, "tags": {"name": "Simlinge", "place": "hamlet"}}, {"type": "node", "id": 2518313698, "lat": 55.3764544, "lon": 13.3940868, "tags": {"name": "\u00c4sp\u00f6", "place": "hamlet"}}, {"type": "node", "id": 2518366119, "lat": 55.4110894, "lon": 13.4650657, "tags": {"name": "Tullstorp", "place": "hamlet"}}, {"type": "node", "id": 2518388280, "lat": 55.4551689, "lon": 13.4762812, "tags": {"name": "Svenstorp", "place": "hamlet"}}, {"type": "node", "id": 2518843076, "lat": 55.3978513, "lon": 13.4156671, "tags": {"name": "K\u00e4llstorp", "place": "hamlet"}}, {"type": "node", "id": 2538003087, "lat": 55.4596525, "lon": 13.5562007, "tags": {"name": "Hanah\u00f6g", "place": "hamlet"}}, {"type": "node", "id": 2538003094, "lat": 55.4835942, "lon": 13.5438728, "tags": {"name": "Hylteberga", "place": "hamlet"}}, {"type": "node", "id": 2538003101, "lat": 55.4546802, "lon": 13.6220562, "tags": {"name": "Katsl\u00f6sa", "place": "hamlet"}}, {"type": "node", "id": 2538003109, "lat": 55.4519286, "lon": 13.5745047, "tags": {"name": "Solberga", "place": "hamlet"}}, {"type": "node", "id": 2538005328, "lat": 55.466552, "lon": 13.5648229, "tags": {"name": "\u00d6rsj\u00f6", "place": "hamlet"}}, {"type": "node", "id": 2599090557, "lat": 55.454788, "lon": 13.8436237, "tags": {"name": "\u00d6ja", "place": "hamlet"}}, {"type": "node", "id": 2615862506, "lat": 55.4477301, "lon": 13.7163862, "tags": {"name": "Balk\u00e5kra", "place": "hamlet"}}, {"type": "node", "id": 2619558777, "lat": 55.4817452, "lon": 13.9472493, "tags": {"name": "Svenstorp", "place": "hamlet"}}, {"type": "node", "id": 2653961899, "lat": 55.4712023, "lon": 13.7995822, "tags": {"name": "Bromma", "place": "hamlet"}}, {"type": "node", "id": 2705212079, "lat": 55.4702928, "lon": 13.6644531, "tags": {"name": "Rynge", "place": "hamlet"}}, {"type": "node", "id": 2705646241, "lat": 55.454983, "lon": 13.6485236, "tags": {"name": "Vall\u00f6sa", "place": "hamlet"}}, {"type": "node", "id": 3197091278, "lat": 55.4275453, "lon": 13.2753776, "tags": {"name": "Lilla Markie", "place": "hamlet"}}, {"type": "node", "id": 3197245516, "lat": 55.44121, "lon": 13.3048868, "tags": {"name": "Markieholm", "place": "hamlet"}}, {"type": "node", "id": 3327057723, "lat": 55.5083176, "lon": 13.2847799, "tags": {"name": "Tittente", "place": "hamlet"}}, {"type": "node", "id": 3346787864, "lat": 55.473914, "lon": 13.3396841, "tags": {"name": "S\u00f6rby kratt", "place": "hamlet"}}, {"type": "node", "id": 3346924589, "lat": 55.4693273, "lon": 13.2851828, "tags": {"name": "Ugglarp", "place": "hamlet"}}, {"type": "node", "id": 3351388323, "lat": 55.5124827, "lon": 13.3656787, "tags": {"name": "Lyngsj\u00f6", "place": "hamlet"}}, {"type": "node", "id": 3353004019, "lat": 55.5011579, "lon": 13.3970732, "tags": {"name": "Lemmestr\u00f6torp", "place": "hamlet"}}, {"type": "node", "id": 3355046714, "lat": 55.572443, "lon": 13.3017765, "tags": {"name": "Beden", "place": "hamlet"}}, {"type": "node", "id": 3355046715, "lat": 55.5682536, "lon": 13.3064104, "tags": {"name": "Kyrk\u00e4ngarna", "place": "hamlet"}}, {"type": "node", "id": 3355479325, "lat": 55.5555647, "lon": 13.2616857, "tags": {"name": "Yddinge", "place": "hamlet"}}, {"type": "node", "id": 3368130881, "lat": 55.4637888, "lon": 13.4306062, "tags": {"name": "G\u00e4rdsl\u00f6v", "place": "hamlet"}}, {"type": "node", "id": 3368141739, "lat": 55.369637, "lon": 13.33725, "tags": {"name": "Stora Isie", "place": "hamlet", "population": "60", "ref:se:scb": "S3139"}}, {"type": "node", "id": 3368144653, "lat": 55.3679017, "lon": 13.3096694, "tags": {"name": "Lilla Isie", "place": "hamlet"}}, {"type": "node", "id": 3395485311, "lat": 55.4215405, "lon": 13.4486059, "tags": {"name": "Tingbacken", "place": "hamlet"}}, {"type": "node", "id": 3395488351, "lat": 55.3463775, "lon": 13.3538796, "tags": {"name": "\u00d6stra Torp", "place": "hamlet"}}, {"type": "node", "id": 3397098625, "lat": 55.3793803, "lon": 13.4724407, "tags": {"alt_name": "Skateholm och del av Beddingestrand", "name": "Skateholm", "place": "hamlet"}}, {"type": "node", "id": 3411050299, "lat": 55.4821209, "lon": 13.4268348, "tags": {"name": "Margaretem\u00f6lla", "place": "hamlet"}}, {"type": "node", "id": 3436678821, "lat": 55.3868134, "lon": 13.4339434, "tags": {"name": "S\u00e5narp", "place": "hamlet"}}, {"type": "node", "id": 3513581797, "lat": 55.5738656, "lon": 13.5186861, "tags": {"name": "Kl\u00e4gger\u00f6d", "place": "hamlet"}}, {"type": "node", "id": 3588056340, "lat": 55.3765156, "lon": 13.3627381, "tags": {"name": "Villen", "place": "hamlet"}}, {"type": "node", "id": 3805978354, "lat": 55.4750115, "lon": 13.7194692, "tags": {"name": "Hunnestad", "place": "hamlet"}}, {"type": "node", "id": 3912908127, "lat": 55.4714358, "lon": 13.3018712, "tags": {"name": "Bygget", "place": "hamlet"}}, {"type": "node", "id": 3912908128, "lat": 55.463791, "lon": 13.2949558, "tags": {"name": "Susan", "place": "hamlet"}}, {"type": "node", "id": 4375914925, "lat": 55.5475262, "lon": 13.8883126, "tags": {"name": "Stenby", "place": "hamlet"}}, {"type": "node", "id": 4420899454, "lat": 55.5586236, "lon": 13.3631653, "tags": {"name": "Kalthus", "place": "hamlet"}}, {"type": "node", "id": 4433945626, "lat": 55.4582581, "lon": 13.3283167, "tags": {"name": "St\u00e4vesj\u00f6", "place": "hamlet"}}, {"type": "node", "id": 4434285095, "lat": 55.463271, "lon": 13.3718855, "tags": {"name": "Norra Gr\u00f6nby", "place": "hamlet"}}, {"type": "node", "id": 4490429090, "lat": 55.4122088, "lon": 13.3659233, "tags": {"name": "Br\u00f6nnestad", "place": "hamlet"}}, {"type": "node", "id": 6017304867, "lat": 55.4710275, "lon": 13.8010973}, {"type": "node", "id": 6017304868, "lat": 55.4707098, "lon": 13.8011402}, {"type": "node", "id": 6017304869, "lat": 55.4703419, "lon": 13.8022667}, {"type": "node", "id": 6017304870, "lat": 55.4701001, "lon": 13.8022909}, {"type": "node", "id": 6017304871, "lat": 55.4701092, "lon": 13.8020495}, {"type": "node", "id": 6017304872, "lat": 55.4695497, "lon": 13.80191}, {"type": "node", "id": 6017304873, "lat": 55.4692776, "lon": 13.8019609}, {"type": "node", "id": 6017308136, "lat": 55.4691043, "lon": 13.8000244}, {"type": "node", "id": 6017308137, "lat": 55.4691544, "lon": 13.8000217}, {"type": "node", "id": 6017308138, "lat": 55.4691803, "lon": 13.7999761}, {"type": "node", "id": 6017308139, "lat": 55.4691894, "lon": 13.7999091}, {"type": "node", "id": 6017308152, "lat": 55.4693119, "lon": 13.7993786}, {"type": "node", "id": 6017308545, "lat": 55.4709272, "lon": 13.7975889}, {"type": "node", "id": 6017308546, "lat": 55.4698766, "lon": 13.7990829}, {"type": "node", "id": 6017308547, "lat": 55.4699998, "lon": 13.799091}, {"type": "node", "id": 6017308548, "lat": 55.4702309, "lon": 13.7989891}, {"type": "node", "id": 6017308549, "lat": 55.4703312, "lon": 13.7990373}, {"type": "node", "id": 6017662596, "lat": 55.4649944, "lon": 13.8226354, "tags": {"name": "Bussj\u00f6", "place": "hamlet"}}, {"type": "node", "id": 7500337973, "lat": 55.4827113, "lon": 13.4679206, "tags": {"name": "Stora Kallsj\u00f6", "place": "hamlet"}}, {"type": "node", "id": 7500362174, "lat": 55.409662, "lon": 13.3964728, "tags": {"name": "Lilla Jordberga", "place": "hamlet"}}, {"type": "node", "id": 7500365109, "lat": 55.4764181, "lon": 13.4698361, "tags": {"name": "Norra Saritsl\u00f6vs Sj\u00f6land", "place": "hamlet"}}, {"type": "node", "id": 7500458800, "lat": 55.4624456, "lon": 13.9293108, "tags": {"name": "Lilla K\u00f6pinge", "place": "hamlet"}}, {"type": "node", "id": 7500488275, "lat": 55.451862, "lon": 13.2640939, "tags": {"name": "Dommeg\u00e5rden", "place": "hamlet"}}, {"type": "node", "id": 7500560927, "lat": 55.4848764, "lon": 13.6013858, "tags": {"name": "S\u00f6dra Villie", "place": "hamlet"}}, {"type": "node", "id": 7500573550, "lat": 55.4773906, "lon": 13.6502908, "tags": {"name": "Norra Vall\u00f6sa", "place": "hamlet"}}, {"type": "node", "id": 7500600974, "lat": 55.4902634, "lon": 13.47313, "tags": {"name": "Norra Olstorp", "place": "hamlet"}}, {"type": "node", "id": 7500712830, "lat": 55.4206564, "lon": 13.5896101, "tags": {"name": "Kroppsmarken", "place": "hamlet"}}, {"type": "node", "id": 7500720923, "lat": 55.5347938, "lon": 13.4467798, "tags": {"name": "Lilla Rockarp", "place": "hamlet"}}, {"type": "node", "id": 7500784048, "lat": 55.4674935, "lon": 13.2669251, "tags": {"name": "Domme", "place": "hamlet"}}, {"type": "node", "id": 7500796217, "lat": 55.3871972, "lon": 13.5457775, "tags": {"name": "H\u00f6rte", "place": "hamlet"}}, {"type": "node", "id": 7500821577, "lat": 55.3937594, "lon": 13.5513035, "tags": {"name": "H\u00f6rteg\u00e5rden", "place": "hamlet"}}, {"type": "node", "id": 7500834591, "lat": 55.3832665, "lon": 13.4920312, "tags": {"name": "Bingsmarken", "place": "hamlet"}}, {"type": "node", "id": 7501843359, "lat": 55.4106972, "lon": 13.5848004, "tags": {"name": "M\u00f6llersdal", "place": "hamlet"}}, {"type": "node", "id": 7501849976, "lat": 55.4100956, "lon": 13.5779843, "tags": {"name": "\u00d6rm\u00f6lla", "place": "hamlet"}}, {"type": "node", "id": 7501851032, "lat": 55.4009904, "lon": 13.5800456, "tags": {"name": "M\u00f6llerup", "place": "hamlet"}}, {"type": "node", "id": 7501851497, "lat": 55.4298762, "lon": 13.3759774, "tags": {"name": "H\u00f6nsinge", "place": "hamlet"}}, {"type": "node", "id": 7501853061, "lat": 55.3863627, "lon": 13.5696466, "tags": {"name": "H\u00f6rtehus", "place": "hamlet"}}, {"type": "node", "id": 7501856567, "lat": 55.4358631, "lon": 13.3370973, "tags": {"name": "S\u00f6rbylund", "place": "hamlet"}}, {"type": "node", "id": 7501878163, "lat": 55.4183177, "lon": 13.3264114, "tags": {"name": "Fr\u00f6jdenborg", "place": "hamlet"}}, {"type": "node", "id": 7501879985, "lat": 55.4179687, "lon": 13.3436787, "tags": {"name": "L\u00e5ngskiftet", "place": "hamlet"}}, {"type": "node", "id": 7501883130, "lat": 55.43706, "lon": 13.3971929, "tags": {"name": "Assartorp", "place": "hamlet"}}, {"type": "node", "id": 7501907276, "lat": 55.4341508, "lon": 13.4589384, "tags": {"name": "Nyby", "place": "hamlet"}}, {"type": "node", "id": 7501925803, "lat": 55.4234628, "lon": 13.5445713, "tags": {"name": "Almar\u00f6d", "place": "hamlet"}}, {"type": "node", "id": 7501941589, "lat": 55.4310087, "lon": 13.5255025, "tags": {"name": "\u00d6l\u00f6v", "place": "hamlet"}}, {"type": "node", "id": 7501944612, "lat": 55.4373736, "lon": 13.5967953, "tags": {"name": "Tingar\u00f6d", "place": "hamlet"}}, {"type": "node", "id": 7501950215, "lat": 55.4405134, "lon": 13.4786222, "tags": {"name": "Lindbyv\u00e4rn", "place": "hamlet"}}, {"type": "node", "id": 7501952729, "lat": 55.4615493, "lon": 13.5020934, "tags": {"name": "Kish\u00f6g", "place": "hamlet"}}, {"type": "node", "id": 7501954060, "lat": 55.5186975, "lon": 13.549279, "tags": {"name": "Stubbarp", "place": "hamlet"}}, {"type": "node", "id": 7501964118, "lat": 55.4424611, "lon": 13.6110921, "tags": {"name": "Kr\u00e5garp", "place": "hamlet"}}, {"type": "node", "id": 7501993954, "lat": 55.4668939, "lon": 13.544364, "tags": {"name": "\u00d6rsj\u00f6 bost\u00e4lle", "place": "hamlet"}}, {"type": "node", "id": 7502003208, "lat": 55.5327116, "lon": 13.572562, "tags": {"name": "Hindberget", "place": "hamlet"}}, {"type": "node", "id": 7502003246, "lat": 55.5665366, "lon": 13.6219728, "tags": {"name": "Bosarp", "place": "hamlet"}}, {"type": "node", "id": 7502003247, "lat": 55.5639222, "lon": 13.5696086, "tags": {"name": "Ramnakullen", "place": "hamlet"}}, {"type": "node", "id": 7502004396, "lat": 55.4626056, "lon": 13.5384467, "tags": {"name": "Dalaled", "place": "hamlet"}}, {"type": "node", "id": 7502004422, "lat": 55.5080357, "lon": 13.6180791, "tags": {"name": "Bj\u00e4rsg\u00e5rd", "place": "hamlet"}}, {"type": "node", "id": 7502007422, "lat": 55.4560681, "lon": 13.5042848, "tags": {"name": "V\u00e4sterv\u00e5ng", "place": "hamlet"}}, {"type": "node", "id": 7502014586, "lat": 55.447917, "lon": 13.3273562, "tags": {"name": "S\u00f6rbyg\u00e5rden", "place": "hamlet"}}, {"type": "node", "id": 7502017629, "lat": 55.5121112, "lon": 13.4046915, "tags": {"name": "Sl\u00e4tter\u00f6d", "place": "hamlet"}}, {"type": "node", "id": 7502022237, "lat": 55.5506501, "lon": 13.3899573, "tags": {"name": "Bramstorp", "place": "hamlet"}}, {"type": "node", "id": 7502022239, "lat": 55.5310538, "lon": 13.5132535, "tags": {"name": "Annav\u00e4lla", "place": "hamlet"}}, {"type": "node", "id": 7502027167, "lat": 55.5483442, "lon": 13.4363382, "tags": {"name": "K\u00e4mparp", "place": "hamlet"}}, {"type": "node", "id": 7502040959, "lat": 55.5167644, "lon": 13.5191776, "tags": {"name": "Oran", "place": "hamlet"}}, {"type": "node", "id": 7502043789, "lat": 55.5119225, "lon": 13.5800138, "tags": {"name": "Ekarp", "place": "hamlet"}}, {"type": "node", "id": 7502043892, "lat": 55.4903173, "lon": 13.5745233, "tags": {"name": "Vidarp", "place": "hamlet"}}, {"type": "node", "id": 7502043918, "lat": 55.5378881, "lon": 13.5631858, "tags": {"name": "Stenshult", "place": "hamlet"}}, {"type": "node", "id": 7502045956, "lat": 55.5226758, "lon": 13.3562798, "tags": {"name": "H\u00e5kanstorp", "place": "hamlet"}}, {"type": "node", "id": 7502046676, "lat": 55.5338032, "lon": 13.3529938, "tags": {"name": "Sturup", "place": "hamlet"}}, {"type": "node", "id": 7502046679, "lat": 55.5362534, "lon": 13.4357248, "tags": {"name": "Kullar\u00f6d", "place": "hamlet"}}, {"type": "node", "id": 7502046726, "lat": 55.5093129, "lon": 13.3330355, "tags": {"name": "Byn", "place": "hamlet"}}, {"type": "node", "id": 7502052311, "lat": 55.5085054, "lon": 13.4572699, "tags": {"name": "Havberg", "place": "hamlet"}}, {"type": "node", "id": 7502052411, "lat": 55.5190424, "lon": 13.4357817, "tags": {"name": "Svartesj\u00f6", "place": "hamlet"}}, {"type": "node", "id": 7502058583, "lat": 55.5425657, "lon": 13.4694873, "tags": {"name": "Gyllebo", "place": "hamlet"}}, {"type": "node", "id": 7502063764, "lat": 55.5335898, "lon": 13.4833515, "tags": {"name": "Bj\u00f6rnakroken", "place": "hamlet"}}, {"type": "node", "id": 7502064287, "lat": 55.5143231, "lon": 13.4921227, "tags": {"name": "Ugglesj\u00f6", "place": "hamlet"}}, {"type": "node", "id": 7502066389, "lat": 55.5549602, "lon": 13.5455953, "tags": {"name": "Korrarp", "place": "hamlet"}}, {"type": "node", "id": 7502067273, "lat": 55.5599512, "lon": 13.5241332, "tags": {"name": "Sl\u00e4tter\u00f6d", "place": "hamlet"}}, {"type": "node", "id": 7502067274, "lat": 55.5358701, "lon": 13.5363502, "tags": {"name": "Skallstorp", "place": "hamlet"}}, {"type": "node", "id": 7502067430, "lat": 55.5300472, "lon": 13.6328651, "tags": {"name": "Gottorp", "place": "hamlet"}}, {"type": "node", "id": 7502069634, "lat": 55.5303062, "lon": 13.6135266, "tags": {"name": "Beden", "place": "hamlet"}}, {"type": "node", "id": 7502070094, "lat": 55.523021, "lon": 13.5059362, "tags": {"name": "K\u00e4mparp", "place": "hamlet"}}, {"type": "node", "id": 7502071042, "lat": 55.556751, "lon": 13.3360308, "tags": {"name": "Res\u00e5kra", "place": "hamlet"}}, {"type": "node", "id": 7502073746, "lat": 55.5499011, "lon": 13.5411067, "tags": {"name": "Flathult", "place": "hamlet"}}, {"type": "node", "id": 7502074262, "lat": 55.5523083, "lon": 13.4912394, "tags": {"name": "S\u00e5ngletorp", "place": "hamlet"}}, {"type": "node", "id": 7502077132, "lat": 55.532037, "lon": 13.5887641, "tags": {"name": "Kullar\u00f6d", "place": "hamlet"}}, {"type": "node", "id": 7502088410, "lat": 55.5263122, "lon": 13.5746637, "tags": {"name": "Lered", "place": "hamlet"}}, {"type": "node", "id": 7502088555, "lat": 55.5318146, "lon": 13.4968088, "tags": {"name": "Julstorp", "place": "hamlet"}}, {"type": "node", "id": 7502093871, "lat": 55.5644302, "lon": 13.3992102, "tags": {"name": "Degeberga", "place": "hamlet"}}, {"type": "node", "id": 7502096804, "lat": 55.5434286, "lon": 13.5470048, "tags": {"name": "H\u00e4ckenf\u00e4lt", "place": "hamlet"}}, {"type": "node", "id": 7502098375, "lat": 55.5702297, "lon": 13.5662846, "tags": {"name": "Dalvik", "place": "hamlet"}}, {"type": "node", "id": 7502105358, "lat": 55.562547, "lon": 13.5397025, "tags": {"name": "Klasar\u00f6d", "place": "hamlet"}}, {"type": "node", "id": 7502118256, "lat": 55.5739652, "lon": 13.3536148, "tags": {"name": "B\u00f6kes\u00e5kra", "place": "hamlet"}}, {"type": "node", "id": 7502126180, "lat": 55.5672473, "lon": 13.5745455, "tags": {"name": "R\u00e5s\u00e5kra", "place": "hamlet"}}, {"type": "node", "id": 7502131410, "lat": 55.5549383, "lon": 13.5524678, "tags": {"name": "Hommeryd", "place": "hamlet"}}, {"type": "node", "id": 7502138534, "lat": 55.5744124, "lon": 13.3714889, "tags": {"name": "N\u00f6tabo", "place": "hamlet"}}, {"type": "node", "id": 7502327645, "lat": 55.4811216, "lon": 13.9221911, "tags": {"name": "Svenstorp", "place": "hamlet"}}, {"type": "node", "id": 7502334167, "lat": 55.4519345, "lon": 13.957725, "tags": {"name": "K\u00f6pinge", "place": "hamlet"}}, {"type": "node", "id": 7502355603, "lat": 55.4750717, "lon": 13.6315893, "tags": {"name": "Varml\u00f6sa", "place": "hamlet"}}, {"type": "node", "id": 7502356737, "lat": 55.4551535, "lon": 13.6887018, "tags": {"name": "Ensligheten", "place": "hamlet"}}, {"type": "node", "id": 7502361073, "lat": 55.430252, "lon": 13.9792359, "tags": {"name": "Kabusa", "place": "hamlet"}}, {"type": "node", "id": 7502364017, "lat": 55.4687504, "lon": 13.6904184, "tags": {"name": "V\u00e4streg\u00e5rd", "place": "hamlet"}}, {"type": "node", "id": 7502364258, "lat": 55.4889857, "lon": 13.9214699, "tags": {"name": "F\u00e5rarp", "place": "hamlet"}}, {"type": "node", "id": 7502365411, "lat": 55.4497113, "lon": 13.9764562, "tags": {"name": "K\u00f6pingsberg", "place": "hamlet"}}, {"type": "node", "id": 7502386141, "lat": 55.4742777, "lon": 13.7702273, "tags": {"name": "K\u00e4rrag\u00e5rden", "place": "hamlet"}}, {"type": "node", "id": 7502391873, "lat": 55.4368813, "lon": 13.9264466, "tags": {"name": "Nybro", "place": "hamlet"}}, {"type": "node", "id": 7502392049, "lat": 55.4561323, "lon": 13.6433464, "tags": {"name": "Karlsborg", "place": "hamlet"}}, {"type": "node", "id": 7502407305, "lat": 55.4965681, "lon": 13.6832895, "tags": {"name": "Erikslund", "place": "hamlet"}}, {"type": "node", "id": 7502409345, "lat": 55.4748851, "lon": 13.9368051, "tags": {"name": "Jakobsberg", "place": "hamlet"}}, {"type": "node", "id": 7502411371, "lat": 55.492486, "lon": 13.692322, "tags": {"name": "Gussnava", "place": "hamlet"}}, {"type": "node", "id": 7502414725, "lat": 55.5235028, "lon": 13.6660269, "tags": {"name": "Hyller\u00f6d", "place": "hamlet"}}, {"type": "node", "id": 7502417667, "lat": 55.4467124, "lon": 13.9172315, "tags": {"name": "Bredasten", "place": "hamlet"}}, {"type": "node", "id": 7502424485, "lat": 55.4739242, "lon": 14.0152229, "tags": {"name": "Glemminge stenar", "place": "hamlet"}}, {"type": "node", "id": 7502425157, "lat": 55.5062892, "lon": 13.7092186, "tags": {"name": "Killer\u00f6d", "place": "hamlet"}}, {"type": "node", "id": 7502428939, "lat": 55.5032745, "lon": 13.7690229, "tags": {"name": "\u00c5rsj\u00f6", "place": "hamlet"}}, {"type": "node", "id": 7502429138, "lat": 55.5060859, "lon": 13.6495622, "tags": {"name": "Trulseryd", "place": "hamlet"}}, {"type": "node", "id": 7502431613, "lat": 55.5209536, "lon": 13.6351772, "tags": {"name": "Lindhult", "place": "hamlet"}}, {"type": "node", "id": 7502433098, "lat": 55.5195056, "lon": 13.6620593, "tags": {"name": "Fuglie", "place": "hamlet"}}, {"type": "node", "id": 7502433924, "lat": 55.5310042, "lon": 13.7581591, "tags": {"name": "Snogarp", "place": "hamlet"}}, {"type": "node", "id": 7502436364, "lat": 55.521527, "lon": 13.7736319, "tags": {"name": "Karlstorp", "place": "hamlet"}}, {"type": "node", "id": 7502437240, "lat": 55.501786, "lon": 13.636964, "tags": {"name": "Trunnerup", "place": "hamlet"}}, {"type": "node", "id": 7502444739, "lat": 55.5291807, "lon": 13.7769745, "tags": {"name": "Eneborg", "place": "hamlet"}}, {"type": "node", "id": 7502450700, "lat": 55.4953639, "lon": 13.8900643, "tags": {"name": "H\u00f6gestad Nyg\u00e5rd", "place": "hamlet"}}, {"type": "node", "id": 7502451016, "lat": 55.4949025, "lon": 14.0069274, "tags": {"name": "G\u00e4rarp", "place": "hamlet"}}, {"type": "node", "id": 7502451027, "lat": 55.5153653, "lon": 13.9961016, "tags": {"name": "Toarp", "place": "hamlet"}}, {"type": "node", "id": 7502451258, "lat": 55.5135674, "lon": 13.7091704, "tags": {"name": "Pr\u00e4sthejdan", "place": "hamlet"}}, {"type": "node", "id": 7502459720, "lat": 55.5219665, "lon": 13.7071845, "tags": {"name": "Amalielund", "place": "hamlet"}}, {"type": "node", "id": 7502467143, "lat": 55.4956631, "lon": 13.9124227, "tags": {"name": "F\u00e5rarps g\u00e5rd", "place": "hamlet"}}, {"type": "node", "id": 7502467997, "lat": 55.4910746, "lon": 13.9656842, "tags": {"name": "Munka T\u00e5garp", "place": "hamlet"}}, {"type": "node", "id": 7502468025, "lat": 55.5018594, "lon": 13.9342664, "tags": {"name": "Nedraby", "place": "hamlet"}}, {"type": "node", "id": 7502484186, "lat": 55.5516037, "lon": 13.914619, "tags": {"name": "Tyleh\u00f6gs g\u00e5rd", "place": "hamlet"}}, {"type": "node", "id": 7502493727, "lat": 55.5427124, "lon": 13.8414865, "tags": {"name": "Baldringetorp", "place": "hamlet"}}, {"type": "node", "id": 7502493925, "lat": 55.5235285, "lon": 13.8685995, "tags": {"name": "Ljungag\u00e5rden", "place": "hamlet"}}, {"type": "node", "id": 7502500841, "lat": 55.5635654, "lon": 13.9624465, "tags": {"name": "S\u00e4lsh\u00f6g", "place": "hamlet"}}, {"type": "node", "id": 7502507670, "lat": 55.5811146, "lon": 14.0024514, "tags": {"name": "Appeltorp", "place": "hamlet"}}, {"type": "node", "id": 7502522612, "lat": 55.5618331, "lon": 13.6434163, "tags": {"name": "Frihult", "place": "hamlet"}}, {"type": "node", "id": 7502522614, "lat": 55.5540724, "lon": 13.7476188, "tags": {"name": "Assm\u00e5sa", "place": "hamlet"}}, {"type": "node", "id": 7502523175, "lat": 55.5648347, "lon": 13.7811315, "tags": {"name": "V\u00e4ller\u00f6dsskog", "place": "hamlet"}}, {"type": "node", "id": 7502523802, "lat": 55.5713579, "lon": 13.7928571, "tags": {"name": "Styr\u00f6d", "place": "hamlet"}}, {"type": "node", "id": 7502524142, "lat": 55.5582401, "lon": 13.6664982, "tags": {"name": "Navr\u00f6d", "place": "hamlet"}}, {"type": "node", "id": 7502536410, "lat": 55.5428505, "lon": 13.7302727, "tags": {"name": "Ellestad", "place": "hamlet"}}, {"type": "way", "id": 190432238, "nodes": [6017304870, 6017304869, 2010598642, 6017304868, 6017304867, 2010598653, 2010598659, 2010598662, 2010598656, 2115672136, 2010598651]}, {"type": "way", "id": 638460551, "nodes": [2010598595, 2010598582, 6017308139, 6017308138, 6017308137, 6017308136, 2115671840]}, {"type": "way", "id": 638460552, "nodes": [6017308152, 2010598595]}, {"type": "way", "id": 638460555, "nodes": [6017308548, 6017308547, 6017308546, 6017308152]}, {"type": "way", "id": 638460556, "nodes": [6017308549, 6017308548]}, {"type": "way", "id": 638460557, "nodes": [2010598651, 6017308545, 2115671995, 2010598590, 6017308549]}, {"type": "way", "id": 638509644, "nodes": [2115671840, 2115671839]}, {"type": "way", "id": 638509646, "nodes": [2115671839, 2115671853, 2010598587, 6017304873, 6017304872, 6017304871, 6017304870]}, {"type": "relation", "id": 8854291, "members": [{"type": "way", "ref": 638460552, "role": "outer"}, {"type": "way", "ref": 638460551, "role": "outer"}, {"type": "way", "ref": 638509644, "role": "outer"}, {"type": "way", "ref": 638509646, "role": "outer"}, {"type": "way", "ref": 190432238, "role": "outer"}, {"type": "way", "ref": 638460557, "role": "outer"}, {"type": "way", "ref": 638460556, "role": "outer"}, {"type": "way", "ref": 638460555, "role": "outer"}], "tags": {"landuse": "residential", "name": "Bromma", "place": "hamlet", "type": "multipolygon"}}]}