{"version": 0.6, "generator": "Overpass API 0.7.61.5 4133829e", "osm3s": {"timestamp_osm_base": "2024-03-05T14:33:06Z", "copyright": "The data included in this document is from www.openstreetmap.org. The data is made available under ODbL."}, "elements": [{"type": "node", "id": 16893189, "lat": 59.0497639, "lon": 17.6899379, "tags": {"amenity": "ferry_terminal", "name": "M\u00f6rk\u00f6", "source": "PGS", "website": "https://www.trafikverket.se/resa-och-trafik/trafikinformation/farjetrafik/skanssundsleden/"}}, {"type": "node", "id": 38453758, "lat": 58.9705574, "lon": 17.7031256, "tags": {"amenity": "ferry_terminal", "waterway:sign": "ferry"}}, {"type": "node", "id": 274660282, "lat": 59.052333, "lon": 17.6931147, "tags": {"amenity": "ferry_terminal", "name": "H\u00f6rningsn\u00e4s", "website": "https://www.trafikverket.se/resa-och-trafik/trafikinformation/farjetrafik/skanssundsleden/"}}, {"type": "node", "id": 435187395, "lat": 58.9010226, "lon": 17.9530625, "tags": {"amenity": "ferry_terminal", "ferry": "yes", "name": "Nyn\u00e4shamn", "public_transport": "stop_position"}}, {"type": "node", "id": 435187426, "lat": 58.881763, "lon": 18.1098163, "tags": {"amenity": "ferry_terminal", "ferry": "yes", "name": "N\u00e5ttar\u00f6", "public_transport": "stop_position"}}, {"type": "node", "id": 540194464, "lat": 58.9715909, "lon": 17.7117304, "tags": {"amenity": "ferry_terminal", "waterway:sign": "ferry"}}, {"type": "node", "id": 1030669448, "lat": 58.8012268, "lon": 17.8356601, "tags": {"amenity": "ferry_terminal", "ferry": "yes", "name": "Ankarudden", "public_transport": "station"}}, {"type": "node", "id": 1975833501, "lat": 58.7674681, "lon": 17.3928344, "tags": {"amenity": "ferry_terminal", "note": "Add purpose and route of ferry"}}, {"type": "node", "id": 2558477373, "lat": 58.9037881, "lon": 17.955714}, {"type": "node", "id": 2558477374, "lat": 58.9037885, "lon": 17.9554201}, {"type": "node", "id": 2558477377, "lat": 58.9038147, "lon": 17.9552954}, {"type": "node", "id": 2558477383, "lat": 58.9038411, "lon": 17.9554615}, {"type": "node", "id": 2558477407, "lat": 58.9041205, "lon": 17.9560824}, {"type": "node", "id": 2558477409, "lat": 58.9041398, "lon": 17.9559908}, {"type": "node", "id": 2558477414, "lat": 58.9041943, "lon": 17.9557487}, {"type": "node", "id": 2558477415, "lat": 58.9042221, "lon": 17.955616}, {"type": "node", "id": 2558477424, "lat": 58.904847, "lon": 17.956372}, {"type": "node", "id": 2558477425, "lat": 58.9048667, "lon": 17.9562779}, {"type": "node", "id": 2558477426, "lat": 58.905195, "lon": 17.9569281}, {"type": "node", "id": 2558477427, "lat": 58.9052459, "lon": 17.9566859}, {"type": "node", "id": 2558477428, "lat": 58.9052645, "lon": 17.9569217}, {"type": "node", "id": 2942213200, "lat": 58.744565, "lon": 17.8645379, "tags": {"amenity": "ferry_terminal", "ferry": "yes", "name": "Landsort (V\u00e4sterhamn)", "public_transport": "station"}}, {"type": "node", "id": 3870541066, "lat": 58.7858317, "lon": 17.8439783, "tags": {"amenity": "ferry_terminal", "ferry": "yes", "name": "Kroksk\u00e4r V\u00e4sterhamn", "public_transport": "station"}}, {"type": "node", "id": 4333896287, "lat": 58.903378, "lon": 17.9558911, "tags": {"amenity": "ferry_terminal", "cargo": "passengers;vehicle", "ferry": "yes", "name": "Nyn\u00e4shamn - Visby", "public_transport": "stop_position"}}, {"type": "node", "id": 7746462458, "lat": 58.9052527, "lon": 17.9567726}, {"type": "node", "id": 8129638972, "lat": 58.9398112, "lon": 17.9786875, "tags": {"amenity": "ferry_terminal", "cargo": "passengers;vehicle", "ferry": "yes", "public_transport": "stop_position"}}, {"type": "node", "id": 8129638978, "lat": 58.9413066, "lon": 17.9756687, "tags": {"amenity": "ferry_terminal", "cargo": "passengers;vehicle", "ferry": "yes", "public_transport": "stop_position"}}, {"type": "node", "id": 8685215061, "lat": 58.7437782, "lon": 17.8682755, "tags": {"amenity": "ferry_terminal", "ferry": "yes", "name": "Landsort (\u00d6sterhamn)", "public_transport": "station"}}, {"type": "node", "id": 8728769795, "lat": 58.90775, "lon": 17.8479836, "tags": {"amenity": "ferry_terminal"}}, {"type": "node", "id": 8728804380, "lat": 58.9069932, "lon": 17.8485639, "tags": {"amenity": "ferry_terminal"}}, {"type": "node", "id": 9724390439, "lat": 58.7688393, "lon": 17.8583878, "tags": {"amenity": "ferry_terminal", "ferry": "yes", "name": "Landsort (Norrhamn)", "public_transport": "station"}}, {"type": "node", "id": 9960897414, "lat": 58.900809, "lon": 17.9527447, "tags": {"amenity": "ferry_terminal", "ferry": "yes", "name": "Nyn\u00e4shamn", "public_transport": "stop_position"}}, {"type": "node", "id": 9961101331, "lat": 58.906724, "lon": 17.9567281, "tags": {"amenity": "ferry_terminal", "ferry": "yes", "name": "Nyn\u00e4shamn", "public_transport": "station"}}, {"type": "way", "id": 249199709, "nodes": [2558477377, 2558477415, 2558477414, 2558477425, 2558477424, 2558477427, 7746462458, 2558477428, 2558477426, 2558477407, 2558477409, 2558477373, 2558477383, 2558477374, 2558477377], "tags": {"addr:city": "Nyn\u00e4shamn", "addr:country": "SE", "addr:housenumber": "1", "addr:postcode": "14930", "addr:street": "Hamnterminalen", "amenity": "ferry_terminal", "building": "yes", "ferry": "yes", "name": "F\u00e4rjeterminal Nyn\u00e4shamn", "name:en": "Port of Nynashamn", "name:sv": "F\u00e4rjeterminal Nyn\u00e4shamn", "public_transport": "station", "website": "https://www.stockholmshamnar.se/nynashamn/"}}]}