{"version": 0.6, "generator": "Overpass API 0.7.61.5 4133829e", "osm3s": {"timestamp_osm_base": "2024-03-06T11:07:30Z", "copyright": "The data included in this document is from www.openstreetmap.org. The data is made available under ODbL."}, "elements": [{"type": "node", "id": 4574058887, "lat": 31.4152959, "lon": 46.1780321, "tags": {"amenity": "hospital", "name": "\u0645\u0631\u0643\u0632 \u0627\u0644\u0631\u0639\u0627\u064a\u0629 \u0627\u0644\u0635\u062d\u064a\u0629  \u0641\u064a \u0627\u0644\u0641\u062a\u0627\u062d\u064a\u0629", "name:en": "Al-Fatahiya health care center"}}, {"type": "node", "id": 4574058888, "lat": 31.4060134, "lon": 46.1759266, "tags": {"amenity": "hospital", "name": "\u0645\u0631\u0643\u0632 \u0627\u0644\u0642\u062f\u0633 \u0644\u0644\u0631\u0639\u0627\u064a\u0629 \u0627\u0644\u0635\u062d\u064a\u0629", "name:en": "Al-Quddes Health Care Center"}}, {"type": "node", "id": 4574060989, "lat": 31.4019568, "lon": 46.1559763, "tags": {"amenity": "hospital", "healthcare": "hospital", "name": "\u0645\u0631\u0643\u0632 \u0627\u0644\u0632\u0647\u0648\u0631 \u0644\u0644\u0631\u0639\u0627\u064a\u0629 \u0627\u0644\u0635\u062d\u064a\u0629", "name:en": "Al-Zohour Health Care Center"}}, {"type": "node", "id": 4574060990, "lat": 31.4026905, "lon": 46.1684406, "tags": {"amenity": "hospital", "name": "\u0645\u0631\u0643\u0632 \u062d\u064a \u0627\u0644\u0645\u0639\u0644\u0645\u064a\u0646 \u0644\u0644\u0631\u0639\u0627\u064a\u0629 \u0627\u0644\u0635\u062d\u064a\u0629"}}, {"type": "node", "id": 4574060991, "lat": 31.3958749, "lon": 46.1753982, "tags": {"amenity": "hospital", "name": "\u0645\u0631\u0643\u0632 \u0627\u0644\u0632\u0647\u0648\u0631 \u0644\u0644\u0631\u0639\u0627\u064a\u0629 \u0627\u0644\u0635\u062d\u064a\u0629", "name:en": "Al-Zohour Health Care Center"}}, {"type": "node", "id": 4574060992, "lat": 31.4066924, "lon": 46.1611369, "tags": {"amenity": "hospital", "name": "\u0645\u0631\u0643\u0632 \u0627\u0644\u0639\u0631\u0648\u0628\u0629 \u0644\u0644\u0631\u0639\u0627\u064a\u0629 \u0627\u0644\u0635\u062d\u064a\u0629", "name:en": "Al-Orouba Health Care Center"}}, {"type": "node", "id": 4574060993, "lat": 31.4148439, "lon": 46.1653291, "tags": {"amenity": "hospital", "name": "\u0645\u0631\u0643\u0632 \u0627\u0644\u062e\u0627\u0644\u0635\u0629 \u0644\u0644\u0631\u0639\u0627\u064a\u0629 \u0627\u0644\u0635\u062d\u064a\u0629 \u0627\u0644\u0627\u0648\u0644\u064a\u0629"}}, {"type": "node", "id": 4869149722, "lat": 31.4133742, "lon": 46.1694005, "tags": {"amenity": "pharmacy", "name": "\u0627\u0644\u0635\u064a\u062f\u0644\u064a\u0629 \u0627\u0644\u062f\u0627\u062e\u0644\u064a\u0629", "name:ar": "\u0627\u0644\u0635\u064a\u062f\u0644\u064a\u0629 \u0627\u0644\u062f\u0627\u062e\u0644\u064a\u0629"}}, {"type": "node", "id": 4869158922, "lat": 31.4131988, "lon": 46.168733, "tags": {"amenity": "hospital", "email": "alaa_hasan89@mail.ru", "name": "\u0645\u0633\u062a\u0634\u0641\u0649 \u0627\u0644\u0634\u0637\u0631\u0629 \u0627\u0644\u0639\u0627\u0645", "name:ar": "\u0645\u0633\u062a\u0634\u0641\u0649 \u0627\u0644\u0634\u0637\u0631\u0629 \u0627\u0644\u0639\u0627\u0645", "name:en": "General hospital of Shatra"}}, {"type": "node", "id": 4869158924, "lat": 31.4134629, "lon": 46.1725539, "tags": {"amenity": "pharmacy", "name": "\u0635\u064a\u062f\u0644\u064a\u0629 \u0627\u0644\u0627\u0641\u0627\u0642 \u0627\u0644\u062c\u062f\u064a\u062f\u0629", "name:ar": "\u0635\u064a\u062f\u0644\u064a\u0629 \u0627\u0644\u0627\u0641\u0627\u0642 \u0627\u0644\u062c\u062f\u064a\u062f\u0629", "name:en": "Al-Afaaq Al-Jadida Pharmacy"}}, {"type": "node", "id": 5140554621, "lat": 31.4153109, "lon": 46.1677794, "tags": {"addr:street": "\u0634\u0627\u0631\u0639 \u0627\u0644\u0634\u0637 \u062c\u0646\u0628 \u0627\u0644\u0642\u0627\u0626\u0645\u0645\u0642\u0627\u0645\u064a\u0647", "amenity": "clinic", "name": "\u0639\u064a\u0627\u062f\u0627\u062a \u0627\u0644\u0627\u0633\u062a\u0634\u0627\u0631\u064a\u0647 \u0645\u0633\u062a\u0634\u0641\u0649 \u0627\u0644\u0634\u0637\u0631\u0647", "name:ar": "\u0639\u064a\u0627\u062f\u0627\u062a \u0627\u0644\u0627\u0633\u062a\u0634\u0627\u0631\u064a\u0647 \u0645\u0633\u062a\u0634\u0641\u0649 \u0627\u0644\u0634\u0637\u0631\u0647", "name:en": "outpatient clinics", "opening_hours": "Sa-Th 08:00-14:00"}}, {"type": "node", "id": 5299721921, "lat": 31.409564, "lon": 46.1679964, "tags": {"amenity": "clinic", "name": "\u062d\u062c\u0627\u0645\u0629 \u0627\u0644\u0627\u0645\u064a\u0646 \u0644\u0644\u0637\u0628 \u0627\u0644\u0646\u0628\u0648\u064a"}}, {"type": "node", "id": 5535406021, "lat": 31.2947496, "lon": 46.2444397, "tags": {"amenity": "doctors", "internet_access": "wlan", "name": "\u0645\u0633\u062a\u0634\u0641\u0649 \u0627\u0644\u063a\u0631\u0627\u0641"}}, {"type": "node", "id": 5613750926, "lat": 31.4106216, "lon": 46.1668592, "tags": {"amenity": "doctors", "name": "\u0627\u0644\u062f\u0643\u062a\u0648\u0631 \u0623\u0643\u0631\u0645 \u062c\u0648\u062f\u0629 \u062c\u0631\u0627\u062d\u0629 \u0623\u0637\u0641\u0627\u0644"}}, {"type": "node", "id": 5736190022, "lat": 31.5756757, "lon": 46.2317376, "tags": {"amenity": "clinic", "name": "\u0645\u0633\u062a\u0648\u0635\u0641 \u0639\u062a\u0627\u0628"}}, {"type": "node", "id": 5746368321, "lat": 31.5424814, "lon": 46.1206464, "tags": {"amenity": "clinic", "name": "\u0645\u0631\u0643\u0632 \u0627\u0644\u0635\u062d\u064a \u0627\u0644\u0646\u0635\u0631 \u0627\u0644\u0646\u0645\u0648\u0630\u062c\u064a", "name:en": "alnaser typical health clinic", "opening_hours": "Sa-Th 00:00-24:00"}}, {"type": "node", "id": 5746368322, "lat": 31.5414844, "lon": 46.1245086, "tags": {"amenity": "clinic", "name": "\u0645\u0631\u0643\u0632 \u0627\u0644\u0634\u0647\u064a\u062f \u0648\u0627\u0626\u0644\u064a", "name:ar": "\u0645\u0631\u0643\u0632 \u0627\u0644\u0634\u0647\u064a\u062f \u0648\u0627\u0626\u0644\u064a \u0627\u0644\u0635\u062d\u064a", "name:en": "shaheed waeli health clinc", "opening_hours": "24/7"}}, {"type": "node", "id": 5830977986, "lat": 31.4100429, "lon": 46.1651192, "tags": {"amenity": "clinic", "name": "\u062f \u0648\u0633\u0646 \u0627\u0644\u0627\u0633\u062f\u064a \u0627\u0644\u0634\u0637\u0631\u0629"}}, {"type": "node", "id": 5830977987, "lat": 31.4106888, "lon": 46.1661906, "tags": {"amenity": "clinic", "name": "\u062f \u0627\u0628\u062a\u0633\u0627\u0645 \u0634\u0645\u062e\u064a \u0627\u0644\u0633\u0639\u064a\u062f\u064a \u0627\u0644\u0634\u0637\u0631\u0629"}}, {"type": "node", "id": 5830977988, "lat": 31.4090026, "lon": 46.1630686, "tags": {"amenity": "clinic", "name": "\u062f \u0639\u0644\u064a\u0627\u0621 \u0627\u0644\u0634\u0637\u0631\u0629"}}, {"type": "node", "id": 6212860385, "lat": 31.413214, "lon": 46.1830224, "tags": {"amenity": "hospital", "name": "\u0645\u0633\u062a\u0634\u0641\u0649 \u0627\u0644\u062d\u0648\u0631\u0627\u0621"}}, {"type": "node", "id": 6240982086, "lat": 31.3477194, "lon": 46.1487387, "tags": {"amenity": "doctors", "name": "\u0645\u0631\u0643\u0632 \u062a\u0644 \u0643\u0631\u062d\u0629 \u0627\u0644\u0635\u062d\u064a \u0627\u0644 \u062c\u0647\u0644"}}, {"type": "node", "id": 6401709887, "lat": 31.4131846, "lon": 46.1695814, "tags": {"addr:street": "\u0634\u0627\u0631\u0639 \u0627\u0644\u0645\u0633\u062a\u0634\u0641\u0649", "amenity": "pharmacy", "name": "\u0635\u064a\u062f\u0644\u064a\u0629 \u0623\u0648\u0643\u0633\u062c\u064a\u0646", "name:en": "Oxygen Pharmacy"}}, {"type": "node", "id": 6411590486, "lat": 31.4967183, "lon": 46.3735678, "tags": {"amenity": "doctors", "name": "Dr.muntadher Abbas"}}, {"type": "node", "id": 6411643085, "lat": 31.4983827, "lon": 46.3742716, "tags": {"amenity": "hospital", "name": "\u0645\u0631\u0643\u0632 \u0627\u0644\u0634\u0647\u064a\u062f \u0645\u062d\u0645\u062f \u063a\u064a\u0627\u0636", "name:ar": "\u0645\u0631\u0643\u0632 \u0627\u0644\u0634\u0647\u064a\u062f \u0645\u062d\u0645\u062f \u063a\u064a\u0627\u0636 \u0627\u0644\u0635\u062d\u064a", "name:en": "Health center of Mohammed ghayath"}}, {"type": "node", "id": 6644600515, "lat": 31.5756603, "lon": 46.2318588, "tags": {"amenity": "clinic", "name": "\u0645\u0631\u0643\u0632 \u0639\u062a\u0627\u0628 \u0627\u0644\u0641\u0631\u0639\u064a", "name:en": "Ataab p h c"}}, {"type": "node", "id": 6987519971, "lat": 31.4943676, "lon": 46.1243828, "tags": {"amenity": "doctors", "name": "\u0645\u0631\u0643\u0632 \u0627\u0644\u0633\u0627\u062f\u0647 \u0627\u0644\u0628\u0648\u0647\u0644\u0627\u0644\u0629 \u0627\u0644\u0635\u062d\u064a \u0627\u0644\u0641\u0631\u0639\u064a", "name:en": "Health center", "name:ku": "Health center"}}, {"type": "node", "id": 7359342747, "lat": 31.4193328, "lon": 46.1727489, "tags": {"amenity": "pharmacy", "name": "\u0635\u064a\u062f\u0644\u064a\u0629 \u0641\u064a\u0631\u0648\u0632"}}, {"type": "node", "id": 7925092687, "lat": 31.5228357, "lon": 46.1225615, "tags": {"amenity": "doctors", "name": "\u0645\u0631\u0643\u0632 \u0635\u062d\u064a \u0627\u0644\u0632\u0647\u0631\u0627\u0621"}}, {"type": "node", "id": 8077632223, "lat": 31.409894, "lon": 46.1646361, "tags": {"addr:housenumber": "07805128997", "addr:street": "\u0634\u0627\u0631\u0639 \u0627\u0644\u0639\u062f\u0644", "amenity": "clinic", "name": "\u0639\u0644\u064a \u0639\u0627\u0645\u0631 \u0627\u0644\u0643\u0639\u0628\u064a", "name:en": "Ali Amer alkaaby", "name:ku": "Ali Amer alkaaby", "opening_hours": "Mo-Su 15:00-20:00", "phone": "07805128997"}}, {"type": "node", "id": 8675786017, "lat": 31.2967437, "lon": 46.2441882, "tags": {"addr:postcode": "61006", "amenity": "pharmacy", "name": "\u0635\u064a\u062f\u0644\u064a\u0629 \u0627\u0644\u0623\u0645\u0644", "name:en": "Hope Pharmacy", "opening_hours": "24/7"}}, {"type": "node", "id": 8675796044, "lat": 31.2978205, "lon": 46.2448219, "tags": {"amenity": "pharmacy", "name": "\u0635\u064a\u062f\u0644\u064a\u0629 \u0627\u0644\u062d\u064a\u0627\u0629", "name:en": "Al-Hayat Pharmacist", "opening_hours": "24/7"}}, {"type": "node", "id": 8777650917, "lat": 31.2967078, "lon": 46.2441677, "tags": {"amenity": "clinic", "name": "\u0639\u064a\u0627\u062f\u0629"}}, {"type": "node", "id": 8893917350, "lat": 31.4047929, "lon": 46.2831268, "tags": {"addr:city": "\u0646\u0627\u062d\u064a\u0629 \u0627\u0644 \u0633\u0644\u064a\u0645\u0627\u0646", "addr:housenumber": "126", "addr:street": "\u062d\u0633\u064a\u0646 \u062c\u0645\u064a\u0644 \u0639\u0648\u0627\u062f", "amenity": "clinic", "healthcare": "clinic", "healthcare:speciality": "covid19", "name": "\u0639\u064a\u0627\u062f\u0647 \u0627\u0644\u062f\u0643\u062a\u0648\u0631 \u0645\u062d\u0645\u062f", "opening_hours": "24/7", "operator": "\u0627\u0647\u0644\u064a", "operator:type": "public"}}, {"type": "node", "id": 9168735417, "lat": 31.4105927, "lon": 46.1655294, "tags": {"amenity": "doctors", "name": "\u0627\u0644\u062f\u0643\u062a\u0648\u0631 \u0631\u0627\u0641\u062f \u0643\u0631\u064a\u0645"}}, {"type": "node", "id": 9593895517, "lat": 31.525288, "lon": 46.11535, "tags": {"amenity": "clinic", "name": "\u0645\u0633\u062a\u0634\u0641\u0649 \u0627\u0644\u0646\u0635\u0631 \u0627\u0644\u0639\u0627\u0645"}}, {"type": "node", "id": 10781799950, "lat": 31.2809315, "lon": 46.5337757}, {"type": "node", "id": 10781799951, "lat": 31.2809095, "lon": 46.5340793}, {"type": "node", "id": 10781799952, "lat": 31.2806301, "lon": 46.5340618}, {"type": "node", "id": 10781799953, "lat": 31.2806551, "lon": 46.533757}, {"type": "node", "id": 11108359905, "lat": 31.4103328, "lon": 46.1648393, "tags": {"amenity": "pharmacy", "name:en": "\u0635\u064a\u062f\u0644\u064a\u0629"}}, {"type": "node", "id": 11259289837, "lat": 31.4087895, "lon": 46.1608915, "tags": {"addr:housenumber": "1", "addr:street": "\u0634\u0627\u0631\u0639 \u0627\u0644\u0639\u062f\u0644", "amenity": "doctors", "email": "doctorrr90@gmail.com", "name": "\u0639\u064a\u0627\u062f\u0629 \ud83e\ude7a \u0627\u0644\u062f\u0643\u062a\u0648\u0631\u0629 \u0631\u0634\u0627 \u0645\u062d\u064a \u0627\u0644\u063a\u0632\u064a / \u0627\u062e\u0635\u0627\u0626\u064a\u0629 \u0623\u0645\u0631\u0627\u0636 \u0635\u062f\u0631\u064a\u0629 \u0648\u062a\u0646\u0641\u0633\u064a\u0629 \ud83e\udec1", "name:en": "Dr Rasha Muhee", "opening_hours": "We-Su 16:00-20:00", "phone": "07825018825", "website": "https://www.facebook.com/profile.php?id=100063788316516&mibextid=ZbWKwL"}}, {"type": "node", "id": 11260214237, "lat": 31.4087625, "lon": 46.1608209, "tags": {"amenity": "doctors", "name": "\u062f . \u0631\u0634\u0627 \u0645\u062d\u064a \u0627\u0644\u063a\u0632\u064a", "name:en": "Dr . Rasha Muhee"}}, {"type": "node", "id": 11260218837, "lat": 31.4093397, "lon": 46.1604875, "tags": {"amenity": "doctors", "name": "\u062f . \u0623\u0643\u0631\u0645 \u062c\u0648\u062f\u0629 \u0627\u0644\u0632\u064a\u062f\u064a"}}, {"type": "node", "id": 11260221237, "lat": 31.4093905, "lon": 46.1617105, "tags": {"amenity": "pharmacy", "name": "\u0635\u064a\u062f\u0644\u064a\u0629 \u0638\u0641\u0627\u0631 \u0639\u0644\u064a \u0633\u0648\u0627\u062f\u064a"}}, {"type": "node", "id": 11260222337, "lat": 31.4091417, "lon": 46.1618392, "tags": {"amenity": "doctors", "name": "\u0645\u0631\u0643\u0632 \u062f \u0630\u0648\u0627\u0644\u0641\u0642\u0627\u0631 \u0641\u0627\u0636\u0644 \u0627\u0644\u0631\u0645\u0627\u062d\u064a"}}, {"type": "node", "id": 11260250837, "lat": 31.4090564, "lon": 46.1612214, "tags": {"amenity": "clinic", "name": "\u0645\u062c\u0645\u0639 \u0627\u0644\u0634\u0641\u0627\u0621 \u0627\u0644\u0637\u0628\u064a", "name:en": "Al - Shifa'a Medical Complex"}}, {"type": "node", "id": 11307520869, "lat": 31.4086098, "lon": 46.1609191, "tags": {"amenity": "clinic", "name": "\u0645\u0631\u0643\u0632 \u062f \u0630\u0648\u0627\u0644\u0641\u0642\u0627\u0631 \u0641\u0627\u0636\u0644 \u0627\u0644\u0631\u0645\u0627\u062d\u064a"}}, {"type": "node", "id": 11307521869, "lat": 31.4089525, "lon": 46.160703, "tags": {"amenity": "pharmacy", "name": "\u0635\u064a\u062f\u0644\u064a\u0629 \u0627\u0644\u062f\u0643\u062a\u0648\u0631 \u0638\u0641\u0627\u0631 \u0639\u0644\u064a \u0633\u0648\u0627\u062f\u064a"}}, {"type": "way", "id": 1159396459, "nodes": [10781799950, 10781799951, 10781799952, 10781799953, 10781799950], "tags": {"amenity": "pharmacy", "building": "yes", "healthcare": "pharmacy", "name": "\u0645\u0633\u062a\u0648\u0635\u0641 \u0641\u0648\u0627\u062f\u0629 \u0627\u0644\u0635\u062d\u064a"}}]}