{"version": 0.6, "generator": "Overpass API 0.7.61.5 4133829e", "osm3s": {"timestamp_osm_base": "2024-03-05T11:05:12Z", "copyright": "The data included in this document is from www.openstreetmap.org. The data is made available under ODbL."}, "elements": [{"type": "node", "id": 434459909, "lat": 7.9914716, "lon": -0.8833817, "tags": {"capital": "6", "name": "Prang", "place": "town", "wikidata": "Q107589714"}}, {"type": "node", "id": 434460562, "lat": 7.753515, "lon": -0.987764, "tags": {"capital": "6", "name": "Atebubu", "place": "town", "wikidata": "Q4812980", "wikipedia": "en:Atebubu"}}, {"type": "node", "id": 434461097, "lat": 7.9857954, "lon": -1.0917907, "tags": {"name": "Dama Nkwanta", "place": "town"}}, {"type": "node", "id": 1796808795, "lat": 7.8045277, "lon": -1.0105769, "tags": {"name": "Ngowam", "place": "village"}}, {"type": "node", "id": 1818632601, "lat": 7.6494228, "lon": -1.0641405, "tags": {"name": "Patuda", "place": "village"}}, {"type": "node", "id": 1828115126, "lat": 7.6788799, "lon": -1.1889994, "tags": {"name": "Abama", "place": "village"}}, {"type": "node", "id": 2163867009, "lat": 7.9585737, "lon": -1.1802827, "tags": {"name": "Abease", "place": "village"}}, {"type": "node", "id": 2163867066, "lat": 7.7688958, "lon": -1.156631, "tags": {"place": "village"}}, {"type": "node", "id": 2163867569, "lat": 7.9657975, "lon": -1.1251487, "tags": {"place": "village"}}, {"type": "node", "id": 2163867692, "lat": 8.0250004, "lon": -0.9571813, "tags": {"place": "village"}}, {"type": "node", "id": 2164260504, "lat": 8.0653954, "lon": -0.8441388, "tags": {"name": "Dogokrom", "place": "village"}}, {"type": "node", "id": 2164260505, "lat": 7.6577648, "lon": -1.1798493, "tags": {"name": "Fanfao", "place": "hamlet"}}, {"type": "node", "id": 2164260506, "lat": 8.0479774, "lon": -0.8560834, "tags": {"name": "Labo", "place": "village"}}, {"type": "node", "id": 2164260507, "lat": 7.9041694, "lon": -0.9324318, "tags": {"name": "Nyameasi", "place": "village"}}, {"type": "node", "id": 2164260620, "lat": 7.6612673, "lon": -0.9912557, "tags": {"place": "village"}}, {"type": "node", "id": 2164260777, "lat": 7.6925879, "lon": -1.0203459, "tags": {"name": "Sanwakyi", "place": "village"}}, {"type": "node", "id": 2164260817, "lat": 7.7060023, "lon": -0.8050129, "tags": {"place": "village"}}, {"type": "node", "id": 2164260850, "lat": 7.7113418, "lon": -1.0065651, "tags": {"place": "village"}}, {"type": "node", "id": 2164260880, "lat": 7.7205369, "lon": -0.8805114, "tags": {"name": "Kokofu", "place": "village"}}, {"type": "node", "id": 2164260909, "lat": 7.7323821, "lon": -0.9366422, "tags": {"place": "village"}}, {"type": "node", "id": 2164261063, "lat": 7.8891167, "lon": -0.9424339, "tags": {"place": "village"}}, {"type": "node", "id": 2164261102, "lat": 7.9238464, "lon": -0.9159902, "tags": {"place": "village"}}, {"type": "node", "id": 2164261111, "lat": 7.9718894, "lon": -0.8948525, "tags": {"place": "village"}}, {"type": "node", "id": 2164261146, "lat": 8.0613777, "lon": -0.8369296, "tags": {"place": "village"}}, {"type": "node", "id": 2201688063, "lat": 7.8289796, "lon": -1.1371717, "tags": {"place": "hamlet"}}, {"type": "node", "id": 2201688161, "lat": 7.8606823, "lon": -1.1702702, "tags": {"place": "hamlet"}}, {"type": "node", "id": 2201688293, "lat": 7.892692, "lon": -1.1509958, "tags": {"place": "hamlet"}}, {"type": "node", "id": 2202298465, "lat": 7.6985144, "lon": -0.8439979, "tags": {"place": "hamlet"}}, {"type": "node", "id": 2202845628, "lat": 7.9416135, "lon": -1.0413835, "tags": {"name": "Trofwi", "place": "hamlet"}}, {"type": "node", "id": 2203524615, "lat": 7.8491706, "lon": -0.7986983, "tags": {"name": "Dogo Day", "place": "hamlet"}}, {"type": "node", "id": 2203524860, "lat": 7.8782518, "lon": -1.0761938, "tags": {"place": "hamlet"}}, {"type": "node", "id": 2203524909, "lat": 7.891468, "lon": -1.1017229, "tags": {"place": "hamlet"}}, {"type": "node", "id": 2203524920, "lat": 7.893486, "lon": -1.0850997, "tags": {"place": "hamlet"}}, {"type": "node", "id": 2203525087, "lat": 7.9507392, "lon": -0.7810339, "tags": {"place": "hamlet"}}, {"type": "node", "id": 2203525160, "lat": 7.9687984, "lon": -1.0733354, "tags": {"place": "hamlet"}}, {"type": "node", "id": 2203525206, "lat": 7.9998068, "lon": -0.8107133, "tags": {"place": "hamlet"}}, {"type": "node", "id": 2203525230, "lat": 8.0131984, "lon": -0.8033091, "tags": {"place": "hamlet"}}, {"type": "node", "id": 3915261148, "lat": 7.7758758, "lon": -0.9739225, "tags": {"name": "Ahotor", "place": "village"}}, {"type": "node", "id": 5096909987, "lat": 7.6630926, "lon": -0.8369458, "tags": {"place": "village"}}, {"type": "node", "id": 5096909988, "lat": 7.6667611, "lon": -0.9685994, "tags": {"name": "Mem", "place": "village"}}, {"type": "node", "id": 7195424984, "lat": 7.7539261, "lon": -1.1256802, "tags": {"name": "Adensi", "place": "village"}}, {"type": "node", "id": 7195441166, "lat": 7.7572057, "lon": -1.1370447, "tags": {"name": "Issifu Akura", "place": "village"}}, {"type": "node", "id": 8647938866, "lat": 7.7125426, "lon": -1.0068557, "tags": {"name": "New Krokompe", "place": "village"}}, {"type": "node", "id": 11088438008, "lat": 8.0383578, "lon": -0.8143562, "tags": {"name": "Nakpan Beposo", "place": "village"}}]}