{"version": 0.6, "generator": "Overpass API 0.7.61.5 4133829e", "osm3s": {"timestamp_osm_base": "2024-03-06T11:45:15Z", "copyright": "The data included in this document is from www.openstreetmap.org. The data is made available under ODbL."}, "elements": [{"type": "node", "id": 44923764, "lat": -1.0021854, "lon": 35.6632521, "tags": {"is_in": "Narok,Kenya", "name": "Ololulung'a", "place": "village"}}, {"type": "node", "id": 44931692, "lat": -1.1, "lon": 35.3833, "tags": {"is_in": "Narok,Kenya", "name": "Lemek", "place": "village", "wikidata": "Q6521112"}}, {"type": "node", "id": 1604896379, "lat": -1.3409257, "lon": 35.3480007, "tags": {"name": "Olesere", "place": "village"}}, {"type": "node", "id": 1967453417, "lat": -1.0353483, "lon": 35.5113801, "tags": {"name": "Ngorengore", "place": "village"}}, {"type": "node", "id": 2141218445, "lat": -1.192091, "lon": 35.2498826, "tags": {"name": "Aitong", "place": "village"}}, {"type": "node", "id": 11627217174, "lat": -1.4094042, "lon": 35.5906919, "tags": {"name": "Ngoswani", "place": "village"}}]}