{"version": 0.6, "generator": "Overpass API 0.7.61.5 4133829e", "osm3s": {"timestamp_osm_base": "2024-03-05T11:24:46Z", "copyright": "The data included in this document is from www.openstreetmap.org. The data is made available under ODbL."}, "elements": [{"type": "node", "id": 434446971, "lat": 7.583278, "lon": 0.607424, "tags": {"is_in:country": "Togo", "name": "Badou", "place": "town", "wikidata": "Q2878806"}}, {"type": "node", "id": 434448018, "lat": 7.525931, "lon": 0.476103, "tags": {"capital": "6", "name": "Kadjebi", "name:ja": "\u30ab\u30b8\u30a7\u30d3", "place": "town", "wikidata": "Q6345585"}}, {"type": "node", "id": 434495913, "lat": 7.4413522, "lon": 0.6041707, "tags": {"name": "Kp\u00e9t\u00e9 B\u00e9na", "place": "town"}}, {"type": "node", "id": 434496272, "lat": 7.4235271, "lon": 0.5463455, "tags": {"place": "town"}}, {"type": "node", "id": 783275666, "lat": 7.1958492, "lon": 0.6919355, "tags": {"name": "Danyi Ap\u00e9y\u00e9m\u00e9", "place": "village"}}, {"type": "node", "id": 783277472, "lat": 7.5437525, "lon": 0.6910414, "tags": {"name": "Adossou", "place": "village"}}, {"type": "node", "id": 783277520, "lat": 7.4352602, "lon": 0.6748409, "tags": {"name": "Agbo Kobe", "place": "village"}}, {"type": "node", "id": 783278668, "lat": 7.4022816, "lon": 0.698341, "tags": {"name": "Ediwlou", "place": "village"}}, {"type": "node", "id": 783278754, "lat": 7.5879559, "lon": 0.6530948, "tags": {"name": "Wampa Kope", "place": "village"}}, {"type": "node", "id": 783279091, "lat": 7.202155, "lon": 0.6932471, "tags": {"name": "Danyi Todome", "place": "village"}}, {"type": "node", "id": 783279290, "lat": 7.5056582, "lon": 0.6835287, "tags": {"name": "Zomenou", "place": "village"}}, {"type": "node", "id": 1967828493, "lat": 7.2812461, "lon": 0.7110202, "tags": {"name": "Danyi \u00c9lavagnon", "place": "village"}}, {"type": "node", "id": 1967828497, "lat": 7.2324699, "lon": 0.6871095, "tags": {"name": "Danyi Dzogb\u00e9gan", "place": "village"}}, {"type": "node", "id": 2036195308, "lat": 7.1972325, "lon": 0.5625805, "tags": {"name": "Lelope Agbozome", "place": "village"}}, {"type": "node", "id": 2036195309, "lat": 7.2035134, "lon": 0.6095317, "tags": {"name": "Likpe Bala", "place": "village"}}, {"type": "node", "id": 2036195310, "lat": 7.1996193, "lon": 0.518739, "tags": {"name": "Lolobi - Ashiambi", "place": "village"}}, {"type": "node", "id": 2046832342, "lat": 7.3142954, "lon": 0.8127476, "tags": {"name": "Sodo", "place": "village"}}, {"type": "node", "id": 2046832409, "lat": 7.1956437, "lon": 0.7204146, "tags": {"name": "Gbalidj\u00e9", "place": "village"}}, {"type": "node", "id": 2046832438, "lat": 7.1916813, "lon": 0.7173836, "tags": {"name": "Tokpo", "place": "hamlet"}}, {"type": "node", "id": 2080475987, "lat": 7.3371699, "lon": 0.8177673, "tags": {"name": "Sodo-Todji", "place": "village"}}, {"type": "node", "id": 2080475989, "lat": 7.2776189, "lon": 0.8019316, "tags": {"name": "Kp\u00e9l\u00e9 \u00c9l\u00e9", "place": "village"}}, {"type": "node", "id": 2080475990, "lat": 7.3893019, "lon": 0.8688643, "tags": {"name": "Amou Oblo", "name:ru": "\u0410\u043c\u0443-\u041e\u0431\u043b\u043e", "place": "town"}}, {"type": "node", "id": 2085532030, "lat": 7.5829883, "lon": 0.6957141, "tags": {"name": "Otandjobo", "place": "village"}}, {"type": "node", "id": 2085535263, "lat": 7.617295, "lon": 0.7909009, "tags": {"name": "Klabe - Adape", "place": "village"}}, {"type": "node", "id": 2203522741, "lat": 7.6177324, "lon": 0.5174813, "tags": {"place": "hamlet"}}, {"type": "node", "id": 2203621422, "lat": 7.3527162, "lon": 0.4629158, "tags": {"name": "Bowiri", "place": "village"}}, {"type": "node", "id": 2203621436, "lat": 7.3588457, "lon": 0.4659569, "tags": {"place": "village"}}, {"type": "node", "id": 2203621437, "lat": 7.3650429, "lon": 0.4889336, "tags": {"name": "Bodada", "place": "village", "population": "3000"}}, {"type": "node", "id": 2203621614, "lat": 7.411211, "lon": 0.470569, "tags": {"capital": "6", "name": "Jasikan", "place": "town", "wikidata": "Q6161553"}}, {"type": "node", "id": 2203621864, "lat": 7.4810652, "lon": 0.5327744, "tags": {"place": "village"}}, {"type": "node", "id": 2203621887, "lat": 7.4845295, "lon": 0.5348145, "tags": {"place": "village"}}, {"type": "node", "id": 2203621937, "lat": 7.4977763, "lon": 0.5017844, "tags": {"place": "hamlet"}}, {"type": "node", "id": 2203622007, "lat": 7.5042963, "lon": 0.5331304, "tags": {"place": "village"}}, {"type": "node", "id": 2203622090, "lat": 7.5281457, "lon": 0.5407959, "tags": {"place": "hamlet"}}, {"type": "node", "id": 2203622211, "lat": 7.5436711, "lon": 0.4877778, "tags": {"place": "hamlet"}}, {"type": "node", "id": 2203622272, "lat": 7.5637163, "lon": 0.5011413, "tags": {"place": "hamlet"}}, {"type": "node", "id": 2203622293, "lat": 7.5673065, "lon": 0.5040908, "tags": {"name": "Menuso", "place": "hamlet"}}, {"type": "node", "id": 2203622336, "lat": 7.5830288, "lon": 0.4632922, "tags": {"name": "Gyamurume", "place": "hamlet"}}, {"type": "node", "id": 2203622359, "lat": 7.5902056, "lon": 0.5737627, "tags": {"place": "village"}}, {"type": "node", "id": 2203622372, "lat": 7.5973158, "lon": 0.5090401, "tags": {"name": "Dzindziso", "place": "village"}}, {"type": "node", "id": 2203622417, "lat": 7.6011923, "lon": 0.4825583, "tags": {"place": "hamlet"}}, {"type": "node", "id": 2203738404, "lat": 7.2838435, "lon": 0.534923, "tags": {"name": "Akpafu Adokor", "place": "village", "source": "GeoNames;OSM Notes"}}, {"type": "node", "id": 2203738407, "lat": 7.2740379, "lon": 0.4734816, "tags": {"name": "Akpafu Odomi", "place": "village"}}, {"type": "node", "id": 2203738408, "lat": 7.2540624, "lon": 0.4908032, "tags": {"name": "Akpafu Todzi", "place": "village", "wikidata": "Q4701572"}}, {"type": "node", "id": 2203738409, "lat": 7.2383542, "lon": 0.52999, "tags": {"name": "Baika", "place": "village"}}, {"type": "node", "id": 2203738412, "lat": 7.2754214, "lon": 0.6204237, "tags": {"name": "Dozoko", "place": "village"}}, {"type": "node", "id": 2203738418, "lat": 7.3783313, "lon": 0.6145625, "tags": {"name": "Kute Ghana", "place": "village"}}, {"type": "node", "id": 2203738419, "lat": 7.2439533, "lon": 0.4789346, "tags": {"name": "Akpafu Mempeasem", "place": "village"}}, {"type": "node", "id": 2203738420, "lat": 7.2878043, "lon": 0.5860926, "tags": {"name": "New Ayoma", "place": "village"}}, {"type": "node", "id": 2203739457, "lat": 7.2111826, "lon": 0.5270107, "tags": {"name": "Lolobi - Kumasi", "place": "village"}}, {"type": "node", "id": 2203739468, "lat": 7.2011894, "lon": 0.544713, "tags": {"name": "Lolobi - Huyeasem", "place": "village"}}, {"type": "node", "id": 2203739645, "lat": 7.227078, "lon": 0.5616361, "tags": {"name": "Likpe Koforidua", "place": "village"}}, {"type": "node", "id": 2203739661, "lat": 7.2277432, "lon": 0.5332281, "tags": {"name": "New Baika", "place": "village"}}, {"type": "node", "id": 2203739808, "lat": 7.2486649, "lon": 0.5598924, "tags": {"name": "Likpe Abrani", "place": "village", "source": "GeoNames"}}, {"type": "node", "id": 2203739867, "lat": 7.2621845, "lon": 0.5686481, "tags": {"name": "Likpe Kukurantumi", "place": "village", "source": "GeoNames"}}, {"type": "node", "id": 2203739941, "lat": 7.2754636, "lon": 0.5182644, "tags": {"name": "Akpafu Sokpo", "place": "village", "source": "GeoNames;OSM Notes"}}, {"type": "node", "id": 2203740157, "lat": 7.3075186, "lon": 0.511768, "tags": {"name": "Teteman", "place": "village"}}, {"type": "node", "id": 2203740431, "lat": 7.3703673, "lon": 0.5426849, "tags": {"place": "hamlet"}}, {"type": "node", "id": 2203740497, "lat": 7.3769771, "lon": 0.5603877, "tags": {"place": "hamlet"}}, {"type": "node", "id": 2203740581, "lat": 7.4122186, "lon": 0.523571, "tags": {"place": "hamlet"}}, {"type": "node", "id": 2203740626, "lat": 7.2099517, "lon": 0.475114, "tags": {"name": "Santrokofi Benua", "place": "village"}}, {"type": "node", "id": 2203740627, "lat": 7.216173, "lon": 0.4727556, "tags": {"name": "Santrokofi Bume", "place": "village"}}, {"type": "node", "id": 2203740628, "lat": 7.226041, "lon": 0.4750752, "tags": {"name": "Santrokofi Gbodome", "place": "village"}}, {"type": "node", "id": 2203740631, "lat": 7.3317106, "lon": 0.4603556, "tags": {"name": "Tsirahi", "place": "village"}}, {"type": "node", "id": 2574198423, "lat": 7.5091514, "lon": 0.6043336, "tags": {"ele": "260", "name": "Tomegb\u00e9", "place": "town"}}, {"type": "node", "id": 3042188714, "lat": 7.3239561, "lon": 0.7933683, "tags": {"name": "Oloutokou", "place": "village"}}, {"type": "node", "id": 3643423363, "lat": 7.2619784, "lon": 0.7350589, "tags": {"place": "village", "source": "bing"}}, {"type": "node", "id": 3646240063, "lat": 7.2484927, "lon": 0.7583478, "tags": {"place": "hamlet", "source": "bing"}}, {"type": "node", "id": 3646530346, "lat": 7.2500752, "lon": 0.7948681, "tags": {"place": "village", "source": "bing"}}, {"type": "node", "id": 3664504102, "lat": 7.6061112, "lon": 0.677802, "tags": {"place": "village", "population": "30"}}, {"type": "node", "id": 3744170178, "lat": 7.6127745, "lon": 0.6090076, "tags": {"place": "village"}}, {"type": "node", "id": 3744171525, "lat": 7.6026969, "lon": 0.7635322, "tags": {"name": "Klabe-Efoukpa", "place": "village"}}, {"type": "node", "id": 3763113110, "lat": 7.5566205, "lon": 0.6949409}, {"type": "node", "id": 3763113111, "lat": 7.5568101, "lon": 0.6933846}, {"type": "node", "id": 3763113112, "lat": 7.5571376, "lon": 0.6905068}, {"type": "node", "id": 3763113115, "lat": 7.5577323, "lon": 0.6927934}, {"type": "node", "id": 3763118054, "lat": 7.554302, "lon": 0.6947583}, {"type": "node", "id": 3763118055, "lat": 7.5543106, "lon": 0.6934629}, {"type": "node", "id": 3763120762, "lat": 7.5550346, "lon": 0.6925587}, {"type": "node", "id": 3763120770, "lat": 7.5560516, "lon": 0.6905764}, {"type": "node", "id": 3763120772, "lat": 7.5561464, "lon": 0.6918371}, {"type": "node", "id": 3835169873, "lat": 7.197499, "lon": 0.7220115, "tags": {"name": "Ankuvi", "place": "village"}}, {"type": "node", "id": 3835169874, "lat": 7.1891559, "lon": 0.7167015, "tags": {"name": "Avlum\u00e9", "place": "hamlet"}}, {"type": "node", "id": 4120436921, "lat": 7.3970875, "lon": 0.6047772, "tags": {"place": "hamlet"}}, {"type": "node", "id": 4382985471, "lat": 7.1865441, "lon": 0.7147658, "tags": {"name": "Tovi", "place": "village"}}, {"type": "node", "id": 4563541223, "lat": 7.3322091, "lon": 0.8422084, "tags": {"name": "Patatoukou", "place": "village"}}, {"type": "node", "id": 4577383548, "lat": 7.188444, "lon": 0.7556974, "tags": {"name": "Kpele Tsavi\u00e9", "place": "village"}}, {"type": "node", "id": 5148555277, "lat": 7.1896443, "lon": 0.7534198, "tags": {"name": "Dzanyip\u00e9", "place": "village"}}, {"type": "node", "id": 8946654882, "lat": 7.2871187, "lon": 0.6306306, "tags": {"name": "Old Ayoma", "place": "village"}}, {"type": "node", "id": 8946685826, "lat": 7.3339602, "lon": 0.5888175, "tags": {"name": "Lekanti", "place": "village"}}, {"type": "node", "id": 8946856577, "lat": 7.3284666, "lon": 0.6443545, "tags": {"name": "Buem Odumase", "place": "village"}}, {"type": "node", "id": 8946876414, "lat": 7.3026651, "lon": 0.6359971, "tags": {"name": "Baglo", "place": "village"}}, {"type": "node", "id": 9589512703, "lat": 7.3535362, "lon": 0.8084385, "tags": {"name": "Obo", "place": "village"}}, {"type": "node", "id": 10250903855, "lat": 7.49464, "lon": 0.7157633, "tags": {"name": "Kouma-konta", "place": "village"}}, {"type": "node", "id": 10255433126, "lat": 7.430785, "lon": 0.6898283, "tags": {"name": "Ouvlawlou", "place": "village"}}, {"type": "node", "id": 10259091021, "lat": 7.5726978, "lon": 0.8539267, "tags": {"name": "Okou", "place": "village"}}, {"type": "node", "id": 10275981541, "lat": 7.2812678, "lon": 0.7807749, "tags": {"name": "Woeve", "place": "village"}}, {"type": "node", "id": 10285227149, "lat": 7.4389833, "lon": 0.8570033, "tags": {"name": "Agadi todji 1", "place": "village"}}, {"type": "node", "id": 10941341091, "lat": 7.404963, "lon": 0.643149, "tags": {"name": "Maison du chef de Botokou", "place": "village"}}, {"type": "node", "id": 10941341877, "lat": 7.4195172, "lon": 0.6462181, "tags": {"name": "Gobe - Egbo", "place": "village"}}, {"type": "node", "id": 10941347611, "lat": 7.4352875, "lon": 0.6329549, "tags": {"name": "Itodou - Haut", "place": "village"}}, {"type": "node", "id": 11395758532, "lat": 7.4633689, "lon": 0.711751, "tags": {"name": "Gbadi-N'kougna", "place": "village"}}, {"type": "way", "id": 372762822, "nodes": [3763113112, 3763120770, 3763120772, 3763120762, 3763118055, 3763118054, 3763113110, 3763113111, 3763113115, 3763113112], "tags": {"name": "Zogb\u00e9gan", "place": "village"}}]}