{"version": 0.6, "generator": "Overpass API 0.7.61.5 4133829e", "osm3s": {"timestamp_osm_base": "2024-03-06T11:44:15Z", "copyright": "The data included in this document is from www.openstreetmap.org. The data is made available under ODbL."}, "elements": [{"type": "node", "id": 4187375277, "lat": 3.3753053, "lon": 37.744233, "tags": {"alt_name": "Badha Hurri", "name": "Hurri Hills", "place": "village"}}, {"type": "node", "id": 7578443103, "lat": 3.3987251, "lon": 37.6541458, "tags": {"name": "Olla Katelo Sora", "place": "village"}}, {"type": "node", "id": 7578443104, "lat": 3.4004145, "lon": 37.6537115, "tags": {"name": "Shanqera Phase 2", "place": "village"}}, {"type": "node", "id": 7578559120, "lat": 3.5143425, "lon": 37.4604598, "tags": {"name": "Yaa Sharbana", "place": "village"}}, {"type": "node", "id": 7578559121, "lat": 3.4212993, "lon": 37.6885579, "tags": {"name": "Olla Golo Adi", "place": "village"}}, {"type": "node", "id": 7578721084, "lat": 3.3865651, "lon": 37.7306256, "tags": {"name": "Olla Ali Boru", "place": "village"}}, {"type": "node", "id": 7578792505, "lat": 3.4164372, "lon": 37.7711579, "tags": {"name": "Olla Baqaqa", "place": "village"}}, {"type": "node", "id": 7578792507, "lat": 3.5149342, "lon": 37.787468, "tags": {"name": "Burarata", "place": "village"}}, {"type": "node", "id": 7578792508, "lat": 3.5850685, "lon": 37.8285364, "tags": {"name": "Olla Magutho", "place": "village"}}, {"type": "node", "id": 7921242261, "lat": 3.4987582, "lon": 37.5804369, "tags": {"name": "Kalesa", "place": "village"}}, {"type": "node", "id": 7944474756, "lat": 3.3871414, "lon": 37.7741579, "tags": {"name": "Olla Konchora", "place": "village"}}, {"type": "node", "id": 7969526796, "lat": 3.5957892, "lon": 37.8352003, "tags": {"name": "Gandile", "place": "village"}}]}