{"version": 0.6, "generator": "Overpass API 0.7.61.5 4133829e", "osm3s": {"timestamp_osm_base": "2024-03-06T11:46:14Z", "copyright": "The data included in this document is from www.openstreetmap.org. The data is made available under ODbL."}, "elements": [{"type": "node", "id": 44926841, "lat": 1.9665633, "lon": 35.0833115, "tags": {"is_in": "West pokot,Kenya", "name": "Murua Korg", "place": "village", "wikidata": "Q6939774"}}, {"type": "node", "id": 44927041, "lat": 1.9666481, "lon": 35.0832696, "tags": {"is_in": "West pokot,Kenya", "name": "Morukorg", "place": "village"}}, {"type": "node", "id": 44930570, "lat": 1.9833, "lon": 35.05, "tags": {"is_in": "West pokot,Kenya", "name": "Lossom", "place": "village", "wikidata": "Q6683769"}}, {"type": "node", "id": 44930908, "lat": 1.9666, "lon": 35.1166, "tags": {"is_in": "West pokot,Kenya", "name": "Kukurna", "place": "village", "wikidata": "Q6442605"}}, {"type": "node", "id": 44930938, "lat": 1.7833, "lon": 35.05, "tags": {"created_by": "JOSM", "is_in": "West pokot,Kenya", "name": "Kunyao", "place": "village"}}, {"type": "node", "id": 44997111, "lat": 2.010622, "lon": 35.210553, "tags": {"is_in": "West pokot,Kenya", "name": "Kasei", "place": "village", "wikidata": "Q6374097"}}, {"type": "node", "id": 44997273, "lat": 1.9666, "lon": 35.1333, "tags": {"is_in": "West pokot,Kenya", "name": "Kamnunguuawa", "place": "village", "wikidata": "Q6358899"}}, {"type": "node", "id": 44997517, "lat": 1.9666, "lon": 35.1333, "tags": {"created_by": "JOSM", "is_in": "West pokot,Kenya", "name": "Kamunguuawa", "place": "village"}}, {"type": "node", "id": 45006423, "lat": 1.9666132, "lon": 35.0833596, "tags": {"is_in": "West pokot,Kenya", "name": "Burgich", "place": "village", "wikidata": "Q4998650"}}, {"type": "node", "id": 1783454472, "lat": 1.9493636, "lon": 35.2361801, "tags": {"name": "Korokough Road", "place": "village"}}, {"type": "node", "id": 2145024184, "lat": 1.8489493, "lon": 35.0403733, "tags": {"place": "village"}}, {"type": "node", "id": 2229117497, "lat": 1.766667, "lon": 34.85, "tags": {"GNS:dsg_code": "PPL", "GNS:dsg_string": "populated place", "GNS:id": "-1729366", "fixme": "no population estimate available, defaulted to village", "is_in:country": "Uganda", "name": "Kotabok", "place": "village", "source": "GNS"}}, {"type": "node", "id": 2229117502, "lat": 1.95, "lon": 34.9, "tags": {"GNS:dsg_code": "PPL", "GNS:dsg_string": "populated place", "GNS:id": "-1730723", "fixme": "no population estimate available, defaulted to village", "is_in:country": "Uganda", "name": "Kotulel", "place": "village", "source": "GNS"}}, {"type": "node", "id": 2229124780, "lat": 1.6, "lon": 34.85, "tags": {"GNS:dsg_code": "PPL", "GNS:dsg_string": "populated place", "GNS:id": "-1734600", "fixme": "no population estimate available, defaulted to village", "is_in:country": "Uganda", "name": "Paripari", "place": "village", "source": "GNS"}}, {"type": "node", "id": 4000176308, "lat": 1.953842, "lon": 34.9457755, "tags": {"name": "Amudat", "place": "town", "wikidata": "Q4748920", "wikipedia": "en:Amudat"}}, {"type": "node", "id": 10201985600, "lat": 1.951802, "lon": 34.9220471, "tags": {"is_in:country_code": "UG", "name": "Tingas", "place": "village", "source": "Ubos 2014"}}, {"type": "node", "id": 10201985601, "lat": 2.0080819, "lon": 34.9426484, "tags": {"is_in:country_code": "UG", "name": "Ngongosowon", "place": "village", "source": "Ubos 2014"}}, {"type": "node", "id": 10201985602, "lat": 1.9355593, "lon": 34.9688682, "tags": {"is_in:country_code": "UG", "name": "Natera A", "place": "village", "source": "Ubos 2014"}}, {"type": "node", "id": 10201985603, "lat": 1.9562487, "lon": 34.969812, "tags": {"is_in:country_code": "UG", "name": "Naremit", "place": "village", "source": "Ubos 2014"}}, {"type": "node", "id": 10201985604, "lat": 1.9947244, "lon": 34.9628566, "tags": {"is_in:country_code": "UG", "name": "Mogongwo", "place": "village", "source": "Ubos 2014"}}, {"type": "node", "id": 10201985605, "lat": 1.9464644, "lon": 34.9649127, "tags": {"is_in:country_code": "UG", "name": "Lochengenge", "place": "village", "source": "Ubos 2014"}}, {"type": "node", "id": 10201985606, "lat": 1.9591364, "lon": 34.9446257, "tags": {"is_in:country_code": "UG", "name": "Loburin", "place": "village", "source": "Ubos 2014"}}, {"type": "node", "id": 10201985607, "lat": 1.948407, "lon": 34.9564817, "tags": {"is_in:country_code": "UG", "name": "Kongoror", "place": "village", "source": "Ubos 2014"}}, {"type": "node", "id": 10201985608, "lat": 1.9547357, "lon": 34.9916537, "tags": {"is_in:country_code": "UG", "name": "Kapanyirit", "place": "village", "source": "Ubos 2014"}}, {"type": "node", "id": 10201985609, "lat": 1.9948454, "lon": 34.976304, "tags": {"is_in:country_code": "UG", "name": "Kanaroyon", "place": "village", "source": "Ubos 2014"}}, {"type": "node", "id": 10201985610, "lat": 1.9762068, "lon": 34.9180263, "tags": {"is_in:country_code": "UG", "name": "Cheporoyo", "place": "village", "source": "Ubos 2014"}}, {"type": "node", "id": 10201985611, "lat": 1.9631295, "lon": 34.8687996, "tags": {"is_in:country_code": "UG", "name": "Chemakang", "place": "village", "source": "Ubos 2014"}}, {"type": "node", "id": 10201985612, "lat": 1.9424157, "lon": 34.9709626, "tags": {"is_in:country_code": "UG", "name": "Apamuto", "place": "village", "source": "Ubos 2014"}}, {"type": "node", "id": 10201985613, "lat": 2.0014487, "lon": 34.897131, "tags": {"is_in:country_code": "UG", "name": "Angarap", "place": "village", "source": "Ubos 2014"}}, {"type": "node", "id": 10201985614, "lat": 1.9928672, "lon": 34.9330669, "tags": {"is_in:country_code": "UG", "name": "Akukus", "place": "village", "source": "Ubos 2014"}}, {"type": "node", "id": 10201985615, "lat": 1.9718965, "lon": 34.9791501, "tags": {"is_in:country_code": "UG", "name": "Agwalinga", "place": "village", "source": "Ubos 2014"}}, {"type": "node", "id": 10201985616, "lat": 1.7365849, "lon": 34.8861682, "tags": {"is_in:country_code": "UG", "name": "Sikotai", "place": "village", "source": "Ubos 2014"}}, {"type": "node", "id": 10202037301, "lat": 1.9528834, "lon": 34.9387013, "tags": {"name": "Ward A", "place": "village", "source": "Ubos 2014"}}, {"type": "node", "id": 10202037302, "lat": 1.9560489, "lon": 34.9476433, "tags": {"is_in:country_code": "UG", "name": "Kapetawoi", "place": "village", "source": "Ubos 2014"}}, {"type": "node", "id": 10202037303, "lat": 1.9396268, "lon": 34.9600598, "tags": {"is_in:country": "UG", "name": "Lochengenge", "place": "village", "source": "Ubos 2014"}}, {"type": "node", "id": 10202037304, "lat": 1.9372579, "lon": 34.9510703, "tags": {"is_in:country_code": "UG", "name": "Kukayim", "place": "village", "source": "Ubos 2014"}}, {"type": "node", "id": 10202037305, "lat": 1.930139, "lon": 34.959478, "tags": {"is_in:country_code": "UG", "name": "Chepurchoch", "place": "village", "source": "Ubos 2014"}}, {"type": "node", "id": 10202037306, "lat": 1.944793, "lon": 34.9432773, "tags": {"name": "Senior Quarters Cell", "place": "village", "source": "Ubos 2014"}}, {"type": "node", "id": 10202037307, "lat": 1.9503007, "lon": 34.9479286, "tags": {"is_in:country_code": "UG", "name": "Amudat Ward B", "place": "village", "source": "Ubos 2014"}}, {"type": "node", "id": 10202037308, "lat": 1.9639919, "lon": 34.9585641, "tags": {"is_in:country_code": "UG", "name": "Kamkon", "place": "village", "source": "Ubos 2014"}}, {"type": "node", "id": 10202037309, "lat": 1.9634723, "lon": 34.9464089, "tags": {"is_in:country_code": "UG", "name": "Kakres", "place": "village", "source": "Ubos 2014"}}, {"type": "node", "id": 10202037310, "lat": 1.9664648, "lon": 34.9395769, "tags": {"is_in:country_code": "UG", "name": "Jumbe", "place": "village", "source": "Ubos 2014"}}, {"type": "node", "id": 10202037311, "lat": 1.9642659, "lon": 34.9322481, "tags": {"is_in:country": "UG", "name": "Chemotongot", "place": "village", "source": "Ubos 2014"}}, {"type": "node", "id": 10202037312, "lat": 1.9701368, "lon": 34.9433711, "tags": {"is_in:country_code": "UG", "name": "Akumoit", "place": "village", "source": "Ubos 2014"}}, {"type": "node", "id": 10202079829, "lat": 1.626456, "lon": 34.9573347, "tags": {"is_in:country_code": "UG", "name": "Natirira", "place": "village", "source": "Ubos 2014"}}, {"type": "node", "id": 10202079830, "lat": 1.672908, "lon": 34.9862798, "tags": {"is_in:country_code": "UG", "name": "Morupus", "place": "village", "source": "Ubos 2014"}}, {"type": "node", "id": 10202079831, "lat": 1.6245583, "lon": 34.9267825, "tags": {"is_in:country_code": "UG", "name": "Lolepon", "place": "village", "source": "Ubos 2014"}}, {"type": "node", "id": 10202079832, "lat": 1.6269222, "lon": 34.8068308, "tags": {"is_in:country_code": "UG", "name": "Lochawa", "place": "village", "source": "Ubos 2014"}}, {"type": "node", "id": 10202079833, "lat": 1.6313342, "lon": 34.8313533, "tags": {"is_in:country_code": "UG", "name": "Kidikdik", "place": "village", "source": "Ubos 2014"}}, {"type": "node", "id": 10202079834, "lat": 1.6239934, "lon": 34.9056201, "tags": {"is_in:country_code": "UG", "name": "Katopoten", "place": "village", "source": "Ubos 2014"}}, {"type": "node", "id": 10202079835, "lat": 1.6763653, "lon": 34.9576318, "tags": {"is_in:country_code": "UG", "name": "Kangulet", "place": "village", "source": "Ubos 2014"}}, {"type": "node", "id": 10202079836, "lat": 1.6405066, "lon": 34.905422, "tags": {"is_in:country_code": "UG", "name": "Kangonoi", "place": "village", "source": "Ubos 2014"}}, {"type": "node", "id": 10202079837, "lat": 1.6286125, "lon": 34.8792536, "tags": {"is_in:country_code": "UG", "name": "Kalokotyo", "place": "village", "source": "Ubos 2014"}}, {"type": "node", "id": 10202079838, "lat": 1.6654688, "lon": 34.9134752, "tags": {"is_in:country_code": "UG", "name": "Kalawani", "place": "village", "source": "Ubos 2014"}}, {"type": "node", "id": 10202079839, "lat": 1.6283641, "lon": 34.8540176, "tags": {"is_in:country_code": "UG", "name": "Kaichom", "place": "village", "source": "Ubos 2014"}}, {"type": "node", "id": 10202079840, "lat": 1.6906304, "lon": 34.8528654, "tags": {"is_in:country_code": "UG", "name": "Hunting Area", "place": "village", "source": "Ubos 2014"}}, {"type": "node", "id": 10202079842, "lat": 1.6159411, "lon": 34.9448311, "tags": {"is_in:country_code": "UG", "name": "Compas", "place": "village", "source": "Ubos 2014"}}, {"type": "node", "id": 10202079843, "lat": 1.6562328, "lon": 34.8679718, "tags": {"is_in:country_code": "UG", "name": "Cheptuyis", "place": "village", "source": "Ubos 2014"}}, {"type": "node", "id": 10202079844, "lat": 1.6502696, "lon": 34.9542184, "tags": {"is_in:country_code": "UG", "name": "Cheptapoyo", "place": "village", "source": "Ubos 2014"}}, {"type": "node", "id": 10202079874, "lat": 1.5956603, "lon": 34.8194382, "tags": {"is_in:country_code": "UG", "name": "Namodo", "place": "village", "source": "Ubos 2014"}}, {"type": "node", "id": 10202079879, "lat": 1.5942903, "lon": 34.8411821, "tags": {"is_in:country_code": "UG", "name": "Moromodo", "place": "village", "source": "Ubos 2014"}}, {"type": "node", "id": 10202079887, "lat": 1.6063342, "lon": 34.892797, "tags": {"is_in:country_code": "UG", "name": "Cherelachkochua", "place": "village", "source": "Ubos 2014"}}, {"type": "node", "id": 10202089417, "lat": 1.7451824, "lon": 34.905184, "tags": {"is_in:country_code": "UG", "name": "Pillil", "place": "village", "source": "Ubos 2014"}}, {"type": "node", "id": 10202089418, "lat": 1.8111845, "lon": 34.8937519, "tags": {"is_in:country_code": "UG", "name": "Nakwangamoru", "place": "village", "source": "Ubos 2014"}}, {"type": "node", "id": 10202089419, "lat": 1.7752071, "lon": 34.9609865, "tags": {"is_in:country_code": "UG", "name": "Motany", "place": "village", "source": "Ubos 2014"}}, {"type": "node", "id": 10202089420, "lat": 1.7076623, "lon": 34.9816124, "tags": {"is_in:country_code": "UG", "name": "Morupus", "place": "village", "source": "Ubos 2014"}}, {"type": "node", "id": 10202089421, "lat": 1.7539889, "lon": 34.8457184, "tags": {"is_in:country_code": "UG", "name": "Losuko", "place": "village", "source": "Ubos 2014"}}, {"type": "node", "id": 10202089422, "lat": 1.8268154, "lon": 34.8749305, "tags": {"is_in:country_code": "UG", "name": "Lorwairwai", "place": "village", "source": "Ubos 2014"}}, {"type": "node", "id": 10202089423, "lat": 1.774243, "lon": 34.8793696, "tags": {"is_in:country_code": "UG", "name": "Lomunyan", "place": "village", "source": "Ubos 2014"}}, {"type": "node", "id": 10202089424, "lat": 1.7472435, "lon": 34.9739745, "tags": {"is_in:country_code": "UG", "name": "Lomasinik", "place": "village", "source": "Ubos 2014"}}, {"type": "node", "id": 10202089425, "lat": 1.7418098, "lon": 34.848248, "tags": {"is_in:country_code": "UG", "name": "Kongodowa", "place": "village", "source": "Ubos 2014"}}, {"type": "node", "id": 10202089426, "lat": 1.7934783, "lon": 34.8820731, "tags": {"is_in:country_code": "UG", "name": "Koketai", "place": "village", "source": "Ubos 2014"}}, {"type": "node", "id": 10202089427, "lat": 1.6912059, "lon": 34.9350027, "tags": {"is_in:country_code": "UG", "name": "Kodukoi", "place": "village", "source": "Ubos 2014"}}, {"type": "node", "id": 10202089428, "lat": 1.7471295, "lon": 34.8759866, "tags": {"is_in:country_code": "UG", "name": "Kodiaka", "place": "village", "source": "Ubos 2014"}}, {"type": "node", "id": 10202089429, "lat": 1.764223, "lon": 34.8641892, "tags": {"is_in:country_code": "UG", "name": "Katabok", "place": "village", "source": "Ubos 2014"}}, {"type": "node", "id": 10202089430, "lat": 1.7298971, "lon": 34.8663089, "tags": {"is_in:country_code": "UG", "name": "Kapetawoi", "place": "village", "source": "Ubos 2014"}}, {"type": "node", "id": 10202089431, "lat": 1.7134587, "lon": 34.9077178, "tags": {"is_in:country_code": "UG", "name": "Kanaroyon", "place": "village", "source": "Ubos 2014"}}, {"type": "node", "id": 10202089432, "lat": 1.7538356, "lon": 34.8236413, "tags": {"is_in:country_code": "UG", "name": "Kadekele", "place": "village", "source": "Ubos 2014"}}, {"type": "node", "id": 10202089433, "lat": 1.7091468, "lon": 34.9586985, "tags": {"is_in:country_code": "UG", "name": "Dingding", "place": "village", "source": "Ubos 2014"}}, {"type": "node", "id": 10202089434, "lat": 1.7233106, "lon": 34.9385024, "tags": {"is_in:country_code": "UG", "name": "Akuryon", "place": "village", "source": "Ubos 2014"}}, {"type": "node", "id": 10202089435, "lat": 1.8270239, "lon": 34.9150947, "tags": {"is_in:country_code": "UG", "name": "Akore", "place": "village", "source": "Ubos 2014"}}, {"type": "node", "id": 10202089436, "lat": 1.9403269, "lon": 34.9869424, "tags": {"is_in:country_code": "UG", "name": "Natera B", "place": "village", "source": "Ubos 2014"}}, {"type": "node", "id": 10202089437, "lat": 1.9102995, "lon": 34.941438, "tags": {"is_in:country_code": "UG", "name": "Napao", "place": "village", "source": "Ubos 2014"}}, {"type": "node", "id": 10202089438, "lat": 1.8746359, "lon": 34.9823183, "tags": {"is_in:country_code": "UG", "name": "Nakasepan", "place": "village", "source": "Ubos 2014"}}, {"type": "node", "id": 10202089439, "lat": 1.9099307, "lon": 34.9681952, "tags": {"is_in:country_code": "UG", "name": "Nabokotom", "place": "village", "source": "Ubos 2014"}}, {"type": "node", "id": 10202089440, "lat": 1.8712772, "lon": 35.0097461, "tags": {"is_in:country_code": "UG", "name": "Motui", "place": "village", "source": "Ubos 2014"}}, {"type": "node", "id": 10202089441, "lat": 1.9310381, "lon": 34.9949665, "tags": {"is_in:country_code": "UG", "name": "Lokodi", "place": "village", "source": "Ubos 2014"}}, {"type": "node", "id": 10202089442, "lat": 1.9002375, "lon": 35.0121725, "tags": {"is_in:country_code": "UG", "name": "Katakar", "place": "village", "source": "Ubos 2014"}}, {"type": "node", "id": 10202089443, "lat": 1.8867074, "lon": 35.0220304, "tags": {"is_in:country_code": "UG", "name": "Kasikiroi", "place": "village", "source": "Ubos 2014"}}, {"type": "node", "id": 10202089444, "lat": 1.8632597, "lon": 34.9954447, "tags": {"is_in:country_code": "UG", "name": "Kasiasa", "place": "village", "source": "Ubos 2014"}}, {"type": "node", "id": 10202089445, "lat": 1.9106689, "lon": 34.9852676, "tags": {"is_in:country_code": "UG", "name": "Kariwo", "place": "village", "source": "Ubos 2014"}}, {"type": "node", "id": 10202089446, "lat": 1.8721957, "lon": 34.9491912, "tags": {"is_in:country_code": "UG", "name": "Kakadama", "place": "village", "source": "Ubos 2014"}}, {"type": "node", "id": 10202089447, "lat": 1.8525876, "lon": 34.9066456, "tags": {"is_in:country_code": "UG", "name": "Grazing Area", "place": "village", "source": "Ubos 2014"}}, {"type": "node", "id": 10202089448, "lat": 1.8858488, "lon": 34.9710844, "tags": {"is_in:country_code": "UG", "name": "Chepoy", "place": "village", "source": "Ubos 2014"}}, {"type": "node", "id": 10202089449, "lat": 1.9115009, "lon": 35.0035801, "tags": {"is_in:country_code": "UG", "name": "Chepongos", "place": "village", "source": "Ubos 2014"}}, {"type": "node", "id": 10202089450, "lat": 1.8444801, "lon": 34.9750966, "tags": {"is_in:country_code": "UG", "name": "Chemotong", "place": "village", "source": "Ubos 2014"}}, {"type": "node", "id": 10202089451, "lat": 1.8552492, "lon": 34.9914485, "tags": {"is_in:country_code": "UG", "name": "Alakas", "place": "village", "source": "Ubos 2014"}}, {"type": "node", "id": 10202089452, "lat": 1.8019199, "lon": 34.9956305, "tags": {"is_in:country_code": "UG", "name": "Akoule", "place": "village", "source": "Ubos 2014"}}]}