{"version": 0.6, "generator": "Overpass API 0.7.61.5 4133829e", "osm3s": {"timestamp_osm_base": "2024-03-05T15:06:00Z", "copyright": "The data included in this document is from www.openstreetmap.org. The data is made available under ODbL."}, "elements": [{"type": "node", "id": 53403855, "lat": 55.6646637, "lon": 13.3461589, "tags": {"name": "Dalby", "place": "village", "ref:se:pts:postort": "DALBY", "ref:se:scb": "3380", "wikipedia": "sv:Dalby"}}, {"type": "node", "id": 55082387, "lat": 55.7171687, "lon": 13.3474337, "tags": {"name": "S\u00f6dra Sandby", "place": "village", "ref:se:pts:postort": "S\u00d6DRA SANDBY", "ref:se:scb": "3732", "wikidata": "Q569800"}}, {"type": "node", "id": 55083550, "lat": 55.6334996, "lon": 13.4925649, "tags": {"name": "Veber\u00f6d", "place": "village", "ref:se:pts:postort": "VEBER\u00d6D", "ref:se:scb": "3776", "wikidata": "Q2007115", "wikipedia": "sv:Veber\u00f6d"}}, {"type": "node", "id": 55083755, "lat": 55.6350867, "lon": 13.7031168, "tags": {"name": "Sj\u00f6bo", "name:ru": "\u0428\u0451\u0431\u0443", "name:sv": "Sj\u00f6bo", "place": "town", "population": "6724", "ref:se:pts:postort": "SJ\u00d6BO", "ref:se:scb": "3664", "wikidata": "Q1019556", "wikipedia": "sv:Sj\u00f6bo"}}, {"type": "node", "id": 122697276, "lat": 55.8374959, "lon": 13.3036265, "tags": {"name": "Esl\u00f6v", "name:lt": "Esliovas", "name:ru": "\u042d\u0441\u043b\u0451\u0432", "name:sv": "Esl\u00f6v", "place": "town", "population": "17748", "ref:se:pts:postort": "ESL\u00d6V", "ref:se:scb": "3396", "wikidata": "Q79237", "wikipedia": "sv:Esl\u00f6v"}}, {"type": "node", "id": 122703072, "lat": 55.9332915, "lon": 13.5453834, "tags": {"name": "H\u00f6\u00f6r", "name:ru": "\u0425\u0451\u044d\u0440", "name:sv": "H\u00f6\u00f6r", "place": "town", "population": "7865", "ref:se:pts:postort": "H\u00d6\u00d6R", "ref:se:scb": "3504", "wikidata": "Q765434", "wikipedia": "sv:H\u00f6\u00f6r"}}, {"type": "node", "id": 122723398, "lat": 55.8540136, "lon": 13.6633304, "tags": {"name": "H\u00f6rby", "name:ru": "\u0425\u0451\u0440\u0431\u044e", "name:sv": "H\u00f6rby", "place": "town", "population": "7085", "ref:se:pts:postort": "H\u00d6RBY", "ref:se:scb": "3500", "wikidata": "Q1644288", "wikipedia": "sv:H\u00f6rby"}}, {"type": "node", "id": 222031579, "lat": 55.7038234, "lon": 13.3443187}, {"type": "node", "id": 244428534, "lat": 55.8527778, "lon": 13.4143702, "tags": {"name": "Kungshult", "place": "village", "ref:se:scb": "3540", "wikidata": "Q3353644", "wikipedia": "sv:Kungshult"}}, {"type": "node", "id": 246825046, "lat": 55.6193265, "lon": 13.3264644, "tags": {"name": "Esarp", "place": "hamlet"}}, {"type": "node", "id": 246825104, "lat": 55.6118225, "lon": 13.3499364, "tags": {"created_by": "JOSM", "name": "\u00c4spet", "place": "hamlet"}}, {"type": "node", "id": 248813566, "lat": 55.6466919, "lon": 13.3478935, "tags": {"name": "Lunnarp", "place": "hamlet"}}, {"type": "node", "id": 248813569, "lat": 55.7628398, "lon": 13.3134194, "tags": {"created_by": "JOSM", "name": "Getinge", "place": "hamlet"}}, {"type": "node", "id": 248813571, "lat": 55.7394719, "lon": 13.2760837, "tags": {"name": "\u00d6stra Odarsl\u00f6v", "place": "hamlet"}}, {"type": "node", "id": 249390600, "lat": 55.8545091, "lon": 13.5016301, "tags": {"name": "Klinta", "place": "hamlet"}}, {"type": "node", "id": 251058904, "lat": 55.9340622, "lon": 13.9751411, "tags": {"name": "Tollarp", "place": "village", "ref:se:pts:postort": "TOLLARP", "ref:se:scb": "3108"}}, {"type": "node", "id": 253415251, "lat": 55.7513355, "lon": 13.2488867, "tags": {"name": "Odarsl\u00f6v", "place": "hamlet"}}, {"type": "node", "id": 254327753, "lat": 55.6966745, "lon": 13.3330206, "tags": {"name": "R\u00f6gle", "place": "hamlet"}}, {"type": "node", "id": 254512080, "lat": 55.7344035, "lon": 13.400962, "tags": {"name": "Skatteberga", "place": "hamlet"}}, {"type": "node", "id": 254513151, "lat": 55.6973711, "lon": 13.430486, "tags": {"name": "Tved\u00f6ra", "place": "hamlet"}}, {"type": "node", "id": 254741656, "lat": 55.6883546, "lon": 13.6385213, "tags": {"name": "\u00d6ved", "place": "hamlet"}}, {"type": "node", "id": 254748540, "lat": 55.6567369, "lon": 13.6332722, "tags": {"name": "Bj\u00f6rka", "place": "hamlet"}}, {"type": "node", "id": 254750033, "lat": 55.6745988, "lon": 13.5511272, "tags": {"name": "Vomb", "place": "hamlet"}}, {"type": "node", "id": 254757058, "lat": 55.7176112, "lon": 13.5256101, "tags": {"name": "Harl\u00f6sa", "place": "village", "ref:se:pts:postort": "HARL\u00d6SA", "ref:se:scb": "3440"}}, {"type": "node", "id": 255141330, "lat": 55.8126245, "lon": 13.2865577, "tags": {"name": "Ellinge", "place": "hamlet"}}, {"type": "node", "id": 255148934, "lat": 55.7641957, "lon": 13.3224966, "tags": {"name": "G\u00e5rdst\u00e5nga", "place": "village", "ref:se:scb": "3436"}}, {"type": "node", "id": 255564608, "lat": 55.7054083, "lon": 13.3438429}, {"type": "node", "id": 255564610, "lat": 55.7051613, "lon": 13.345519}, {"type": "node", "id": 255564611, "lat": 55.705189, "lon": 13.3462125}, {"type": "node", "id": 255564612, "lat": 55.7053731, "lon": 13.3469043}, {"type": "node", "id": 255898916, "lat": 55.7534529, "lon": 13.3685462, "tags": {"name": "Flyinge", "place": "village", "ref:se:pts:postort": "FLYINGE", "ref:se:scb": "3400"}}, {"type": "node", "id": 255900566, "lat": 55.7466168, "lon": 13.4002799, "tags": {"name": "Holmby", "place": "hamlet"}}, {"type": "node", "id": 255902785, "lat": 55.7756778, "lon": 13.5149085, "tags": {"name": "L\u00f6ber\u00f6d", "place": "village", "ref:se:pts:postort": "L\u00d6BER\u00d6D", "ref:se:scb": "3588"}}, {"type": "node", "id": 255906869, "lat": 55.7730233, "lon": 13.6410873, "tags": {"name": "V\u00e4sterstad", "place": "hamlet", "wikidata": "Q1886360", "wikipedia": "sv:V\u00e4sterstad"}}, {"type": "node", "id": 257107556, "lat": 55.5810302, "lon": 13.2559636, "tags": {"name": "Hyby", "place": "hamlet"}}, {"type": "node", "id": 257940421, "lat": 55.8285486, "lon": 13.535959, "tags": {"name": "Fogdarp", "place": "hamlet"}}, {"type": "node", "id": 257940423, "lat": 55.8482104, "lon": 13.6108395, "tags": {"name": "Osbyholm", "place": "village", "ref:se:scb": "3636"}}, {"type": "node", "id": 257947518, "lat": 55.8363623, "lon": 13.6874731, "tags": {"name": "R\u00e5by", "place": "hamlet"}}, {"type": "node", "id": 257947520, "lat": 55.7861166, "lon": 13.8708908, "tags": {"name": "\u00d6nnek\u00f6p", "place": "village", "ref:se:scb": "3834"}}, {"type": "node", "id": 258585517, "lat": 55.6491407, "lon": 13.2680066, "tags": {"name": "Kyrkheddinge", "place": "village", "ref:se:scb": "3543"}}, {"type": "node", "id": 258750128, "lat": 55.6612304, "lon": 13.2617034, "tags": {"name": "Stora Bj\u00e4llerup", "place": "hamlet"}}, {"type": "node", "id": 258813400, "lat": 55.5862332, "lon": 13.2897884, "tags": {"alt_name": "Vissmarl\u00f6v", "name": "Vismarl\u00f6v", "place": "hamlet"}}, {"type": "node", "id": 258937425, "lat": 55.9031519, "lon": 13.3938667, "tags": {"name": "Stehag", "place": "village", "ref:se:pts:postort": "STEHAG", "ref:se:scb": "3700"}}, {"type": "node", "id": 258940210, "lat": 55.94569, "lon": 13.3737998, "tags": {"name": "Stockam\u00f6llan", "place": "village", "ref:se:pts:postort": "STOCKAM\u00d6LLAN", "ref:se:scb": "3704"}}, {"type": "node", "id": 258940249, "lat": 55.9625291, "lon": 13.3317811, "tags": {"name": "Billinge", "place": "village", "ref:se:pts:postort": "BILLINGE", "ref:se:scb": "3348"}}, {"type": "node", "id": 258940300, "lat": 56.0006984, "lon": 13.2912181, "tags": {"name": "R\u00f6st\u00e5nga", "place": "village", "ref:se:pts:postort": "R\u00d6ST\u00c5NGA", "ref:se:scb": "3660", "wikidata": "Q729410", "wikipedia": "sv:R\u00f6st\u00e5nga"}}, {"type": "node", "id": 259684783, "lat": 55.8150731, "lon": 13.4129243, "tags": {"created_by": "JOSM", "name": "\u00d6stra Str\u00f6", "place": "hamlet"}}, {"type": "node", "id": 259862684, "lat": 55.8015929, "lon": 13.3789881, "tags": {"name": "Skarhult", "place": "hamlet"}}, {"type": "node", "id": 259867492, "lat": 55.8967761, "lon": 13.4155139, "tags": {"created_by": "JOSM", "name": "Stehags kyrkby", "place": "hamlet"}}, {"type": "node", "id": 261201969, "lat": 55.6128939, "lon": 13.7751337, "tags": {"name": "Anklam", "place": "hamlet"}}, {"type": "node", "id": 262174325, "lat": 55.5841581, "lon": 13.5990807, "tags": {"name": "Blentarp", "place": "village", "ref:se:pts:postort": "BLENTARP", "ref:se:scb": "3364"}}, {"type": "node", "id": 268866130, "lat": 55.9114482, "lon": 13.4888516, "tags": {"name": "Orman\u00e4s och Stanstorp", "place": "village", "ref:se:scb": "3634"}}, {"type": "node", "id": 268875460, "lat": 55.9312076, "lon": 13.4571813, "tags": {"name": "H\u00e4nninge", "place": "hamlet", "wikidata": "Q33109988", "wikipedia": "sv:H\u00e4nninge"}}, {"type": "node", "id": 268875462, "lat": 55.9479766, "lon": 13.4519283, "tags": {"name": "Munkarp", "place": "hamlet"}}, {"type": "node", "id": 268944308, "lat": 55.6840181, "lon": 13.8391542, "tags": {"name": "Klasar\u00f6d", "place": "hamlet"}}, {"type": "node", "id": 268944336, "lat": 55.7054425, "lon": 13.7900582, "tags": {"name": "Vollsj\u00f6", "place": "village", "ref:se:pts:postort": "VOLLSJ\u00d6", "ref:se:scb": "3792"}}, {"type": "node", "id": 268945283, "lat": 55.720405, "lon": 13.8002225, "tags": {"name": "Fr\u00e4nninge", "place": "hamlet"}}, {"type": "node", "id": 268946926, "lat": 55.7231071, "lon": 13.689776, "tags": {"name": "Bj\u00e4rsj\u00f6lag\u00e5rd", "place": "village", "ref:se:scb": "3360"}}, {"type": "node", "id": 269791601, "lat": 55.6239494, "lon": 13.3662054, "tags": {"created_by": "JOSM", "name": "\u00c4ttarp", "place": "hamlet"}}, {"type": "node", "id": 269791603, "lat": 55.644908, "lon": 13.4073413, "tags": {"name": "Bj\u00f6rnstorp", "place": "hamlet"}}, {"type": "node", "id": 269803459, "lat": 55.6127311, "lon": 13.4052316, "tags": {"created_by": "JOSM", "name": "G\u00f6del\u00f6v", "place": "hamlet"}}, {"type": "node", "id": 270033600, "lat": 55.8863893, "lon": 13.3162527, "tags": {"name": "Bosarp", "place": "hamlet"}}, {"type": "node", "id": 270390721, "lat": 55.6249376, "lon": 13.3194795, "tags": {"name": "Alberta", "place": "hamlet", "population": "4"}}, {"type": "node", "id": 272808449, "lat": 55.9626568, "lon": 13.2496622, "tags": {"name": "Ask", "place": "hamlet"}}, {"type": "node", "id": 274982851, "lat": 55.8568362, "lon": 13.2746704, "tags": {"name": "\u00d6stra Asmundtorp", "place": "hamlet"}}, {"type": "node", "id": 278735033, "lat": 55.6082885, "lon": 13.588774, "tags": {"name": "Everl\u00f6v", "place": "hamlet"}}, {"type": "node", "id": 278742600, "lat": 55.6166049, "lon": 13.6534134, "tags": {"created_by": "JOSM", "name": "Ilstorp", "place": "hamlet"}}, {"type": "node", "id": 278952974, "lat": 55.9378279, "lon": 13.3669691, "tags": {"name": "Mickelborg", "place": "hamlet"}}, {"type": "node", "id": 279070211, "lat": 55.7112157, "lon": 13.7282456, "tags": {"name": "\u00d6stra K\u00e4rrstorp", "place": "hamlet"}}, {"type": "node", "id": 280076984, "lat": 55.8373458, "lon": 13.6244068, "tags": {"created_by": "JOSM", "name": "Lyby", "place": "hamlet"}}, {"type": "node", "id": 280076985, "lat": 55.8228151, "lon": 13.6011019, "tags": {"created_by": "JOSM", "name": "Norrto", "place": "hamlet"}}, {"type": "node", "id": 281722087, "lat": 55.9999833, "lon": 13.6350456, "tags": {"name": "Tj\u00f6rnarp", "place": "village", "ref:se:pts:postort": "TJ\u00d6RNARP", "ref:se:scb": "3748"}}, {"type": "node", "id": 282864977, "lat": 55.7360314, "lon": 13.8457084, "tags": {"name": "Vallarum", "place": "hamlet"}}, {"type": "node", "id": 282869171, "lat": 55.786741, "lon": 13.8390239, "tags": {"name": "L\u00e5ngar\u00f6d", "place": "hamlet"}}, {"type": "node", "id": 282922823, "lat": 55.5819198, "lon": 13.3357167, "tags": {"name": "Assartorp", "place": "hamlet"}}, {"type": "node", "id": 283136787, "lat": 55.8065753, "lon": 13.4736109, "tags": {"name": "Rolsberga", "place": "hamlet"}}, {"type": "node", "id": 283136789, "lat": 55.8181221, "lon": 13.481072, "tags": {"name": "Gudmuntorp", "place": "hamlet"}}, {"type": "node", "id": 287230427, "lat": 55.8964345, "lon": 13.3191409, "tags": {"created_by": "JOSM", "name": "\u00d6sl\u00f6v", "place": "hamlet"}}, {"type": "node", "id": 292717844, "lat": 55.8719285, "lon": 13.4937224, "tags": {"loc_name": "Gamla Boo", "name": "Gamla Bo", "place": "hamlet"}}, {"type": "node", "id": 292726460, "lat": 55.9092473, "lon": 13.5517344, "tags": {"name": "S\u00e4tofta", "place": "village", "ref:se:scb": "3728"}}, {"type": "node", "id": 292735720, "lat": 55.9632965, "lon": 13.5414369, "tags": {"name": "Jularp", "place": "hamlet"}}, {"type": "node", "id": 295001481, "lat": 55.838666, "lon": 13.4941583, "tags": {"name": "Snoger\u00f6d", "place": "hamlet"}}, {"type": "node", "id": 297564759, "lat": 55.8734832, "lon": 13.8629665, "tags": {"alt_name": "Kilhult", "name": "Killhult", "place": "hamlet", "wikidata": "Q2324478", "wikipedia": "sv:Kilhult och Svensk\u00f6p"}}, {"type": "node", "id": 297564915, "lat": 55.9279941, "lon": 13.9609704, "tags": {"name": "V\u00e4stra Vram", "place": "hamlet"}}, {"type": "node", "id": 297565005, "lat": 55.9882263, "lon": 13.9901282, "tags": {"name": "Tr\u00e4ne", "place": "hamlet"}}, {"type": "node", "id": 300085735, "lat": 55.7359287, "lon": 13.4424129, "tags": {"name": "Hammarlunda", "place": "hamlet"}}, {"type": "node", "id": 312095610, "lat": 55.6451331, "lon": 13.3835322, "tags": {"name": "\u00d6nnesl\u00f6v", "place": "hamlet"}}, {"type": "node", "id": 315850013, "lat": 55.9809084, "lon": 13.4435909, "tags": {"name": "Hallar\u00f6d", "place": "hamlet", "ref:se:pts:postort": "HALLAR\u00d6D"}}, {"type": "node", "id": 333125066, "lat": 55.9499041, "lon": 13.3901342, "tags": {"name": "Uggleskrik", "place": "hamlet"}}, {"type": "node", "id": 333795398, "lat": 55.6092345, "lon": 13.6175821, "tags": {"name": "Kumlatofta", "place": "hamlet"}}, {"type": "node", "id": 369388439, "lat": 55.9330726, "lon": 13.8237564, "tags": {"name": "Linder\u00f6d", "place": "village", "ref:se:pts:postort": "LINDER\u00d6D", "ref:se:scb": "2988"}}, {"type": "node", "id": 369407165, "lat": 55.9955128, "lon": 13.819168, "tags": {"name": "Rickarum", "place": "hamlet"}}, {"type": "node", "id": 380550999, "lat": 55.6204104, "lon": 13.5043197, "tags": {"name": "Idala", "place": "village", "ref:se:scb": "3506"}}, {"type": "node", "id": 388714188, "lat": 55.5850316, "lon": 13.6735972, "tags": {"name": "S\u00f6vde", "place": "village", "ref:se:pts:postort": "S\u00d6VDE", "ref:se:scb": "3738"}}, {"type": "node", "id": 417096966, "lat": 55.8403682, "lon": 13.9682705, "tags": {"name": "Huar\u00f6d", "place": "village", "ref:se:pts:postort": "HUAR\u00d6D", "ref:se:scb": "2924"}}, {"type": "node", "id": 435771374, "lat": 55.5814106, "lon": 13.8347627, "tags": {"name": "R\u00f6ddinge", "place": "hamlet"}}, {"type": "node", "id": 454151506, "lat": 55.682837, "lon": 13.71795, "tags": {"name": "Brandstad", "place": "hamlet"}}, {"type": "node", "id": 472664507, "lat": 55.7322438, "lon": 14.000699, "tags": {"name": "Bertilstorp", "place": "hamlet"}}, {"type": "node", "id": 472664508, "lat": 55.7674845, "lon": 14.0006603, "tags": {"name": "Agusa", "place": "hamlet"}}, {"type": "node", "id": 497344090, "lat": 55.97046, "lon": 13.7489553, "tags": {"name": "Ankhult", "place": "hamlet"}}, {"type": "node", "id": 503668821, "lat": 55.8466566, "lon": 13.8711601, "tags": {"name": "Harphult", "place": "hamlet"}}, {"type": "node", "id": 605080334, "lat": 55.7947993, "lon": 13.5625766, "tags": {"name": "H\u00f6gser\u00f6d", "place": "hamlet"}}, {"type": "node", "id": 667015519, "lat": 55.9036126, "lon": 13.6048953, "tags": {"name": "Ludvigsborg", "place": "village", "ref:se:pts:postort": "LUDVIGSBORG", "ref:se:scb": "3580"}}, {"type": "node", "id": 671353526, "lat": 55.8885691, "lon": 13.5688643, "tags": {"name": "H\u00e4ggen\u00e4s", "place": "hamlet"}}, {"type": "node", "id": 684390472, "lat": 55.9247374, "lon": 13.6704255, "tags": {"name": "S\u00f6dra R\u00f6rum", "place": "hamlet", "website": "https://www.sodrarorum.com/"}}, {"type": "node", "id": 697033818, "lat": 55.9332562, "lon": 13.5673311, "tags": {"name": "Fogdar\u00f6d", "place": "hamlet"}}, {"type": "node", "id": 776346899, "lat": 55.9422706, "lon": 13.591413, "tags": {"name": "Bokehall", "place": "hamlet"}}, {"type": "node", "id": 776346908, "lat": 55.9418019, "lon": 13.583345, "tags": {"name": "Bokeslund", "place": "hamlet"}}, {"type": "node", "id": 787325130, "lat": 55.5971804, "lon": 13.3403583, "tags": {"name": "Lyngby", "place": "hamlet"}}, {"type": "node", "id": 789676178, "lat": 55.9763119, "lon": 13.6822183, "tags": {"name": "Ynglingarum", "place": "hamlet"}}, {"type": "node", "id": 789676186, "lat": 55.9889885, "lon": 13.7062938, "tags": {"name": "H\u00e4glinge", "place": "hamlet"}}, {"type": "node", "id": 794423483, "lat": 55.9147865, "lon": 13.9877433, "tags": {"name": "\u00d6sterv\u00e5ng", "place": "hamlet"}}, {"type": "node", "id": 840531021, "lat": 56.0027525, "lon": 13.524847, "tags": {"name": "Brosl\u00e4tt", "place": "hamlet"}}, {"type": "node", "id": 860212835, "lat": 55.8067137, "lon": 13.463929, "tags": {"name": "B\u00f6stofta", "place": "hamlet"}}, {"type": "node", "id": 878819489, "lat": 55.8896721, "lon": 13.6665469, "tags": {"name": "Mj\u00e4lastr\u00f6", "place": "hamlet"}}, {"type": "node", "id": 878819492, "lat": 55.8778623, "lon": 13.6215036, "tags": {"name": "Fulltofta", "place": "hamlet"}}, {"type": "node", "id": 964741764, "lat": 55.9458005, "lon": 13.4759748, "tags": {"name": "Osarp", "place": "hamlet"}}, {"type": "node", "id": 966610544, "lat": 55.9378933, "lon": 13.4685505, "tags": {"name": "Rovelyckan", "place": "hamlet"}}, {"type": "node", "id": 980541783, "lat": 55.9697186, "lon": 13.457915, "tags": {"name": "\u00d6stra Nyrup", "place": "hamlet"}}, {"type": "node", "id": 982132417, "lat": 55.9427576, "lon": 13.5045486, "tags": {"name": "Maglas\u00e4te by", "place": "hamlet"}}, {"type": "node", "id": 1008023157, "lat": 55.9887103, "lon": 13.6054841, "tags": {"name": "Karlarp", "place": "hamlet"}}, {"type": "node", "id": 1117058048, "lat": 55.7049037, "lon": 13.3440025}, {"type": "node", "id": 1147405079, "lat": 55.7133278, "lon": 13.2964003}, {"type": "node", "id": 1147405082, "lat": 55.7140199, "lon": 13.298407}, {"type": "node", "id": 1147405086, "lat": 55.7139207, "lon": 13.2918394}, {"type": "node", "id": 1147405124, "lat": 55.7131862, "lon": 13.2936283}, {"type": "node", "id": 1147405128, "lat": 55.713739, "lon": 13.2907317}, {"type": "node", "id": 1147405131, "lat": 55.7141747, "lon": 13.2998193}, {"type": "node", "id": 1147405138, "lat": 55.7139146, "lon": 13.2945984}, {"type": "node", "id": 1147405163, "lat": 55.71353, "lon": 13.2993642}, {"type": "node", "id": 1147405165, "lat": 55.7130085, "lon": 13.2912009}, {"type": "node", "id": 1147405168, "lat": 55.7139077, "lon": 13.295425}, {"type": "node", "id": 1148155284, "lat": 55.7029157, "lon": 13.3450968}, {"type": "node", "id": 1148155323, "lat": 55.7029839, "lon": 13.34458}, {"type": "node", "id": 1148155357, "lat": 55.7029639, "lon": 13.3448917}, {"type": "node", "id": 1148155388, "lat": 55.7055144, "lon": 13.3476694}, {"type": "node", "id": 1148155470, "lat": 55.7051527, "lon": 13.3459417}, {"type": "node", "id": 1148155527, "lat": 55.7041066, "lon": 13.3442309}, {"type": "node", "id": 1148155688, "lat": 55.7023437, "lon": 13.3465807}, {"type": "node", "id": 1148171392, "lat": 55.7038145, "lon": 13.3490391}, {"type": "node", "id": 1148171394, "lat": 55.702314, "lon": 13.3489816}, {"type": "node", "id": 1148171398, "lat": 55.7020546, "lon": 13.3486979}, {"type": "node", "id": 1148171405, "lat": 55.7043022, "lon": 13.3497569}, {"type": "node", "id": 1148171408, "lat": 55.7030896, "lon": 13.3458596}, {"type": "node", "id": 1148171409, "lat": 55.7051166, "lon": 13.3474523}, {"type": "node", "id": 1148171410, "lat": 55.7030602, "lon": 13.3457283}, {"type": "node", "id": 1148171411, "lat": 55.7039807, "lon": 13.3462071}, {"type": "node", "id": 1148171418, "lat": 55.7031671, "lon": 13.3454986}, {"type": "node", "id": 1148171421, "lat": 55.7043146, "lon": 13.3453833}, {"type": "node", "id": 1148171424, "lat": 55.7018822, "lon": 13.3476374}, {"type": "node", "id": 1148171425, "lat": 55.7050614, "lon": 13.3461475}, {"type": "node", "id": 1148171427, "lat": 55.7040415, "lon": 13.3483739}, {"type": "node", "id": 1148171430, "lat": 55.704274, "lon": 13.348626}, {"type": "node", "id": 1234601895, "lat": 55.9317995, "lon": 13.6997252, "tags": {"name": "Speletorp", "place": "hamlet"}}, {"type": "node", "id": 1234601920, "lat": 55.9195358, "lon": 13.7326027, "tags": {"name": "Gunnarp", "place": "hamlet"}}, {"type": "node", "id": 1234601949, "lat": 55.9342503, "lon": 13.7151007, "tags": {"name": "Ekastorp", "place": "hamlet"}}, {"type": "node", "id": 1240673011, "lat": 55.952711, "lon": 13.6766854, "tags": {"name": "Trulstorp", "place": "hamlet"}}, {"type": "node", "id": 1484525703, "lat": 55.8644279, "lon": 13.7300551, "tags": {"name": "\u00c4spinge", "place": "hamlet"}}, {"type": "node", "id": 1506894143, "lat": 55.713596, "lon": 13.2993278}, {"type": "node", "id": 1506894170, "lat": 55.7137959, "lon": 13.2991923}, {"type": "node", "id": 1506894175, "lat": 55.7138653, "lon": 13.2999213}, {"type": "node", "id": 1622010740, "lat": 55.7019079, "lon": 13.3484759}, {"type": "node", "id": 1622010765, "lat": 55.7018557, "lon": 13.3482361}, {"type": "node", "id": 1622010778, "lat": 55.7018194, "lon": 13.3480339}, {"type": "node", "id": 1622010782, "lat": 55.7020117, "lon": 13.3486676}, {"type": "node", "id": 1628300205, "lat": 55.591988, "lon": 13.6376485, "tags": {"name": "Karups sommarby", "note": "Also known as Karups Nyg\u00e5rd", "place": "village", "population": "388", "population:date": "2015", "ref:se:scb": "2952"}}, {"type": "node", "id": 1628300209, "lat": 55.5908735, "lon": 13.6566541, "tags": {"name": "S\u00f6vde skogsby", "note": "Also known as S\u00f6vde sommarby", "place": "hamlet", "population": "84", "population:date": "2010"}}, {"type": "node", "id": 1701553542, "lat": 55.6057241, "lon": 13.305063, "tags": {"name": "Kongsmarken", "place": "hamlet"}}, {"type": "node", "id": 1722299999, "lat": 55.5922844, "lon": 13.4954534, "tags": {"name": "D\u00f6rr\u00f6d", "place": "hamlet"}}, {"type": "node", "id": 1756526915, "lat": 55.7722779, "lon": 13.7903046, "tags": {"name": "Bj\u00e4lkhult", "place": "hamlet"}}, {"type": "node", "id": 1756526928, "lat": 55.7658904, "lon": 13.7217116, "tags": {"name": "Oderup", "place": "hamlet"}}, {"type": "node", "id": 1756526929, "lat": 55.7762827, "lon": 13.7815133, "tags": {"name": "Tollstorp", "place": "hamlet"}}, {"type": "node", "id": 1756529812, "lat": 55.8006688, "lon": 13.7297017, "tags": {"name": "\u00d6stra Sallerup", "place": "hamlet", "wikidata": "Q10728396", "wikipedia": "sv:\u00d6stra_Sallerup"}}, {"type": "node", "id": 1762985724, "lat": 55.7382323, "lon": 13.9254011, "tags": {"name": "Illstorp", "place": "hamlet"}}, {"type": "node", "id": 1762985725, "lat": 55.7042127, "lon": 14.0104937, "tags": {"name": "Ludar\u00f6d", "place": "hamlet"}}, {"type": "node", "id": 1763675187, "lat": 55.76662, "lon": 13.2557216, "tags": {"name": "Svenstorp", "place": "hamlet"}}, {"type": "node", "id": 1853933874, "lat": 55.6978392, "lon": 13.2949919, "tags": {"name": "Hardeberga", "place": "hamlet"}}, {"type": "node", "id": 1860013305, "lat": 55.6815059, "lon": 13.3173095, "tags": {"name": "Sj\u00f6storp", "place": "hamlet"}}, {"type": "node", "id": 1860013306, "lat": 55.6910449, "lon": 13.3213741, "tags": {"name": "Tygelsj\u00f6", "place": "hamlet"}}, {"type": "node", "id": 1927268230, "lat": 55.725518, "lon": 13.4604106, "tags": {"name": "Revingeby", "place": "village", "ref:se:scb": "3648", "wikidata": "Q2033591", "wikipedia": "sv:Revingeby"}}, {"type": "node", "id": 1953340924, "lat": 55.8767924, "lon": 13.2479326, "tags": {"name": "V\u00e4stra Str\u00f6", "place": "hamlet", "wikidata": "Q942468", "wikipedia": "sv:V\u00e4stra Str\u00f6"}}, {"type": "node", "id": 1990913627, "lat": 55.6737791, "lon": 13.4079257, "tags": {"name": "Borelund", "place": "hamlet"}}, {"type": "node", "id": 1990913631, "lat": 55.6789765, "lon": 13.4184657, "tags": {"name": "Torna H\u00e4llestad", "place": "village", "ref:se:pts:postort": "TORNA-H\u00c4LLESTAD", "ref:se:scb": "3480", "wikidata": "Q1018437"}}, {"type": "node", "id": 2001805951, "lat": 55.7025372, "lon": 13.3469006}, {"type": "node", "id": 2001805965, "lat": 55.7025484, "lon": 13.3482433}, {"type": "node", "id": 2001806026, "lat": 55.7027845, "lon": 13.3462331}, {"type": "node", "id": 2001806037, "lat": 55.7028557, "lon": 13.3473576}, {"type": "node", "id": 2001806043, "lat": 55.7029031, "lon": 13.3462}, {"type": "node", "id": 2001806051, "lat": 55.7029789, "lon": 13.3447109}, {"type": "node", "id": 2001806064, "lat": 55.7030048, "lon": 13.3459745}, {"type": "node", "id": 2003075950, "lat": 55.7399204, "lon": 13.3507247, "tags": {"name": "Flyingeby", "place": "hamlet", "wikidata": "Q1889191", "wikipedia": "sv:Flyingeby"}}, {"type": "node", "id": 2010635881, "lat": 55.6737484, "lon": 13.7430736, "tags": {"name": "Klamby", "place": "hamlet"}}, {"type": "node", "id": 2010639994, "lat": 55.6670529, "lon": 13.8827518, "tags": {"name": "Heingetorp", "place": "hamlet"}}, {"type": "node", "id": 2010639998, "lat": 55.6597361, "lon": 13.8277363, "tags": {"name": "N\u00e4sby", "place": "hamlet"}}, {"type": "node", "id": 2010645225, "lat": 55.6420831, "lon": 13.8213657, "tags": {"name": "Eggelstad", "place": "hamlet"}}, {"type": "node", "id": 2010647580, "lat": 55.6727071, "lon": 13.8801372, "tags": {"name": "Heinge", "place": "hamlet"}}, {"type": "node", "id": 2016704914, "lat": 55.6891423, "lon": 13.8543309, "tags": {"name": "Bj\u00f6rker\u00f6d", "place": "hamlet"}}, {"type": "node", "id": 2016746493, "lat": 55.7555778, "lon": 13.7715851, "tags": {"name": "Starrarp", "place": "hamlet"}}, {"type": "node", "id": 2016798641, "lat": 55.7964467, "lon": 13.8066263, "tags": {"name": "Henset", "place": "hamlet"}}, {"type": "node", "id": 2016798642, "lat": 55.8031709, "lon": 13.7931049, "tags": {"name": "K\u00f6ller\u00f6d", "place": "hamlet"}}, {"type": "node", "id": 2016800643, "lat": 55.7949638, "lon": 13.9919595, "tags": {"name": "Rebbetuar\u00f6d", "place": "hamlet"}}, {"type": "node", "id": 2019661112, "lat": 55.8037866, "lon": 13.7483813, "tags": {"name": "P\u00e4rup", "place": "hamlet"}}, {"type": "node", "id": 2019668535, "lat": 55.8065141, "lon": 13.863908, "tags": {"name": "Ingemanstorp", "place": "hamlet"}}, {"type": "node", "id": 2019711958, "lat": 55.8134844, "lon": 13.7798798, "tags": {"name": "Bessinge", "place": "hamlet"}}, {"type": "node", "id": 2019718221, "lat": 55.8118744, "lon": 13.8758998, "tags": {"alt_name": "Buus", "name": "Bus", "place": "hamlet"}}, {"type": "node", "id": 2019727279, "lat": 55.831778, "lon": 13.8530415, "tags": {"name": "B\u00f6nhult", "place": "hamlet"}}, {"type": "node", "id": 2019727292, "lat": 55.8657837, "lon": 13.8723215, "tags": {"alt_name": "Elmhult", "name": "\u00c4lmhult", "place": "hamlet"}}, {"type": "node", "id": 2019731469, "lat": 55.819103, "lon": 13.73417, "tags": {"name": "Grankarp", "place": "hamlet"}}, {"type": "node", "id": 2019740417, "lat": 55.8324247, "lon": 13.7247349, "tags": {"name": "Kyrkhult", "place": "hamlet"}}, {"type": "node", "id": 2019740420, "lat": 55.8282391, "lon": 13.7407864, "tags": {"name": "Venar\u00f6d", "place": "hamlet"}}, {"type": "node", "id": 2019749528, "lat": 55.8520894, "lon": 13.9403224, "tags": {"name": "Stensma", "place": "hamlet"}}, {"type": "node", "id": 2019785574, "lat": 55.8869136, "lon": 13.7719635, "tags": {"name": "Satserup", "place": "hamlet"}}, {"type": "node", "id": 2022189136, "lat": 55.7528766, "lon": 13.536588, "tags": {"name": "Gummarp", "place": "hamlet"}}, {"type": "node", "id": 2022218343, "lat": 55.7582807, "lon": 13.478881, "tags": {"name": "Utter\u00f6d", "place": "hamlet"}}, {"type": "node", "id": 2022266491, "lat": 55.7771534, "lon": 13.5577915, "tags": {"name": "Arup", "place": "hamlet"}}, {"type": "node", "id": 2022273486, "lat": 55.7979364, "lon": 13.6145062, "tags": {"name": "Sebbarp", "place": "hamlet"}}, {"type": "node", "id": 2022293041, "lat": 55.8099759, "lon": 13.5920182, "tags": {"name": "S\u00f6derto", "place": "hamlet"}}, {"type": "node", "id": 2031269391, "lat": 55.8015904, "lon": 13.3233989, "tags": {"name": "Borlunda", "place": "hamlet"}}, {"type": "node", "id": 2033492815, "lat": 55.9368074, "lon": 13.381922, "tags": {"name": "Hasslebro", "place": "hamlet"}}, {"type": "node", "id": 2035266425, "lat": 55.8650709, "lon": 13.4895092, "tags": {"name": "Ekeborg", "place": "hamlet"}}, {"type": "node", "id": 2035444675, "lat": 55.8685175, "lon": 13.6864992, "tags": {"name": "Slagtofta", "place": "hamlet"}}, {"type": "node", "id": 2104742824, "lat": 55.5837224, "lon": 13.9646729, "tags": {"name": "Ever\u00f6d", "place": "hamlet"}}, {"type": "node", "id": 2106260820, "lat": 55.7179385, "lon": 13.9214438, "tags": {"name": "Sillar\u00f6d", "place": "hamlet"}}, {"type": "node", "id": 2122640768, "lat": 55.6522808, "lon": 13.8919613, "tags": {"name": "L\u00f6vestad", "place": "village", "ref:se:pts:postort": "L\u00d6VESTAD", "ref:se:scb": "3600"}}, {"type": "node", "id": 2139285789, "lat": 56.0085872, "lon": 13.3008079, "tags": {"name": "Kolema", "place": "hamlet"}}, {"type": "node", "id": 2142182258, "lat": 55.9535521, "lon": 13.8475792, "tags": {"name": "Liarum", "place": "hamlet"}}, {"type": "node", "id": 2142182293, "lat": 55.9786408, "lon": 13.8017493, "tags": {"name": "\u00c4sphult", "place": "hamlet"}}, {"type": "node", "id": 2143314291, "lat": 55.9964075, "lon": 13.8838848, "tags": {"name": "Djurr\u00f6d", "place": "hamlet", "wikidata": "Q2215014"}}, {"type": "node", "id": 2160066015, "lat": 55.6095732, "lon": 13.9189757, "tags": {"name": "\u00c4sper\u00f6d", "place": "village", "ref:se:pts:postort": "\u00c4SPER\u00d6D", "ref:se:scb": "3816"}}, {"type": "node", "id": 2160069920, "lat": 55.6215376, "lon": 13.8585218, "tags": {"name": "Vanstad", "place": "village"}}, {"type": "node", "id": 2167982066, "lat": 55.6448999, "lon": 14.0100308, "tags": {"name": "Fr\u00f6rum", "place": "hamlet"}}, {"type": "node", "id": 2235056010, "lat": 55.5995193, "lon": 13.3995293, "tags": {"name": "Genarp", "place": "village", "population": "2892", "ref:se:pts:postort": "GENARP", "ref:se:scb": "3416", "wikidata": "Q277849"}}, {"type": "node", "id": 2235056012, "lat": 55.6140474, "lon": 13.9937371, "tags": {"name": "Sk\u00e5ne-Tran\u00e5s", "place": "hamlet", "ref:se:pts:postort": "SK\u00c5NE-TRAN\u00c5S"}}, {"type": "node", "id": 2262384538, "lat": 55.5921156, "lon": 13.3206547, "tags": {"name": "H\u00e4ssleberga", "place": "hamlet"}}, {"type": "node", "id": 2278252439, "lat": 55.7303801, "lon": 13.4793207, "tags": {"name": "Hunneberga", "place": "hamlet"}}, {"type": "node", "id": 2278252440, "lat": 55.751583, "lon": 13.4610549, "tags": {"name": "Slogstorp", "place": "hamlet"}}, {"type": "node", "id": 2282320162, "lat": 55.5830329, "lon": 13.7828234, "tags": {"name": "Eriksdal", "place": "hamlet"}}, {"type": "node", "id": 2286960728, "lat": 55.6321128, "lon": 13.6563786, "tags": {"name": "Sj\u00f6bo sommarby och Svansj\u00f6 sommarby", "place": "village", "ref:se:scb": "3714"}}, {"type": "node", "id": 2286963554, "lat": 55.7581841, "lon": 13.690381, "tags": {"name": "\u00d6straby", "place": "village", "ref:se:scb": "3836"}}, {"type": "node", "id": 2286968450, "lat": 55.9091784, "lon": 13.5680553, "tags": {"name": "Ljungstorp och J\u00e4gersbo", "place": "village", "ref:se:scb": "3574"}}, {"type": "node", "id": 2291825594, "lat": 55.7960077, "lon": 13.438365, "tags": {"name": "Hurva", "place": "village", "population": "350", "ref:se:scb": "3472"}}, {"type": "node", "id": 2292952553, "lat": 55.6386854, "lon": 13.7742967, "tags": {"name": "Tol\u00e5nga", "place": "hamlet"}}, {"type": "node", "id": 2328115507, "lat": 55.9445639, "lon": 13.7231206, "tags": {"name": "Hagstad", "place": "hamlet"}}, {"type": "node", "id": 2334479898, "lat": 55.7635382, "lon": 13.2683908, "tags": {"name": "Igel\u00f6sa", "place": "hamlet"}}, {"type": "node", "id": 2455037512, "lat": 55.7272739, "lon": 13.3859938, "tags": {"name": "Ekeberga", "place": "hamlet"}}, {"type": "node", "id": 2455045044, "lat": 55.68516, "lon": 13.4973971, "tags": {"name": "Silv\u00e5kra", "place": "hamlet"}}, {"type": "node", "id": 2460548435, "lat": 55.6582691, "lon": 13.4981681, "tags": {"name": "\u00d6stra Tvet", "place": "hamlet"}}, {"type": "node", "id": 2461497869, "lat": 55.6409892, "lon": 13.3543765, "tags": {"name": "Bonderup", "place": "hamlet"}}, {"type": "node", "id": 2461559036, "lat": 55.6456568, "lon": 13.4681649, "tags": {"name": "Sk\u00e4lb\u00e4ck", "place": "hamlet"}}, {"type": "node", "id": 2496936785, "lat": 55.8078828, "lon": 13.3471444, "tags": {"alt_name": "Br\u00f6nnesl\u00f6v", "name": "Skarhults station", "place": "hamlet"}}, {"type": "node", "id": 2503570038, "lat": 55.5859247, "lon": 13.3557151, "tags": {"name": "Lyngby sl\u00e4tter", "place": "hamlet"}}, {"type": "node", "id": 2716517267, "lat": 55.8297815, "lon": 13.278354, "tags": {"name": "V\u00e4stra Sallerup", "place": "hamlet"}}, {"type": "node", "id": 2716596546, "lat": 55.7592157, "lon": 13.5940143, "tags": {"name": "Asker\u00f6d", "place": "hamlet"}}, {"type": "node", "id": 2737070729, "lat": 55.8255239, "lon": 13.3379967, "tags": {"name": "Gryby", "place": "hamlet"}}, {"type": "node", "id": 2739004451, "lat": 55.8601601, "lon": 13.2580601, "tags": {"name": "Gullarp", "place": "hamlet"}}, {"type": "node", "id": 2741488758, "lat": 55.8647727, "lon": 13.3042998, "tags": {"name": "Stabbarp", "place": "hamlet"}}, {"type": "node", "id": 2751384107, "lat": 55.7735535, "lon": 13.3887719, "tags": {"name": "Rosl\u00f6v", "place": "hamlet"}}, {"type": "node", "id": 2778350339, "lat": 55.8991178, "lon": 13.3743447, "tags": {"name": "K\u00e4rrstorp", "place": "hamlet"}}, {"type": "node", "id": 2778955588, "lat": 55.9105214, "lon": 13.436562, "tags": {"name": "Sj\u00f6holmen", "place": "hamlet", "wikidata": "Q10669444", "wikipedia": "sv:Sj\u00f6holmen"}}, {"type": "node", "id": 2791403959, "lat": 55.9608117, "lon": 13.6396879, "tags": {"name": "Sj\u00f6berga", "place": "hamlet"}}, {"type": "node", "id": 2809754398, "lat": 55.7707399, "lon": 13.5956292, "tags": {"name": "Kvarnhem", "place": "hamlet"}}, {"type": "node", "id": 2986698112, "lat": 55.7199798, "lon": 13.7373173, "tags": {"name": "Alestad", "place": "hamlet"}}, {"type": "node", "id": 3052642542, "lat": 55.853997, "lon": 13.6878992, "tags": {"name": "Ekeboda", "place": "hamlet"}}, {"type": "node", "id": 3056848115, "lat": 55.817601, "lon": 13.8172272, "tags": {"name": "Guddastad", "place": "hamlet"}}, {"type": "node", "id": 3056848116, "lat": 55.8237938, "lon": 13.761225, "tags": {"name": "Huggelseke", "place": "hamlet"}}, {"type": "node", "id": 3056848117, "lat": 55.8484738, "lon": 13.5795608, "tags": {"alt_name": "H\u00f6rby Ringsj\u00f6strand", "name": "H\u00f6rby-Ringsj\u00f6strand", "place": "hamlet"}}, {"type": "node", "id": 3056848118, "lat": 55.7920231, "lon": 13.678786, "tags": {"name": "Korsholm", "place": "hamlet", "wikidata": "Q2060244", "wikipedia": "sv:Korsholm, H\u00f6rby kommun"}}, {"type": "node", "id": 3056848119, "lat": 55.8396583, "lon": 13.7078082, "tags": {"name": "K\u00f6inge", "place": "hamlet"}}, {"type": "node", "id": 3056848120, "lat": 55.8317554, "lon": 13.6445863, "tags": {"name": "Raby", "place": "hamlet"}}, {"type": "node", "id": 3056848122, "lat": 55.7944134, "lon": 13.6937191, "tags": {"name": "Ulatofta", "place": "hamlet"}}, {"type": "node", "id": 3168652551, "lat": 55.6080163, "lon": 13.5584085, "tags": {"name": "\u00d6starp", "place": "hamlet"}}, {"type": "node", "id": 3330883716, "lat": 55.6156195, "lon": 13.5338895, "tags": {"name": "Hemmestorps bj\u00f6rke", "place": "hamlet"}}, {"type": "node", "id": 3330883717, "lat": 55.6172997, "lon": 13.5658241, "tags": {"name": "Hemmestorps eke", "place": "hamlet"}}, {"type": "node", "id": 3330883718, "lat": 55.6151629, "lon": 13.5464252, "tags": {"name": "Hemmestorps fure", "place": "hamlet"}}, {"type": "node", "id": 3330883719, "lat": 55.6170641, "lon": 13.5269834, "tags": {"name": "Humlamaden", "place": "hamlet"}}, {"type": "node", "id": 3330883720, "lat": 55.622484, "lon": 13.5745134, "tags": {"name": "Ljungbacken", "place": "hamlet"}}, {"type": "node", "id": 3330883721, "lat": 55.6032056, "lon": 13.5386853, "tags": {"name": "S\u00f6derg\u00e5rd", "place": "hamlet"}}, {"type": "node", "id": 3351362096, "lat": 55.5798755, "lon": 13.3126654, "tags": {"name": "Sanddalen", "place": "hamlet"}}, {"type": "node", "id": 3526958266, "lat": 55.7371457, "lon": 13.7047811, "tags": {"name": "R\u00f6n\u00e5s", "place": "hamlet"}}, {"type": "node", "id": 3658494962, "lat": 55.8108626, "lon": 14.0120077, "tags": {"name": "Sl\u00e4tteberga", "place": "hamlet"}}, {"type": "node", "id": 3658494963, "lat": 55.8248253, "lon": 13.9838026, "tags": {"name": "Veb\u00e4ck", "place": "hamlet"}}, {"type": "node", "id": 3786561292, "lat": 55.8908452, "lon": 13.865595, "tags": {"name": "Svensk\u00f6p", "place": "hamlet"}}, {"type": "node", "id": 3806328556, "lat": 55.5929762, "lon": 13.5570886, "tags": {"name": "Stora R\u00f6dde", "place": "hamlet"}}, {"type": "node", "id": 3825910061, "lat": 55.6376694, "lon": 13.5925169, "tags": {"name": "Klosters\u00e5gen", "place": "hamlet"}}, {"type": "node", "id": 3825938457, "lat": 55.7102349, "lon": 13.6545561, "tags": {"name": "Skartofta", "place": "hamlet"}}, {"type": "node", "id": 3825938458, "lat": 55.6707969, "lon": 13.6237003, "tags": {"name": "Vressel", "place": "hamlet"}}, {"type": "node", "id": 4011069717, "lat": 55.6949154, "lon": 13.7737507, "tags": {"name": "Vollsj\u00f6 kyrkby", "place": "hamlet"}}, {"type": "node", "id": 4118553989, "lat": 55.6223281, "lon": 13.3145515, "tags": {"name": "S\u00e5nahusen", "place": "hamlet"}}, {"type": "node", "id": 4135767930, "lat": 55.621408, "lon": 13.405993, "tags": {"name": "Bj\u00f6rnstorps torg", "place": "hamlet"}}, {"type": "node", "id": 4441269571, "lat": 55.7006115, "lon": 13.4178854, "tags": {"name": "Abusa", "place": "hamlet"}}, {"type": "node", "id": 4453696809, "lat": 55.997279, "lon": 13.9041411, "tags": {"name": "Horsar\u00f6d", "place": "hamlet"}}, {"type": "node", "id": 4453696818, "lat": 55.996056, "lon": 13.8727176, "tags": {"name": "Sl\u00e4tthult", "place": "hamlet"}}, {"type": "node", "id": 4453696819, "lat": 55.9902804, "lon": 13.9009666, "tags": {"name": "Stenshult", "place": "hamlet"}}, {"type": "node", "id": 4453696825, "lat": 55.9861726, "lon": 13.9430612, "tags": {"name": "Venestad", "place": "hamlet"}}, {"type": "node", "id": 4477901095, "lat": 55.7218104, "lon": 13.7811229, "tags": {"name": "V\u00e4sterv\u00e5ng", "place": "hamlet"}}, {"type": "node", "id": 5645685754, "lat": 55.964794, "lon": 13.8504797, "tags": {"name": "Olarp", "place": "hamlet"}}, {"type": "node", "id": 6132380259, "lat": 55.9247661, "lon": 13.5998833, "tags": {"name": "Afrika", "place": "hamlet"}}, {"type": "node", "id": 6484231678, "lat": 55.9730778, "lon": 13.3296776, "tags": {"name": "Hissbro", "place": "hamlet"}}, {"type": "node", "id": 6813624767, "lat": 55.8455182, "lon": 13.5799598, "tags": {"name": "Osby", "place": "hamlet"}}, {"type": "node", "id": 6813624768, "lat": 55.8420667, "lon": 13.5662269, "tags": {"name": "Tappavitt", "place": "hamlet"}}, {"type": "node", "id": 7201883650, "lat": 55.9474963, "lon": 13.8964933, "tags": {"name": "S\u00e4tar\u00f6d", "place": "hamlet"}}, {"type": "node", "id": 7201919651, "lat": 55.944866, "lon": 13.9477081, "tags": {"name": "Sk\u00e4ttilljunga", "place": "hamlet"}}, {"type": "node", "id": 7202035795, "lat": 55.9515158, "lon": 13.8809519, "tags": {"name": "Ullarp", "place": "hamlet"}}, {"type": "node", "id": 7204630218, "lat": 55.906657, "lon": 13.7889084, "tags": {"name": "Torastorp", "place": "hamlet"}}, {"type": "node", "id": 7204722420, "lat": 55.9127063, "lon": 13.801818, "tags": {"name": "Torastorp", "place": "hamlet"}}, {"type": "node", "id": 7206980344, "lat": 55.8861745, "lon": 13.7426844, "tags": {"name": "Kyleg\u00e5rden", "place": "hamlet"}}, {"type": "node", "id": 7207039989, "lat": 55.8834772, "lon": 13.7632194, "tags": {"name": "Ljungstorp", "place": "hamlet"}}, {"type": "node", "id": 7215387199, "lat": 55.940376, "lon": 13.9357038, "tags": {"name": "Ljungen", "place": "hamlet"}}, {"type": "node", "id": 7215387200, "lat": 55.9366654, "lon": 13.9293471, "tags": {"name": "Skarshult", "place": "hamlet"}}, {"type": "node", "id": 7215387201, "lat": 55.929694, "lon": 13.9386167, "tags": {"name": "Sandhusen", "place": "hamlet"}}, {"type": "node", "id": 7217186877, "lat": 55.9488636, "lon": 13.9932981, "tags": {"name": "Kills\u00e5kra", "place": "hamlet"}}, {"type": "node", "id": 7217227831, "lat": 55.9375345, "lon": 13.9948109, "tags": {"name": "Annelund", "place": "hamlet"}}, {"type": "node", "id": 7217227832, "lat": 55.9384659, "lon": 13.9977291, "tags": {"name": "Nydala", "place": "hamlet"}}, {"type": "node", "id": 7217245347, "lat": 55.9521257, "lon": 13.9982912, "tags": {"name": "Ryalund", "place": "hamlet"}}, {"type": "node", "id": 7217290513, "lat": 55.9684535, "lon": 14.0121368, "tags": {"name": "Tings N\u00f6bbel\u00f6v", "place": "hamlet"}}, {"type": "node", "id": 7253114811, "lat": 55.6588327, "lon": 13.9909601, "tags": {"name": "M\u00e5nslunda", "place": "hamlet"}}, {"type": "node", "id": 7500411881, "lat": 55.789896, "lon": 13.65633, "tags": {"name": "\u00d6stra Ved\u00e5kra", "place": "hamlet"}}, {"type": "node", "id": 7500429743, "lat": 55.9670903, "lon": 13.2802686, "tags": {"name": "Lilla Hjortar\u00f6d", "place": "hamlet"}}, {"type": "node", "id": 7500434395, "lat": 55.9787286, "lon": 13.7681889, "tags": {"name": "Norra P\u00e5rup", "place": "hamlet"}}, {"type": "node", "id": 7500435325, "lat": 55.9798271, "lon": 13.2870442, "tags": {"name": "Lilla Tibbar\u00f6d", "place": "hamlet"}}, {"type": "node", "id": 7500448396, "lat": 55.9806783, "lon": 13.3987311, "tags": {"name": "S\u00f6dra Hultarp", "place": "hamlet"}}, {"type": "node", "id": 7500480868, "lat": 55.5801746, "lon": 13.5002159, "tags": {"name": "Norra P\u00e5hult", "place": "hamlet"}}, {"type": "node", "id": 7500489639, "lat": 55.8582887, "lon": 13.445689, "tags": {"name": "S\u00f6dra Munkarp", "place": "hamlet"}}, {"type": "node", "id": 7500494266, "lat": 55.9493842, "lon": 13.3537319, "tags": {"name": "Gunnar\u00f6ds g\u00e5rd", "place": "hamlet"}}, {"type": "node", "id": 7500507214, "lat": 55.7605167, "lon": 13.9556446, "tags": {"name": "Bj\u00f6rnastad", "place": "hamlet"}}, {"type": "node", "id": 7500508116, "lat": 55.5875712, "lon": 13.5553872, "tags": {"name": "Lilla R\u00f6dde", "place": "hamlet"}}, {"type": "node", "id": 7500542299, "lat": 55.8144349, "lon": 13.6212202, "tags": {"name": "Lilla Lyby", "place": "hamlet"}}, {"type": "node", "id": 7500546358, "lat": 55.9775033, "lon": 13.278013, "tags": {"name": "Stora Hjortar\u00f6d", "place": "hamlet"}}, {"type": "node", "id": 7500550340, "lat": 55.8410512, "lon": 13.4245765, "tags": {"name": "Skarhults Nyg\u00e5rd", "place": "hamlet"}}, {"type": "node", "id": 7500550949, "lat": 55.7957757, "lon": 13.3643833, "tags": {"name": "Skarhults S\u00f6derg\u00e5rd", "place": "hamlet"}}, {"type": "node", "id": 7500583587, "lat": 55.9939403, "lon": 13.3954831, "tags": {"name": "Norra Hultarp", "place": "hamlet"}}, {"type": "node", "id": 7500591685, "lat": 55.60626, "lon": 13.8997129, "tags": {"name": "Stora Asker\u00f6d", "place": "hamlet"}}, {"type": "node", "id": 7500604531, "lat": 55.990972, "lon": 13.2935261, "tags": {"name": "R\u00f6st\u00e5ngam\u00f6lla", "place": "hamlet"}}, {"type": "node", "id": 7500606110, "lat": 55.8137103, "lon": 13.5009455, "tags": {"name": "Orups g\u00e5rd", "place": "hamlet"}}, {"type": "node", "id": 7500676371, "lat": 55.7215406, "lon": 13.7223307, "tags": {"name": "Alestadtorp", "place": "hamlet"}}, {"type": "node", "id": 7500678396, "lat": 55.9663201, "lon": 13.361569, "tags": {"name": "S\u00f6dra Hultser\u00f6d", "place": "hamlet"}}, {"type": "node", "id": 7500680289, "lat": 55.9202883, "lon": 13.8199596, "tags": {"name": "S\u00f6dra P\u00e5rup", "place": "hamlet"}}, {"type": "node", "id": 7500690605, "lat": 55.7618969, "lon": 13.3563344, "tags": {"name": "\u00d6stra G\u00e5rdst\u00e5nga", "place": "hamlet"}}, {"type": "node", "id": 7500697303, "lat": 55.978286, "lon": 13.3633073, "tags": {"name": "Norra Hultser\u00f6d", "place": "hamlet"}}, {"type": "node", "id": 7500705895, "lat": 55.7893791, "lon": 13.6363814, "tags": {"name": "V\u00e4stra Ved\u00e5kra", "place": "hamlet"}}, {"type": "node", "id": 7500718869, "lat": 55.9905841, "lon": 13.7340649, "tags": {"name": "\u00d6stra H\u00e4glinge", "place": "hamlet"}}, {"type": "node", "id": 7500730281, "lat": 55.7891806, "lon": 13.4953495, "tags": {"name": "Mariannelund", "place": "hamlet"}}, {"type": "node", "id": 7500736018, "lat": 55.8524729, "lon": 13.3760946, "tags": {"name": "Stora Kastberga", "place": "hamlet"}}, {"type": "node", "id": 7500739092, "lat": 55.940372, "lon": 13.7839975, "tags": {"name": "Lilla Yller\u00f6d", "place": "hamlet"}}, {"type": "node", "id": 7500742564, "lat": 55.9803488, "lon": 13.3012705, "tags": {"name": "Stora Tibbar\u00f6d", "place": "hamlet"}}, {"type": "node", "id": 7500802323, "lat": 55.5991378, "lon": 13.2906259, "tags": {"name": "Norremark", "place": "hamlet"}}, {"type": "node", "id": 7500807573, "lat": 55.5745258, "lon": 13.3168059, "tags": {"name": "Borup", "place": "hamlet"}}, {"type": "node", "id": 7500822375, "lat": 55.618882, "lon": 13.2977225, "tags": {"name": "\u00d6rup", "place": "hamlet"}}, {"type": "node", "id": 7502091050, "lat": 55.581039, "lon": 13.63222, "tags": {"name": "Blenta", "place": "hamlet"}}, {"type": "node", "id": 7502126681, "lat": 55.582519, "lon": 13.5144956, "tags": {"name": "Tostorp", "place": "hamlet"}}, {"type": "node", "id": 7502339058, "lat": 55.6172292, "lon": 13.9433725, "tags": {"name": "Baggahus", "place": "hamlet"}}, {"type": "node", "id": 7502347695, "lat": 55.6291609, "lon": 14.0144462, "tags": {"name": "Lunda", "place": "hamlet"}}, {"type": "node", "id": 7502559659, "lat": 55.5959517, "lon": 13.8888535, "tags": {"name": "Vanstadskog", "place": "hamlet"}}, {"type": "node", "id": 7502568579, "lat": 55.5985658, "lon": 13.9763621, "tags": {"name": "Lerskogen", "place": "hamlet"}}, {"type": "node", "id": 7502571417, "lat": 55.6389093, "lon": 13.9162733, "tags": {"name": "Henrikstorp", "place": "hamlet"}}, {"type": "node", "id": 7502579238, "lat": 55.580888, "lon": 13.8638721, "tags": {"name": "Jonr\u00f6d", "place": "hamlet"}}, {"type": "node", "id": 7502582766, "lat": 55.6022037, "lon": 13.8216419, "tags": {"name": "Ivarstorp", "place": "hamlet"}}, {"type": "node", "id": 7502586721, "lat": 55.6041814, "lon": 13.6006998, "tags": {"name": "Bl\u00e4dde", "place": "hamlet"}}, {"type": "node", "id": 7502587562, "lat": 55.6044394, "lon": 13.9193036, "tags": {"name": "Bj\u00f6rker\u00f6d", "place": "hamlet"}}, {"type": "node", "id": 7502604798, "lat": 55.6159781, "lon": 13.701663, "tags": {"name": "Spj\u00e4lla", "place": "hamlet"}}, {"type": "node", "id": 7502606852, "lat": 55.6409895, "lon": 13.7529652, "tags": {"name": "Barleja", "place": "hamlet"}}, {"type": "node", "id": 7502609569, "lat": 55.6261681, "lon": 13.7779519, "tags": {"name": "H\u00f6rr", "place": "hamlet"}}, {"type": "node", "id": 7502609808, "lat": 55.5896731, "lon": 13.6110497, "tags": {"name": "Lillev\u00e5ng", "place": "hamlet"}}, {"type": "node", "id": 7502611198, "lat": 55.5973362, "lon": 13.6029557, "tags": {"name": "Karup", "place": "hamlet"}}, {"type": "node", "id": 7502623309, "lat": 55.6465752, "lon": 13.7289678, "tags": {"name": "Lill\u00e5s g\u00e5rd", "place": "hamlet"}}, {"type": "node", "id": 7502639672, "lat": 55.6625068, "lon": 13.7721529, "tags": {"name": "J\u00e4rskog", "place": "hamlet"}}, {"type": "node", "id": 7502644565, "lat": 55.6510142, "lon": 13.7812692, "tags": {"name": "Brog\u00e5rdarna", "place": "hamlet"}}, {"type": "node", "id": 7502650909, "lat": 55.6320288, "lon": 13.7373355, "tags": {"name": "Grimstofta", "place": "hamlet"}}, {"type": "node", "id": 7502657094, "lat": 55.6596207, "lon": 13.7080872, "tags": {"name": "\u00c5sum", "place": "hamlet"}}, {"type": "node", "id": 7502657286, "lat": 55.6516228, "lon": 13.6669503, "tags": {"name": "Omma", "place": "hamlet"}}, {"type": "node", "id": 7502658248, "lat": 55.6491868, "lon": 13.6101714, "tags": {"name": "Brukshusen", "place": "hamlet"}}, {"type": "node", "id": 7502662209, "lat": 55.6493137, "lon": 13.5983754, "tags": {"name": "Bruksg\u00e5rden", "place": "hamlet"}}, {"type": "node", "id": 7502702318, "lat": 55.6389275, "lon": 13.2717171, "tags": {"name": "Flintev\u00e5ng", "place": "hamlet"}}, {"type": "node", "id": 7502709703, "lat": 55.7690946, "lon": 13.2931481, "tags": {"name": "T\u00e5garp", "place": "hamlet"}}, {"type": "node", "id": 7502711303, "lat": 55.6277259, "lon": 13.2746094, "tags": {"name": "Kornheddinge", "place": "hamlet"}}, {"type": "node", "id": 7502724235, "lat": 55.8082186, "lon": 13.266361, "tags": {"name": "N\u00f6bbel\u00f6v", "place": "hamlet"}}, {"type": "node", "id": 7502728447, "lat": 55.6383918, "lon": 13.2914734, "tags": {"name": "Trulstorp", "place": "hamlet"}}, {"type": "node", "id": 7502729224, "lat": 55.7101291, "lon": 13.3703269, "tags": {"name": "Sandby", "place": "hamlet"}}, {"type": "node", "id": 7502734467, "lat": 55.7104886, "lon": 13.3247648, "tags": {"name": "F\u00e5gels\u00e5ng", "place": "hamlet"}}, {"type": "node", "id": 7502741231, "lat": 55.6169034, "lon": 13.3348879, "tags": {"name": "Nya Esarp", "place": "hamlet"}}, {"type": "node", "id": 7502749776, "lat": 55.7116735, "lon": 13.3011227, "tags": {"name": "Sularp", "place": "hamlet"}}, {"type": "node", "id": 7502761787, "lat": 55.6251048, "lon": 13.3878109, "tags": {"name": "Hyllinge", "place": "hamlet"}}, {"type": "node", "id": 7502762215, "lat": 55.6899459, "lon": 13.4224817, "tags": {"name": "Skrivarem\u00f6llan", "place": "hamlet"}}, {"type": "node", "id": 7502766033, "lat": 55.5992849, "lon": 13.3824175, "tags": {"name": "Gr\u00e4ntinge", "place": "hamlet"}}, {"type": "node", "id": 7502775858, "lat": 55.752643, "lon": 13.422342, "tags": {"name": "Holmbytorp", "place": "hamlet"}}, {"type": "node", "id": 7502787007, "lat": 55.7337339, "lon": 13.3216134, "tags": {"name": "Skarnberga", "place": "hamlet"}}, {"type": "node", "id": 7502790921, "lat": 55.7910227, "lon": 13.3827501, "tags": {"name": "Amensg\u00e5rden", "place": "hamlet"}}, {"type": "node", "id": 7502793625, "lat": 55.7421216, "lon": 13.5192399, "tags": {"name": "H\u00e4sslehult", "place": "hamlet"}}, {"type": "node", "id": 7502795270, "lat": 55.717967, "lon": 13.4024077, "tags": {"name": "Sandby mosse", "place": "hamlet"}}, {"type": "node", "id": 7502801549, "lat": 55.6425425, "lon": 13.4317606, "tags": {"name": "Backahusen", "place": "hamlet"}}, {"type": "node", "id": 7502811417, "lat": 55.7520364, "lon": 13.4979742, "tags": {"name": "Lillar\u00f6d", "place": "hamlet"}}, {"type": "node", "id": 7502816393, "lat": 55.6658423, "lon": 13.4347378, "tags": {"name": "Tuvelund", "place": "hamlet"}}, {"type": "node", "id": 7502837607, "lat": 55.7398307, "lon": 13.3975002, "tags": {"name": "\u00c5karp", "place": "hamlet"}}, {"type": "node", "id": 7502846562, "lat": 55.734935, "lon": 13.49062, "tags": {"name": "Idar\u00f6d", "place": "hamlet"}}, {"type": "node", "id": 7502857469, "lat": 55.7309092, "lon": 13.475391, "tags": {"name": "Ekebo", "place": "hamlet"}}, {"type": "node", "id": 7502861440, "lat": 55.8150352, "lon": 13.5160724, "tags": {"name": "Lill\u00f6", "place": "hamlet"}}, {"type": "node", "id": 7502863451, "lat": 55.8075659, "lon": 13.4945438, "tags": {"name": "Hejdeholm", "place": "hamlet"}}, {"type": "node", "id": 7502867822, "lat": 55.7590474, "lon": 13.4646358, "tags": {"name": "Br\u00f6d\u00e5kra", "place": "hamlet"}}, {"type": "node", "id": 7502868447, "lat": 55.6718993, "lon": 13.4757311, "tags": {"name": "Stigs\u00e5kra", "place": "hamlet"}}, {"type": "node", "id": 7502874196, "lat": 55.6718674, "lon": 13.5363065, "tags": {"name": "S\u00f6derg\u00e5rd", "place": "hamlet"}}, {"type": "node", "id": 7502874198, "lat": 55.653721, "lon": 13.4457617, "tags": {"name": "Krutladan", "place": "hamlet"}}, {"type": "node", "id": 7502875644, "lat": 55.6648119, "lon": 13.4898071, "tags": {"name": "Klingvalla", "place": "hamlet"}}, {"type": "node", "id": 7502878502, "lat": 55.6320213, "lon": 13.4688926, "tags": {"name": "Klinten", "place": "hamlet"}}, {"type": "node", "id": 7502884654, "lat": 55.679523, "lon": 13.5342494, "tags": {"name": "Nyg\u00e5rd", "place": "hamlet"}}, {"type": "node", "id": 7502885669, "lat": 55.805851, "lon": 13.5280227, "tags": {"name": "Kyrkhult", "place": "hamlet"}}, {"type": "node", "id": 7502886640, "lat": 55.6555232, "lon": 13.4398253, "tags": {"name": "Vasaholm", "place": "hamlet"}}, {"type": "node", "id": 7502887760, "lat": 55.7908073, "lon": 13.4555068, "tags": {"name": "Hurva f\u00e4lad", "place": "hamlet"}}, {"type": "node", "id": 7502902111, "lat": 55.599532, "lon": 13.4853163, "tags": {"name": "Gr\u00f6nland", "place": "hamlet"}}, {"type": "node", "id": 7502904072, "lat": 55.7621658, "lon": 13.5025097, "tags": {"name": "L\u00f6nshult", "place": "hamlet"}}, {"type": "node", "id": 7502904717, "lat": 55.7654535, "lon": 13.5252761, "tags": {"name": "Boller\u00f6d", "place": "hamlet"}}, {"type": "node", "id": 7502905639, "lat": 55.7834944, "lon": 13.5043547, "tags": {"name": "Satsarp", "place": "hamlet"}}, {"type": "node", "id": 7502908835, "lat": 55.7856942, "lon": 13.5280005, "tags": {"name": "Vier\u00f6d", "place": "hamlet"}}, {"type": "node", "id": 7502909597, "lat": 55.7872053, "lon": 13.5356148, "tags": {"name": "Bingstorp", "place": "hamlet"}}, {"type": "node", "id": 7502912387, "lat": 55.7789561, "lon": 13.467855, "tags": {"name": "S\u00e4teriet", "place": "hamlet"}}, {"type": "node", "id": 7502930839, "lat": 55.7107358, "lon": 13.5511473, "tags": {"name": "Viken", "place": "hamlet"}}, {"type": "node", "id": 7502932996, "lat": 55.6131495, "lon": 13.4834099, "tags": {"name": "Husag\u00e5rd", "place": "hamlet"}}, {"type": "node", "id": 7502958645, "lat": 55.8152039, "lon": 13.6281338, "tags": {"name": "Fridhem", "place": "hamlet"}}, {"type": "node", "id": 7502958773, "lat": 55.7633683, "lon": 13.5595718, "tags": {"name": "Attarp", "place": "hamlet"}}, {"type": "node", "id": 7502962052, "lat": 55.7763699, "lon": 13.5966722, "tags": {"name": "P\u00e5arp", "place": "hamlet"}}, {"type": "node", "id": 7502971881, "lat": 55.7487511, "lon": 13.565585, "tags": {"name": "H\u00f6ghult", "place": "hamlet"}}, {"type": "node", "id": 7502972901, "lat": 55.7768332, "lon": 13.5565467, "tags": {"name": "Kungabacken", "place": "hamlet"}}, {"type": "node", "id": 7502976068, "lat": 55.7549295, "lon": 13.6042158, "tags": {"name": "S\u00e4rsvik", "place": "hamlet"}}, {"type": "node", "id": 7502976113, "lat": 55.6885398, "lon": 13.5406261, "tags": {"name": "Norreg\u00e5rd", "place": "hamlet"}}, {"type": "node", "id": 7502981276, "lat": 55.7079385, "lon": 13.5678507, "tags": {"name": "Hj\u00e4lmar\u00f6d", "place": "hamlet"}}, {"type": "node", "id": 7502986419, "lat": 55.7067414, "lon": 13.6107226, "tags": {"name": "Ryet", "place": "hamlet"}}, {"type": "node", "id": 7502993296, "lat": 55.6993783, "lon": 13.5975912, "tags": {"name": "Svansj\u00f6", "place": "hamlet"}}, {"type": "node", "id": 7502995229, "lat": 55.7710791, "lon": 13.5557161, "tags": {"name": "Mossarpsg\u00e5rd", "place": "hamlet"}}, {"type": "node", "id": 7503001539, "lat": 55.678252, "lon": 13.6556755, "tags": {"name": "Torps g\u00e5rd", "place": "hamlet"}}, {"type": "node", "id": 7503002124, "lat": 55.7438433, "lon": 13.5490759, "tags": {"name": "Ry", "place": "hamlet"}}, {"type": "node", "id": 7503004435, "lat": 55.7671289, "lon": 13.597231, "tags": {"name": "Gummastorp", "place": "hamlet"}}, {"type": "node", "id": 7503008777, "lat": 55.750902, "lon": 13.60686, "tags": {"name": "M\u00e5nar\u00f6d", "place": "hamlet"}}, {"type": "node", "id": 7503008919, "lat": 55.7361063, "lon": 13.6434779, "tags": {"name": "Brunnsl\u00f6v", "place": "hamlet"}}, {"type": "node", "id": 7503020492, "lat": 55.7715238, "lon": 13.6154975, "tags": {"name": "Dala", "place": "hamlet"}}, {"type": "node", "id": 7503022990, "lat": 55.7414599, "lon": 13.5974388, "tags": {"name": "S\u00e4ljer\u00f6d", "place": "hamlet"}}, {"type": "node", "id": 7503038099, "lat": 55.6287794, "lon": 13.5527438, "tags": {"name": "Hemmestorp", "place": "hamlet"}}, {"type": "node", "id": 7503048899, "lat": 55.727217, "lon": 13.6254575, "tags": {"name": "Magnar\u00f6d", "place": "hamlet"}}, {"type": "node", "id": 7503049018, "lat": 55.7245017, "lon": 13.6644522, "tags": {"name": "Tj\u00e4rby", "place": "hamlet"}}, {"type": "node", "id": 7503050445, "lat": 55.8051251, "lon": 13.6357653, "tags": {"name": "\u00c5karp", "place": "hamlet"}}, {"type": "node", "id": 7503050556, "lat": 55.7512323, "lon": 13.6403553, "tags": {"name": "Or\u00e5s", "place": "hamlet"}}, {"type": "node", "id": 7503059838, "lat": 55.8295421, "lon": 13.6587949, "tags": {"name": "He", "place": "hamlet"}}, {"type": "node", "id": 7503063672, "lat": 55.6971218, "lon": 13.6687433, "tags": {"name": "\u00d6vedsg\u00e5rden", "place": "hamlet"}}, {"type": "node", "id": 7503069785, "lat": 55.6739274, "lon": 13.6587174, "tags": {"name": "Torps by", "place": "hamlet"}}, {"type": "node", "id": 7503071877, "lat": 55.8080968, "lon": 13.6691223, "tags": {"name": "\u00c5rr\u00f6d", "place": "hamlet"}}, {"type": "node", "id": 7503072699, "lat": 55.7052407, "lon": 13.6379264, "tags": {"name": "Skartofta Raby", "place": "hamlet"}}, {"type": "node", "id": 7503074190, "lat": 55.8341031, "lon": 13.6596247, "tags": {"name": "R\u00e5byv\u00e5ng", "place": "hamlet"}}, {"type": "node", "id": 7503081809, "lat": 55.7831914, "lon": 13.6432135, "tags": {"name": "H\u00f6g\u00e5s", "place": "hamlet"}}, {"type": "node", "id": 7503091836, "lat": 55.8206589, "lon": 13.6715825, "tags": {"name": "Karlsf\u00e4lt", "place": "hamlet"}}, {"type": "node", "id": 7503103185, "lat": 55.7983905, "lon": 13.6697881, "tags": {"name": "Farboret", "place": "hamlet"}}, {"type": "node", "id": 7503107339, "lat": 55.7812776, "lon": 13.625421, "tags": {"name": "Kulla", "place": "hamlet"}}, {"type": "node", "id": 7503107878, "lat": 55.7446343, "lon": 13.7697657, "tags": {"name": "Skumparp", "place": "hamlet"}}, {"type": "node", "id": 7503108227, "lat": 55.8584343, "lon": 13.7136555, "tags": {"name": "V\u00e4sterv\u00e5ng", "place": "hamlet"}}, {"type": "node", "id": 7503114524, "lat": 55.7539571, "lon": 13.6792841, "tags": {"name": "Bost\u00e4llet", "place": "hamlet"}}, {"type": "node", "id": 7503114551, "lat": 55.6756398, "lon": 13.7833822, "tags": {"name": "Br\u00f6sarp", "place": "hamlet"}}, {"type": "node", "id": 7503116868, "lat": 55.8424847, "lon": 13.7423859, "tags": {"name": "T\u00e5garp", "place": "hamlet"}}, {"type": "node", "id": 7503120566, "lat": 55.703566, "lon": 13.6997944, "tags": {"name": "Elestorp", "place": "hamlet"}}, {"type": "node", "id": 7503123562, "lat": 55.7552407, "lon": 13.8082742, "tags": {"name": "Starrarps ora", "place": "hamlet"}}, {"type": "node", "id": 7503127560, "lat": 55.7477639, "lon": 13.8046691, "tags": {"name": "H\u00e5rderupshult", "place": "hamlet"}}, {"type": "node", "id": 7503133915, "lat": 55.8724142, "lon": 13.708287, "tags": {"name": "Stavr\u00f6d", "place": "hamlet"}}, {"type": "node", "id": 7503135754, "lat": 55.7398223, "lon": 13.7892382, "tags": {"name": "H\u00e5rderup", "place": "hamlet"}}, {"type": "node", "id": 7503136670, "lat": 55.7484161, "lon": 13.7333856, "tags": {"name": "Hj\u00e4r\u00e5s", "place": "hamlet"}}, {"type": "node", "id": 7503136869, "lat": 55.7608433, "lon": 13.7311902, "tags": {"name": "Sniberup", "place": "hamlet"}}, {"type": "node", "id": 7503152781, "lat": 55.8272913, "lon": 13.7399227, "tags": {"name": "Boarp", "place": "hamlet"}}, {"type": "node", "id": 7503160742, "lat": 55.7725982, "lon": 13.6913914, "tags": {"name": "\u00c5sa", "place": "hamlet"}}, {"type": "node", "id": 7503173563, "lat": 55.7365327, "lon": 13.7321297, "tags": {"name": "R\u00f6n\u00e5s", "place": "hamlet"}}, {"type": "node", "id": 7503179880, "lat": 55.6894187, "lon": 13.7030444, "tags": {"name": "Brandstadholm", "place": "hamlet"}}, {"type": "node", "id": 7503181456, "lat": 55.6983613, "lon": 13.7271132, "tags": {"name": "Araskoga", "place": "hamlet"}}, {"type": "node", "id": 7503185741, "lat": 55.7170594, "lon": 13.6994583, "tags": {"name": "Bj\u00e4rr\u00f6d", "place": "hamlet"}}, {"type": "node", "id": 7503197672, "lat": 55.7829072, "lon": 13.7129081, "tags": {"name": "Omsed", "place": "hamlet"}}, {"type": "node", "id": 7503205583, "lat": 55.8531176, "lon": 13.7819316, "tags": {"name": "K\u00f6inge", "place": "hamlet"}}, {"type": "node", "id": 7503207670, "lat": 55.7868216, "lon": 13.7885301, "tags": {"name": "Tattarp", "place": "hamlet"}}, {"type": "node", "id": 7503207995, "lat": 55.7795271, "lon": 13.7058602, "tags": {"name": "Tulls\u00e5kra", "place": "hamlet"}}, {"type": "node", "id": 7503210539, "lat": 55.8174357, "lon": 13.7012511, "tags": {"name": "Romna", "place": "hamlet"}}, {"type": "node", "id": 7503216502, "lat": 55.780602, "lon": 13.7384005, "tags": {"name": "Satsarp", "place": "hamlet"}}, {"type": "node", "id": 7503216968, "lat": 55.8611563, "lon": 13.7879262, "tags": {"name": "Benarp", "place": "hamlet"}}, {"type": "node", "id": 7503216969, "lat": 55.8292602, "lon": 13.7847367, "tags": {"name": "Biskopsboda", "place": "hamlet"}}, {"type": "node", "id": 7503217481, "lat": 55.7132279, "lon": 13.7787915, "tags": {"name": "Tuleslund", "place": "hamlet"}}, {"type": "node", "id": 7503223930, "lat": 55.853125, "lon": 13.7927619, "tags": {"name": "Kvarnberga", "place": "hamlet"}}, {"type": "node", "id": 7503226663, "lat": 55.8641966, "lon": 13.8234342, "tags": {"name": "Timan", "place": "hamlet"}}, {"type": "node", "id": 7503229786, "lat": 55.846332, "lon": 13.8471178, "tags": {"name": "Bylycke", "place": "hamlet"}}, {"type": "node", "id": 7503230176, "lat": 55.8359879, "lon": 13.7690546, "tags": {"name": "Boarp", "place": "hamlet"}}, {"type": "node", "id": 7503233309, "lat": 55.8073675, "lon": 13.8121413, "tags": {"name": "Tormastorp", "place": "hamlet"}}, {"type": "node", "id": 7503234112, "lat": 55.8731164, "lon": 13.789745, "tags": {"name": "R\u00e5set", "place": "hamlet"}}, {"type": "node", "id": 7503237495, "lat": 55.8582912, "lon": 13.8000636, "tags": {"name": "M\u00e5nsk\u00f6p", "place": "hamlet"}}, {"type": "node", "id": 7503243953, "lat": 55.7844818, "lon": 13.8309093, "tags": {"name": "Rugerup", "place": "hamlet"}}, {"type": "node", "id": 7503246923, "lat": 55.8401984, "lon": 13.7877011, "tags": {"name": "H\u00e4rr\u00f6d", "place": "hamlet"}}, {"type": "node", "id": 7503247443, "lat": 55.841754, "lon": 13.7697191, "tags": {"name": "Ny\u00e5kra", "place": "hamlet"}}, {"type": "node", "id": 7503249456, "lat": 55.8203462, "lon": 13.8339521, "tags": {"name": "Ormastorp", "place": "hamlet"}}, {"type": "node", "id": 7503250508, "lat": 55.6845594, "lon": 13.8152351, "tags": {"name": "Klasar\u00f6dg\u00e5rden", "place": "hamlet"}}, {"type": "node", "id": 7503251303, "lat": 55.8688774, "lon": 13.7557889, "tags": {"name": "Gammalstorp", "place": "hamlet"}}, {"type": "node", "id": 7503257155, "lat": 55.7924565, "lon": 13.8678816, "tags": {"name": "\u00d6nnek\u00f6ps v\u00e5ng", "place": "hamlet"}}, {"type": "node", "id": 7503260035, "lat": 55.8026038, "lon": 13.7707818, "tags": {"name": "Gummarp", "place": "hamlet"}}, {"type": "node", "id": 7503270604, "lat": 55.7807944, "lon": 13.8826971, "tags": {"name": "Sk\u00e4pper\u00f6d", "place": "hamlet"}}, {"type": "node", "id": 7503272503, "lat": 55.7664175, "lon": 13.8986181, "tags": {"name": "Hemmenek\u00f6p", "place": "hamlet"}}, {"type": "node", "id": 7503272620, "lat": 55.7839343, "lon": 13.7594378, "tags": {"name": "Killer\u00f6d", "place": "hamlet"}}, {"type": "node", "id": 7503277328, "lat": 55.691078, "lon": 13.8534407, "tags": {"name": "N\u00e4sby", "place": "hamlet"}}, {"type": "node", "id": 7503294794, "lat": 55.7710408, "lon": 13.8598617, "tags": {"name": "Farhult", "place": "hamlet"}}, {"type": "node", "id": 7503301730, "lat": 55.7271151, "lon": 13.8849638, "tags": {"name": "Moller\u00f6d", "place": "hamlet"}}, {"type": "node", "id": 7503304458, "lat": 55.7278163, "lon": 13.8449323, "tags": {"name": "Stavskog", "place": "hamlet"}}, {"type": "node", "id": 7504322282, "lat": 55.6999056, "lon": 13.903957, "tags": {"name": "Heingeberg", "place": "hamlet"}}, {"type": "node", "id": 7504323667, "lat": 55.7961351, "lon": 13.9049252, "tags": {"name": "Sk\u00e4rhus", "place": "hamlet"}}, {"type": "node", "id": 7504343782, "lat": 55.8279077, "lon": 13.9299016, "tags": {"name": "H\u00f6ghult", "place": "hamlet"}}, {"type": "node", "id": 7504365705, "lat": 55.6964571, "lon": 13.8396634, "tags": {"name": "S\u00e4ljer\u00f6d", "place": "hamlet"}}, {"type": "node", "id": 7504374557, "lat": 55.6980894, "lon": 13.8517552, "tags": {"name": "Pregestad", "place": "hamlet"}}, {"type": "node", "id": 7504376604, "lat": 55.8234648, "lon": 13.9465046, "tags": {"name": "Ryet", "place": "hamlet"}}, {"type": "node", "id": 7504379984, "lat": 55.8090786, "lon": 13.9245064, "tags": {"name": "Eke", "place": "hamlet"}}, {"type": "node", "id": 7504397328, "lat": 55.6746991, "lon": 13.9334279, "tags": {"name": "Ry", "place": "hamlet"}}, {"type": "node", "id": 7504399765, "lat": 55.8282541, "lon": 13.9645422, "tags": {"name": "Flensma", "place": "hamlet"}}, {"type": "node", "id": 7504403864, "lat": 55.786623, "lon": 13.9175133, "tags": {"name": "St\u00e4nkel\u00f6sa", "place": "hamlet"}}, {"type": "node", "id": 7504404817, "lat": 55.8057812, "lon": 13.9145457, "tags": {"name": "Ry", "place": "hamlet"}}, {"type": "node", "id": 7504409683, "lat": 55.8127344, "lon": 13.9297195, "tags": {"name": "Abullaberga", "place": "hamlet"}}, {"type": "node", "id": 7504410494, "lat": 55.8238693, "lon": 13.8735832, "tags": {"name": "Elestorp", "place": "hamlet"}}, {"type": "node", "id": 7504410499, "lat": 55.7325227, "lon": 13.9532554, "tags": {"name": "Saxhusa", "place": "hamlet"}}, {"type": "node", "id": 7504418521, "lat": 55.7601359, "lon": 13.9199575, "tags": {"name": "Trulsh\u00e4rad", "place": "hamlet"}}, {"type": "node", "id": 7504435738, "lat": 55.8012166, "lon": 13.8904243, "tags": {"name": "Viggarum", "place": "hamlet"}}, {"type": "node", "id": 7504438299, "lat": 55.7706769, "lon": 13.9177381, "tags": {"name": "J\u00f6nstorp", "place": "hamlet"}}, {"type": "node", "id": 7504439992, "lat": 55.777073, "lon": 13.9443068, "tags": {"name": "Kagarp", "place": "hamlet"}}, {"type": "node", "id": 7504442259, "lat": 55.7198583, "lon": 13.9074901, "tags": {"name": "Astersta", "place": "hamlet"}}, {"type": "node", "id": 7504443961, "lat": 55.7464165, "lon": 13.9492353, "tags": {"name": "J\u00e4rstorp", "place": "hamlet"}}, {"type": "node", "id": 7504452469, "lat": 55.6866786, "lon": 13.9629744, "tags": {"name": "Djurr\u00f6dsg\u00e5rden", "place": "hamlet"}}, {"type": "node", "id": 7504469125, "lat": 55.7352559, "lon": 13.9843974, "tags": {"name": "Bl\u00e4storp", "place": "hamlet"}}, {"type": "node", "id": 7504478068, "lat": 55.6730769, "lon": 13.9957563, "tags": {"name": "Bontofta", "place": "hamlet"}}, {"type": "node", "id": 7504485464, "lat": 55.7381496, "lon": 13.9931624, "tags": {"name": "Str\u00e5e", "place": "hamlet"}}, {"type": "node", "id": 7504485465, "lat": 55.7283117, "lon": 14.0155965, "tags": {"name": "\u00c5kar\u00f6d", "place": "hamlet"}}, {"type": "node", "id": 7504493107, "lat": 55.7650636, "lon": 13.9652807, "tags": {"name": "L\u00f6nshult", "place": "hamlet"}}, {"type": "node", "id": 7504496870, "lat": 55.6700735, "lon": 13.967357, "tags": {"name": "M\u00e5nslunda", "place": "hamlet"}}, {"type": "node", "id": 7504518401, "lat": 55.7767752, "lon": 14.0125572, "tags": {"name": "Gr\u00f6nhult", "place": "hamlet"}}, {"type": "node", "id": 7504531193, "lat": 55.8139771, "lon": 14.0037189, "tags": {"name": "Tolser\u00f6d", "place": "hamlet"}}, {"type": "node", "id": 7504545684, "lat": 55.8092134, "lon": 13.537932, "tags": {"name": "Skibar\u00f6d", "place": "hamlet"}}, {"type": "node", "id": 7504562257, "lat": 55.8120188, "lon": 13.5540249, "tags": {"name": "J\u00e4ra", "place": "hamlet"}}, {"type": "node", "id": 7504603502, "lat": 55.7978409, "lon": 13.534358, "tags": {"name": "V\u00e4strabyg\u00e5rd", "place": "hamlet"}}, {"type": "node", "id": 7504603503, "lat": 55.8238229, "lon": 13.4333665, "tags": {"name": "Tofta", "place": "hamlet"}}, {"type": "node", "id": 7504605761, "lat": 55.8177416, "lon": 13.5702399, "tags": {"name": "Olstorp", "place": "hamlet"}}, {"type": "node", "id": 7504617147, "lat": 55.8316302, "lon": 13.4236445, "tags": {"name": "Jeppstorp", "place": "hamlet"}}, {"type": "node", "id": 7504619425, "lat": 55.8276525, "lon": 13.5523114, "tags": {"name": "Elisefarm", "place": "hamlet"}}, {"type": "node", "id": 7504622751, "lat": 55.8167015, "lon": 13.5518088, "tags": {"name": "Bastarp", "place": "hamlet"}}, {"type": "node", "id": 7504625486, "lat": 55.8243599, "lon": 13.5187984, "tags": {"name": "Orup", "place": "hamlet"}}, {"type": "node", "id": 7504630300, "lat": 55.8235794, "lon": 13.5099684, "tags": {"name": "Nya Bo", "place": "hamlet"}}, {"type": "node", "id": 7504633636, "lat": 55.7959425, "lon": 13.5936228, "tags": {"name": "Havrakulla", "place": "hamlet"}}, {"type": "node", "id": 7504644563, "lat": 55.8245972, "lon": 13.4844038, "tags": {"name": "Kr\u00e5karp", "place": "hamlet"}}, {"type": "node", "id": 7504645121, "lat": 55.8246895, "lon": 13.3802837, "tags": {"name": "B\u00e4ltinge g\u00e5rd", "place": "hamlet"}}, {"type": "node", "id": 7504645129, "lat": 55.8318325, "lon": 13.5192496, "tags": {"name": "Finnhult", "place": "hamlet"}}, {"type": "node", "id": 7504645215, "lat": 55.8708748, "lon": 13.4224101, "tags": {"name": "\u00c4mnar\u00f6d", "place": "hamlet"}}, {"type": "node", "id": 7504646002, "lat": 55.780397, "lon": 13.5796098, "tags": {"name": "Fr\u00f6nshult", "place": "hamlet"}}, {"type": "node", "id": 7504647692, "lat": 55.8197149, "lon": 13.46105, "tags": {"name": "Lillarp", "place": "hamlet"}}, {"type": "node", "id": 7504650370, "lat": 55.7831311, "lon": 13.377296, "tags": {"name": "Lejesta", "place": "hamlet"}}, {"type": "node", "id": 7504653039, "lat": 55.7846769, "lon": 13.4397493, "tags": {"name": "\u00c4spinge", "place": "hamlet"}}, {"type": "node", "id": 7504654191, "lat": 55.8615704, "lon": 13.3823764, "tags": {"name": "Stavr\u00f6d", "place": "hamlet"}}, {"type": "node", "id": 7504656113, "lat": 55.8173589, "lon": 13.4423571, "tags": {"name": "Trulstorp", "place": "hamlet"}}, {"type": "node", "id": 7504658316, "lat": 55.8639191, "lon": 13.6138425, "tags": {"name": "Blossehusen", "place": "hamlet"}}, {"type": "node", "id": 7504675779, "lat": 55.8834986, "lon": 13.4338412, "tags": {"name": "R\u00e5r\u00f6d", "place": "hamlet"}}, {"type": "node", "id": 7504675781, "lat": 55.9274593, "lon": 13.5164217, "tags": {"name": "Tjuvar\u00f6d", "place": "hamlet"}}, {"type": "node", "id": 7504685550, "lat": 55.8644547, "lon": 13.4022482, "tags": {"name": "Bj\u00f6rker\u00f6d", "place": "hamlet"}}, {"type": "node", "id": 7504688495, "lat": 55.8526648, "lon": 13.4799468, "tags": {"name": "Brostorp", "place": "hamlet"}}, {"type": "node", "id": 7504688655, "lat": 55.9276654, "lon": 13.4957651, "tags": {"name": "Bj\u00f6rk\u00e5sen", "place": "hamlet"}}, {"type": "node", "id": 7504691037, "lat": 55.9115579, "lon": 13.6133433, "tags": {"name": "Bondem\u00f6lla", "place": "hamlet"}}, {"type": "node", "id": 7504691945, "lat": 55.8877378, "lon": 13.527744, "tags": {"name": "\u00c4ngsbyn", "place": "hamlet"}}, {"type": "node", "id": 7504692520, "lat": 55.8729791, "lon": 13.462671, "tags": {"name": "Kulleberga", "place": "hamlet"}}, {"type": "node", "id": 7504695197, "lat": 55.8985886, "lon": 13.5706863, "tags": {"name": "Ringsborg", "place": "hamlet"}}, {"type": "node", "id": 7504697425, "lat": 55.8515174, "lon": 13.4346486, "tags": {"name": "V\u00e4nnberga", "place": "hamlet"}}, {"type": "node", "id": 7504701962, "lat": 55.900378, "lon": 13.5973477, "tags": {"name": "H\u00e4ggen\u00e4s", "place": "hamlet"}}, {"type": "node", "id": 7504705621, "lat": 55.8909006, "lon": 13.3966356, "tags": {"name": "V\u00e4rlingeg\u00e5rden", "place": "hamlet"}}, {"type": "node", "id": 7504707899, "lat": 55.8944707, "lon": 13.6121773, "tags": {"name": "Kronekull", "place": "hamlet"}}, {"type": "node", "id": 7504709689, "lat": 55.9330944, "lon": 13.39098, "tags": {"name": "R\u00f6nneholm", "place": "hamlet"}}, {"type": "node", "id": 7504711648, "lat": 55.9223736, "lon": 13.4595125, "tags": {"name": "Ry", "place": "hamlet"}}, {"type": "node", "id": 7504716719, "lat": 55.8760738, "lon": 13.3884711, "tags": {"name": "V\u00e4rlinge", "place": "hamlet"}}, {"type": "node", "id": 7504720317, "lat": 55.9244323, "lon": 13.375661, "tags": {"name": "Orrahus", "place": "hamlet"}}, {"type": "node", "id": 7504720324, "lat": 55.9678581, "lon": 13.4036237, "tags": {"name": "Rugerup", "place": "hamlet"}}, {"type": "node", "id": 7504722630, "lat": 55.9045467, "lon": 13.520511, "tags": {"name": "Nyby", "place": "hamlet"}}, {"type": "node", "id": 7504723009, "lat": 55.9170022, "lon": 13.5747986, "tags": {"name": "S\u00e4tofta hed", "place": "hamlet"}}, {"type": "node", "id": 7504734572, "lat": 55.9416432, "lon": 13.4067572, "tags": {"name": "Ager\u00f6d", "place": "hamlet"}}, {"type": "node", "id": 7504735734, "lat": 55.9241846, "lon": 13.5826607, "tags": {"name": "S\u00f6vr\u00f6d", "place": "hamlet"}}, {"type": "node", "id": 7504741108, "lat": 55.997746, "lon": 13.4215905, "tags": {"name": "Allarp", "place": "hamlet"}}, {"type": "node", "id": 7504745654, "lat": 55.9194696, "lon": 13.3850496, "tags": {"name": "Hassle", "place": "hamlet"}}, {"type": "node", "id": 7504750633, "lat": 55.9686345, "lon": 13.5676893, "tags": {"name": "Sjunnerup", "place": "hamlet"}}, {"type": "node", "id": 7504751941, "lat": 55.9494157, "lon": 13.5785834, "tags": {"name": "Elisetorp", "place": "hamlet"}}, {"type": "node", "id": 7504752526, "lat": 55.9786138, "lon": 13.5366279, "tags": {"name": "Ullstorp", "place": "hamlet"}}, {"type": "node", "id": 7504762719, "lat": 56.0123017, "lon": 13.5535827, "tags": {"name": "\u00c4sker\u00f6d", "place": "hamlet"}}, {"type": "node", "id": 7504762747, "lat": 55.9869395, "lon": 13.639004, "tags": {"name": "Korsar\u00f6d", "place": "hamlet"}}, {"type": "node", "id": 7504767715, "lat": 55.9591112, "lon": 13.5778274, "tags": {"name": "Eker\u00f6d", "place": "hamlet"}}, {"type": "node", "id": 7504769116, "lat": 55.9444021, "lon": 13.4764124, "tags": {"name": "K\u00e4rrarp", "place": "hamlet"}}, {"type": "node", "id": 7504771362, "lat": 55.9501543, "lon": 13.5334894, "tags": {"name": "Snogehall", "place": "hamlet"}}, {"type": "node", "id": 7504771363, "lat": 55.943578, "lon": 13.5727794, "tags": {"name": "Klevahill", "place": "hamlet"}}, {"type": "node", "id": 7504773080, "lat": 55.9436117, "lon": 13.4237584, "tags": {"name": "Klingstorp", "place": "hamlet"}}, {"type": "node", "id": 7504774296, "lat": 55.9913051, "lon": 13.4337334, "tags": {"name": "\u00c4sper\u00f6d", "place": "hamlet"}}, {"type": "node", "id": 7504775464, "lat": 55.9450384, "lon": 13.3955519, "tags": {"name": "Vittser\u00f6d", "place": "hamlet"}}, {"type": "node", "id": 7504778913, "lat": 55.9748198, "lon": 13.4255694, "tags": {"name": "Tockarp", "place": "hamlet"}}, {"type": "node", "id": 7504778914, "lat": 55.9567849, "lon": 13.522907, "tags": {"name": "Ekastiga", "place": "hamlet"}}, {"type": "node", "id": 7504779007, "lat": 55.9601199, "lon": 13.4214731, "tags": {"name": "V\u00e5tser\u00f6d", "place": "hamlet"}}, {"type": "node", "id": 7504781295, "lat": 55.9748664, "lon": 13.6344442, "tags": {"name": "Kolstrarp", "place": "hamlet"}}, {"type": "node", "id": 7504798489, "lat": 55.9960279, "lon": 13.6654006, "tags": {"name": "Ebbarp", "place": "hamlet"}}, {"type": "node", "id": 7504798610, "lat": 55.977766, "lon": 13.6037308, "tags": {"name": "Torup", "place": "hamlet"}}, {"type": "node", "id": 7504809316, "lat": 55.8667, "lon": 13.2885439, "tags": {"name": "Asstorp", "place": "hamlet"}}, {"type": "node", "id": 7504812042, "lat": 55.9858731, "lon": 13.2510169, "tags": {"name": "Boarp", "place": "hamlet"}}, {"type": "node", "id": 7504843347, "lat": 55.9902468, "lon": 13.3074262, "tags": {"name": "R\u00f6st\u00e5nga v\u00e5ng", "place": "hamlet"}}, {"type": "node", "id": 7504911250, "lat": 55.8977814, "lon": 13.7463587, "tags": {"name": "Kylestorp", "place": "hamlet"}}, {"type": "node", "id": 7504935500, "lat": 55.8895472, "lon": 13.2764752, "tags": {"name": "Selarps f\u00e4lad", "place": "hamlet"}}, {"type": "node", "id": 7504936744, "lat": 55.8294898, "lon": 13.3539953, "tags": {"name": "Grybyg\u00e5rd", "place": "hamlet"}}, {"type": "node", "id": 7504943924, "lat": 55.8828461, "lon": 13.2722282, "tags": {"name": "Selarp", "place": "hamlet"}}, {"type": "node", "id": 7504945544, "lat": 55.8997152, "lon": 13.6971776, "tags": {"name": "St\u00e5ngbacka", "place": "hamlet"}}, {"type": "node", "id": 7504947875, "lat": 55.8427268, "lon": 13.2720926, "tags": {"name": "L\u00e5ng\u00e5kra", "place": "hamlet"}}, {"type": "node", "id": 7504947986, "lat": 55.9348135, "lon": 13.2734057, "tags": {"name": "R\u00f6kaholm", "place": "hamlet"}}, {"type": "node", "id": 7504948185, "lat": 55.8288938, "lon": 13.2515465, "tags": {"name": "Ornaberga", "place": "hamlet"}}, {"type": "node", "id": 7504952627, "lat": 55.9845275, "lon": 13.2747493, "tags": {"name": "Duveskog", "place": "hamlet"}}, {"type": "node", "id": 7504960475, "lat": 55.8742299, "lon": 13.3276781, "tags": {"name": "Ullstorp", "place": "hamlet"}}, {"type": "node", "id": 7504961313, "lat": 55.8462917, "lon": 13.3410502, "tags": {"name": "Berga", "place": "hamlet"}}, {"type": "node", "id": 7504961341, "lat": 55.9580627, "lon": 13.8282607, "tags": {"name": "Tottarp", "place": "hamlet"}}, {"type": "node", "id": 7504962578, "lat": 55.8156273, "lon": 13.3402646, "tags": {"name": "Bynkeshusg\u00e5rd", "place": "hamlet"}}, {"type": "node", "id": 7504963154, "lat": 55.9057193, "lon": 13.327123, "tags": {"name": "\u00d6sl\u00f6vs Ry", "place": "hamlet"}}, {"type": "node", "id": 7504963215, "lat": 55.9227879, "lon": 13.3115355, "tags": {"name": "L\u00e5ngar\u00f6d", "place": "hamlet"}}, {"type": "node", "id": 7504965329, "lat": 55.8756089, "lon": 13.3114421, "tags": {"name": "Kullag\u00e5rden", "place": "hamlet"}}, {"type": "node", "id": 7504968152, "lat": 55.9747265, "lon": 13.8468109, "tags": {"name": "Duckarp", "place": "hamlet"}}, {"type": "node", "id": 7504968171, "lat": 55.9796132, "lon": 13.8761005, "tags": {"name": "Harastorp", "place": "hamlet"}}, {"type": "node", "id": 7504972682, "lat": 55.8760006, "lon": 13.3631612, "tags": {"name": "\u00c4ngahus", "place": "hamlet"}}, {"type": "node", "id": 7504973641, "lat": 55.9153265, "lon": 13.3565204, "tags": {"name": "Hjorts\u00e5s", "place": "hamlet"}}, {"type": "node", "id": 7504982032, "lat": 55.7915062, "lon": 13.3244546, "tags": {"name": "Skeglinge", "place": "hamlet"}}, {"type": "node", "id": 7504983005, "lat": 55.8811236, "lon": 13.3417068, "tags": {"name": "\u00d6sl\u00f6v", "place": "hamlet"}}, {"type": "node", "id": 7504983173, "lat": 55.9551766, "lon": 13.7405771, "tags": {"name": "Bosarp", "place": "hamlet"}}, {"type": "node", "id": 7504983307, "lat": 55.9293706, "lon": 13.6983893, "tags": {"name": "V\u00e4stantorp", "place": "hamlet"}}, {"type": "node", "id": 7504984494, "lat": 55.8228585, "lon": 13.355615, "tags": {"name": "\u00c4ngtofta", "place": "hamlet"}}, {"type": "node", "id": 7504986108, "lat": 55.918921, "lon": 13.7053482, "tags": {"name": "\u00d6stenstorp", "place": "hamlet"}}, {"type": "node", "id": 7504988888, "lat": 55.9085371, "lon": 13.6893687, "tags": {"name": "Mannarp", "place": "hamlet"}}, {"type": "node", "id": 7504990077, "lat": 55.9448631, "lon": 13.8560088, "tags": {"name": "T\u00e5garp", "place": "hamlet"}}, {"type": "node", "id": 7504994144, "lat": 55.8530048, "lon": 13.9681822, "tags": {"name": "Skorphult", "place": "hamlet"}}, {"type": "node", "id": 7504994538, "lat": 55.9410636, "lon": 13.6766383, "tags": {"name": "Skogsbyn", "place": "hamlet"}}, {"type": "node", "id": 7504994577, "lat": 55.962993, "lon": 13.8890517, "tags": {"name": "\u00c5rr\u00f6d", "place": "hamlet"}}, {"type": "node", "id": 7504996329, "lat": 55.9783319, "lon": 13.8167025, "tags": {"name": "R\u00e5bockarp", "place": "hamlet"}}, {"type": "node", "id": 7504997934, "lat": 55.9909957, "lon": 13.7425064, "tags": {"name": "Ljunga", "place": "hamlet"}}, {"type": "node", "id": 7504999155, "lat": 55.9682024, "lon": 13.8238281, "tags": {"name": "Brostorp", "place": "hamlet"}}, {"type": "node", "id": 7505001360, "lat": 55.9411997, "lon": 13.9018053, "tags": {"name": "Tror\u00f6d", "place": "hamlet"}}, {"type": "node", "id": 7505001367, "lat": 55.9155963, "lon": 13.9122345, "tags": {"name": "Linnekulla", "place": "hamlet"}}, {"type": "node", "id": 7505003199, "lat": 56.0124287, "lon": 13.7200597, "tags": {"name": "R\u00f6sl\u00f6v", "place": "hamlet"}}, {"type": "node", "id": 7505003278, "lat": 55.9425105, "lon": 13.9234262, "tags": {"name": "Plattaholm", "place": "hamlet"}}, {"type": "node", "id": 7505007340, "lat": 55.9506362, "lon": 13.7769817, "tags": {"name": "Bj\u00e4rnhult", "place": "hamlet"}}, {"type": "node", "id": 7505008563, "lat": 55.9184459, "lon": 13.7865728, "tags": {"name": "B\u00f6sarp", "place": "hamlet"}}, {"type": "node", "id": 7505009436, "lat": 55.9361284, "lon": 13.796554, "tags": {"name": "Yller\u00f6d", "place": "hamlet"}}, {"type": "node", "id": 7505014061, "lat": 55.9786708, "lon": 14.0023079, "tags": {"name": "Louisefarm", "place": "hamlet"}}, {"type": "node", "id": 7505014579, "lat": 55.9621043, "lon": 13.8009217, "tags": {"name": "Brostorp", "place": "hamlet"}}, {"type": "node", "id": 7505014974, "lat": 55.9404101, "lon": 13.8593427, "tags": {"name": "Sp\u00e5ngarp", "place": "hamlet"}}, {"type": "node", "id": 7505015179, "lat": 56.0076386, "lon": 13.9006971, "tags": {"name": "Kuberup", "place": "hamlet"}}, {"type": "node", "id": 7505018897, "lat": 55.9985057, "lon": 13.8597482, "tags": {"name": "Knutstorp", "place": "hamlet"}}, {"type": "node", "id": 7505018932, "lat": 55.9060132, "lon": 13.8998792, "tags": {"name": "\u00d6stensk\u00f6p", "place": "hamlet"}}, {"type": "node", "id": 7505024948, "lat": 55.9856437, "lon": 13.9223271, "tags": {"name": "V\u00e4stra Ryd", "place": "hamlet"}}, {"type": "node", "id": 7505030962, "lat": 55.967099, "lon": 13.8672886, "tags": {"name": "Forshult", "place": "hamlet"}}, {"type": "node", "id": 7505033649, "lat": 55.9225432, "lon": 13.8944341, "tags": {"name": "K\u00e5restad", "place": "hamlet"}}, {"type": "node", "id": 7505036166, "lat": 55.9074741, "lon": 13.944523, "tags": {"name": "Erikstorp", "place": "hamlet"}}, {"type": "node", "id": 7505036591, "lat": 55.9321111, "lon": 13.8972667, "tags": {"name": "Bj\u00f6rker\u00f6d", "place": "hamlet"}}, {"type": "node", "id": 7505037042, "lat": 55.8608852, "lon": 13.9898306, "tags": {"name": "Gr\u00e4sma", "place": "hamlet"}}, {"type": "node", "id": 7505038446, "lat": 55.9583852, "lon": 14.001692, "tags": {"name": "Rya", "place": "hamlet"}}, {"type": "node", "id": 7505038819, "lat": 55.9306503, "lon": 13.8611978, "tags": {"name": "Knopparp", "place": "hamlet"}}, {"type": "node", "id": 7505042446, "lat": 55.8411929, "lon": 13.9072674, "tags": {"name": "Br\u00e4nnestad", "place": "hamlet"}}, {"type": "node", "id": 7505042447, "lat": 55.9040237, "lon": 13.9249356, "tags": {"name": "Ilnestorp", "place": "hamlet"}}, {"type": "node", "id": 7505043456, "lat": 55.9058519, "lon": 13.8879025, "tags": {"name": "Maa", "place": "hamlet"}}, {"type": "node", "id": 7505054803, "lat": 55.9513997, "lon": 13.9818806, "tags": {"name": "Tulls\u00e5kra", "place": "hamlet"}}, {"type": "node", "id": 7505055926, "lat": 55.9694921, "lon": 13.9765233, "tags": {"name": "Tj\u00f6rning", "place": "hamlet"}}, {"type": "node", "id": 7505062256, "lat": 55.9157502, "lon": 13.945732, "tags": {"name": "\u00c5sg\u00e5rd", "place": "hamlet"}}, {"type": "node", "id": 7505064667, "lat": 55.9706345, "lon": 13.9545155, "tags": {"name": "R\u00e4vshult", "place": "hamlet"}}, {"type": "node", "id": 7505197176, "lat": 55.9958585, "lon": 13.9458929, "tags": {"name": "Norra Ryd", "place": "hamlet"}}, {"type": "node", "id": 7505199973, "lat": 56.0150288, "lon": 13.9507127, "tags": {"name": "Bassk\u00f6p", "place": "hamlet"}}, {"type": "node", "id": 7505201658, "lat": 56.0158996, "lon": 13.9153013, "tags": {"name": "L\u00e5ngar\u00f6d", "place": "hamlet"}}, {"type": "node", "id": 7505205745, "lat": 55.9951609, "lon": 13.9784109, "tags": {"name": "Salskog", "place": "hamlet"}}, {"type": "node", "id": 7505212431, "lat": 56.0018977, "lon": 13.9569426, "tags": {"name": "Kl\u00e5rr\u00f6d", "place": "hamlet"}}, {"type": "node", "id": 7505223934, "lat": 56.0093818, "lon": 13.8802698, "tags": {"name": "Heljestad", "place": "hamlet"}}, {"type": "node", "id": 7505598408, "lat": 56.0157411, "lon": 13.7964207, "tags": {"name": "Kroksj\u00f6", "place": "hamlet"}}, {"type": "node", "id": 7505602499, "lat": 56.0066592, "lon": 13.7829911, "tags": {"name": "Bj\u00e4rr\u00f6d", "place": "hamlet"}}, {"type": "node", "id": 7505604729, "lat": 56.0052503, "lon": 13.8032481, "tags": {"name": "Nockarp", "place": "hamlet"}}, {"type": "node", "id": 7505615274, "lat": 55.9903038, "lon": 13.7883145, "tags": {"name": "\u00c4sphults ora", "place": "hamlet"}}, {"type": "node", "id": 7505627194, "lat": 56.0062066, "lon": 13.6579575, "tags": {"name": "Gunnarp", "place": "hamlet"}}, {"type": "node", "id": 7508846816, "lat": 56.0018013, "lon": 13.3203599, "tags": {"name": "L\u00e5ngar\u00f6d", "place": "hamlet"}}, {"type": "node", "id": 7508931422, "lat": 56.0025611, "lon": 13.4774312, "tags": {"name": "L\u00e4nghult", "place": "hamlet"}}, {"type": "node", "id": 7508945986, "lat": 56.0033342, "lon": 13.4903406, "tags": {"name": "N\u00f6tarp", "place": "hamlet"}}, {"type": "node", "id": 8116437223, "lat": 55.8965011, "lon": 13.9142626, "tags": {"name": "Ilnestorp", "place": "hamlet"}}, {"type": "node", "id": 8117309184, "lat": 55.8325633, "lon": 13.8503966, "tags": {"name": "Bj\u00f6rkh\u00e4llan", "place": "hamlet"}}, {"type": "node", "id": 8149708845, "lat": 55.7133374, "lon": 13.2970094}, {"type": "node", "id": 8149708846, "lat": 55.7135098, "lon": 13.2970281}, {"type": "node", "id": 8149708847, "lat": 55.7134552, "lon": 13.2985551}, {"type": "node", "id": 8149708848, "lat": 55.7134912, "lon": 13.2988775}, {"type": "node", "id": 8149708849, "lat": 55.7136331, "lon": 13.2976694}, {"type": "node", "id": 8149708850, "lat": 55.7134983, "lon": 13.2954646}, {"type": "node", "id": 8149708852, "lat": 55.7139753, "lon": 13.29757}, {"type": "node", "id": 8149708853, "lat": 55.714092, "lon": 13.2991359}, {"type": "node", "id": 8149708854, "lat": 55.7141418, "lon": 13.2995319}, {"type": "node", "id": 8149708861, "lat": 55.7135921, "lon": 13.2984844}, {"type": "node", "id": 8149708862, "lat": 55.7136236, "lon": 13.2975145}, {"type": "node", "id": 8149708863, "lat": 55.7132399, "lon": 13.2946676}, {"type": "node", "id": 8149708867, "lat": 55.7130706, "lon": 13.2920496}, {"type": "node", "id": 8149708868, "lat": 55.7131566, "lon": 13.2932241}, {"type": "node", "id": 8149708888, "lat": 55.7130872, "lon": 13.292276}, {"type": "node", "id": 8149708889, "lat": 55.7130335, "lon": 13.2915126}, {"type": "node", "id": 8149708890, "lat": 55.7133559, "lon": 13.2913671}, {"type": "node", "id": 8149708891, "lat": 55.7134376, "lon": 13.2920067}, {"type": "node", "id": 8149708892, "lat": 55.7133214, "lon": 13.29675}, {"type": "node", "id": 9994611310, "lat": 55.7025704, "lon": 13.3469483}, {"type": "node", "id": 9994624361, "lat": 55.703262, "lon": 13.3444935}, {"type": "node", "id": 9994809506, "lat": 55.7043371, "lon": 13.3441649}, {"type": "node", "id": 10724362346, "lat": 55.6193142, "lon": 13.5334568, "tags": {"name": "Hemmestorps Boke", "place": "hamlet"}}, {"type": "way", "id": 99197692, "nodes": [1147405128, 1147405165, 8149708889, 8149708890, 8149708891, 8149708867, 8149708888, 8149708868, 1147405124, 8149708863, 1147405079, 8149708892, 8149708845, 8149708846, 8149708861, 8149708847, 8149708848, 1147405163, 1506894143, 1506894170, 1506894175, 1147405131, 8149708854, 8149708853, 1147405082, 8149708852, 8149708849, 8149708862, 8149708850, 1147405168, 1147405138, 1147405086, 1147405128], "tags": {"landuse": "residential", "name": "Hardeberga station", "place": "hamlet"}}, {"type": "way", "id": 99262976, "nodes": [255564610, 1148155470, 255564611, 255564612, 1148155388, 1148171409, 1148171405, 1148171392, 1148171427, 1148171430, 1148171425, 1148171421, 1148171411, 1148171418, 1148171410, 1148171408, 2001806064, 2001806043, 2001806026, 2001805951, 9994611310, 2001806037, 2001805965, 1148171394, 1148171398, 1622010782, 1622010740, 1622010765, 1622010778, 1148171424, 1148155688, 1148155284, 1148155357, 2001806051, 1148155323, 9994624361, 222031579, 1148155527, 9994809506, 1117058048, 255564608, 255564610], "tags": {"landuse": "residential", "name": "S\u00f6nnerv\u00e5ng", "place": "hamlet"}}]}