{"version": 0.6, "generator": "Overpass API 0.7.61.5 4133829e", "osm3s": {"timestamp_osm_base": "2024-03-06T11:17:45Z", "copyright": "The data included in this document is from www.openstreetmap.org. The data is made available under ODbL."}, "elements": [{"type": "node", "id": 94312904, "lat": 36.3415843, "lon": 43.1291386, "tags": {"alt_name:arc": "\u0721\u0718\u0728\u0720\u0710;\u0721\u0715\u071d\u0722\u072c\u0710 \u0715\u0721\u0718\u0728\u0720;\u0722\u071d\u0722\u0712\u0742\u0710", "alt_name:ckb": "\u0645\u0648\u0633\u06b5", "alt_name:syc": "\u0721\u0718\u0728\u0720\u0710;\u0721\u0715\u071d\u0722\u072c\u0710 \u0715\u0721\u0718\u0728\u0720;\u0722\u071d\u0722\u0712\u0742\u0710", "capital": "4", "name": "\u0627\u0644\u0645\u0648\u0635\u0644", "name:ar": "\u0627\u0644\u0645\u0648\u0635\u0644", "name:arc": "\u0721\u0718\u0728\u0720", "name:ckb": "\u0645\u0648\u0648\u0633\u06b5", "name:cs": "Mosul", "name:de": "Mossul", "name:el": "\u039c\u03bf\u03c3\u03bf\u03cd\u03bb\u03b7", "name:en": "Mosul", "name:es": "Mosul", "name:et": "Mosul", "name:eu": "Mosul", "name:fi": "Mosul", "name:fr": "Mossoul", "name:he": "\u05de\u05d5\u05e1\u05d5\u05dc", "name:hi": "\u092e\u094b\u0938\u0941\u0932", "name:hr": "Mosul", "name:ja": "\u30e2\u30fc\u30b9\u30eb", "name:kn": "\u0cae\u0ccb\u0cb8\u0cc1\u0cb2\u0ccd", "name:ku": "M\u00fbsil", "name:ml": "\u0d2e\u0d4b\u0d38\u0d41\u0d7d", "name:nl": "Mosoel", "name:no": "Mosul", "name:pl": "Mosul", "name:ru": "\u041c\u043e\u0441\u0443\u043b", "name:sk": "Mosul", "name:sv": "Mosul", "name:syc": "\u0721\u0718\u0728\u0720", "name:te": "\u0c2e\u0c4b\u0c38\u0c41\u0c32\u0c4d", "name:tr": "Musul", "name:tt": "\u041c\u04e9\u0441\u0438\u043b", "name:uk": "\u041c\u043e\u0441\u0443\u043b", "name:zh": "\u6469\u82cf\u5c14/\u6469\u7a4c\u723e", "name:zh-Hans": "\u6469\u82cf\u5c14", "name:zh-Hant": "\u6469\u7a4c\u723e", "place": "city", "population": "664221", "population:date": "2016", "wikidata": "Q83317", "wikipedia": "ar:\u0627\u0644\u0645\u0648\u0635\u0644", "wikipedia:ar": "\u0627\u0644\u0645\u0648\u0635\u0644", "wikipedia:arc": "\u0721\u0718\u0728\u0720"}}, {"type": "node", "id": 259436980, "lat": 36.4807539, "lon": 43.0708957, "tags": {"is_in": "\u0627\u0644\u0645\u0648\u0635\u0644", "name": "\u0634\u0631\u0643\u0629 \u0627\u0644\u0635\u0646\u0627\u0639\u0627\u062a \u0627\u0644\u062f\u0648\u0627\u0626\u064a\u0629", "place": "village"}}, {"type": "node", "id": 1442597606, "lat": 36.1582215, "lon": 42.9721576, "tags": {"int_name": "Amr\u012bn\u012b, Al Amr\u012bn\u012b, Amir\u012bn\u012b, \u0627\u0644\u0627\u0645\u0631\u064a\u0646\u064a, Amrini, Al Amrini, Amirini, \u0627\u0644\u0627\u0645\u0631\u064a\u0646\u064a", "name": "\u0627\u0644\u0623\u0645\u0631\u064a\u0646\u064a", "name:ar": "\u0627\u0644\u0639\u0645\u0631\u064a\u0646\u064a", "name:de": "Amrini", "name:en": "al-Amrini", "name:fr": "Amrini", "place": "village", "source": "GEOnet"}}, {"type": "node", "id": 1442598137, "lat": 36.2793731, "lon": 42.9904227, "tags": {"name": "\u062a\u0644 \u0643\u064a\u0635\u0648\u0645\u0629", "place": "village", "source": "GEOnet"}}, {"type": "node", "id": 1442598158, "lat": 36.1717769, "lon": 42.9361566, "tags": {"name": "\u062a\u0644 \u0627\u0644\u0632\u0631\u0643\u0629", "name:ar": "\u062a\u0644 \u0627\u0644\u0632\u0631\u0643\u0629", "place": "village", "source": "GEOnet"}}, {"type": "node", "id": 1442598163, "lat": 36.1921217, "lon": 42.9496506, "tags": {"name": "\u0623\u064f\u0645 \u0633\u064a\u062c\u0627\u0646", "name:ar": "\u0623\u064f\u0645 \u0633\u064a\u062c\u0627\u0646", "place": "village", "source": "GEOnet"}}, {"type": "node", "id": 1905997350, "lat": 36.3640684, "lon": 43.3517048}, {"type": "node", "id": 1905997353, "lat": 36.3113907, "lon": 43.3367703}, {"type": "node", "id": 1905997375, "lat": 36.3579407, "lon": 43.3453345}, {"type": "node", "id": 1905997381, "lat": 36.3086793, "lon": 43.3299542}, {"type": "node", "id": 1905997382, "lat": 36.3156026, "lon": 43.339371}, {"type": "node", "id": 1905997385, "lat": 36.3180078, "lon": 43.3408805}, {"type": "node", "id": 1905997390, "lat": 36.3245226, "lon": 43.3322832}, {"type": "node", "id": 1905997391, "lat": 36.3138014, "lon": 43.317949}, {"type": "node", "id": 1905997397, "lat": 36.3555732, "lon": 43.3537459}, {"type": "node", "id": 1905997405, "lat": 36.357709, "lon": 43.3632234}, {"type": "node", "id": 1905997410, "lat": 36.368077, "lon": 43.3553097}, {"type": "node", "id": 1905997454, "lat": 36.3606467, "lon": 43.3655528}, {"type": "node", "id": 1905997565, "lat": 36.365036, "lon": 43.3656094}, {"type": "node", "id": 1972159484, "lat": 36.4903239, "lon": 43.1205735, "tags": {"alt_name": "\u062a\u0644\u06a9\u06ce\u0641", "capital": "6", "is_in": "Iraq, Ninawa", "is_in:country": "Iraq", "is_in:country_code": "IQ", "name": "\u072c\u0720 \u071f\u0710\u0726\u0710 / \u062a\u0644\u0643\u064a\u0641", "name:ar": "\u062a\u0644\u0643\u064a\u0641", "name:arc": "\u072c\u0720 \u071f\u0710\u0726\u0710", "name:ckb": "\u062a\u0644\u06a9\u06ce\u0641", "name:de": "Tel Keppe", "name:en": "Telkif", "name:es": "Tel Keppe", "name:fr": "Tel Keppe", "place": "town", "population": "40000", "population:date": "2010", "wikidata": "Q2418956", "wikipedia": "ar:\u062a\u0644\u0643\u064a\u0641"}}, {"type": "node", "id": 2020478761, "lat": 36.2508794, "lon": 43.1950369}, {"type": "node", "id": 2480188332, "lat": 36.146181, "lon": 43.4068133, "tags": {"alt_name": "\u0642\u0631\u064a\u0629 \u0628\u0633\u0637\u0627\u0644\u064a\u0629 \u0627\u0644\u0643\u0628\u064a\u0631", "int_name": "Basatliya, Basa\u0163l\u012byah, Qaryat Bas\u0163\u0101l\u012byat al Kab\u012br, \u0642\u0631\u064a\u0629 \u0628\u0633\u0637\u0627\u0644\u064a\u0629 \u0627\u0644\u0643\u0628\u064a\u0631, Basatliya, Basatliyah, Qaryat Bastaliyat al Kabir, \u0642\u0631\u064a\u0629 \u0628\u0633\u0637\u0627\u0644\u064a\u0629 \u0627\u0644\u0643\u0628\u064a\u0631", "name": "\u0642\u0631\u064a\u0629 \u0628\u0633\u0637\u0627\u0644\u064a\u0629 \u0627\u0644\u0643\u0628\u064a\u0631", "name:ar": "\u0642\u0631\u064a\u0629 \u0628\u0633\u0637\u0627\u0644\u064a\u0629 \u0627\u0644\u0643\u0628\u064a\u0631", "name:ar1": "\u0642\u0631\u064a\u0629 \u0628\u0633\u0637\u0627\u0644\u064a\u0629 \u0627\u0644\u0643\u0628\u064a\u0631", "name:de": "Basatliya", "name:en": "Basatliya", "name:fr": "Basatliya", "place": "village"}}, {"type": "node", "id": 2480190969, "lat": 36.1805432, "lon": 43.4240222, "tags": {"alt_name": "\u062c\u06d5\u062f\u06cc\u062f\u06d5", "name": "\u062c\u06d5\u062f\u06cc\u062f\u06d5", "place": "village"}}, {"type": "node", "id": 2480192907, "lat": 36.216433, "lon": 43.448642, "tags": {"alt_name": "\u0642\u0631\u064a\u0629 \u062e\u0631\u0628\u0629 \u0633\u0644\u0637\u0627\u0646", "int_name": "Khar\u0101bat Sul\u0163\u0101n, Qaryat Kharbat Sul\u0163\u0101n, \u0642\u0631\u064a\u0629 \u062e\u0631\u0628\u0629 \u0633\u0644\u0637\u0627\u0646, Kharabat Sultan, Qaryat Kharbat Sultan, \u0642\u0631\u064a\u0629 \u062e\u0631\u0628\u0629 \u0633\u0644\u0637\u0627\u0646", "name": "\u0642\u0631\u064a\u0629 \u062e\u0631\u0628\u0629 \u0633\u0644\u0637\u0627\u0646", "name:ar": "\u0642\u0631\u064a\u0629 \u062e\u0631\u0627\u0628\u0647 \u0633\u0644\u0637\u0627\u0646 \u0639\u062f\u062f \u0627\u0644\u0646\u0641\u0648\u06331500", "name:ar1": "\u0642\u0631\u064a\u0629 \u062e\u0631\u0628\u0629 \u0633\u0644\u0637\u0627\u0646", "name:de": "Kharabat Sultan", "name:en": "Kharabat Sultan", "name:fr": "Kharabat Sultan", "place": "village"}}, {"type": "node", "id": 2480194684, "lat": 36.1892514, "lon": 43.1223512, "tags": {"alt_name": "\u0642\u0631\u064a\u0629 \u0627\u0644\u0645\u0639\u0628\u064a\u062f\u064a;\u0627\u0644\u0645\u0639\u064a\u0628\u062f\u064a", "int_name": "Al Muaybd\u012b, Al Muaybdi;Qaryat al Mab\u012bd\u012b, \u0642\u0631\u064a\u0629 \u0627\u0644\u0645\u0639\u0628\u064a\u062f\u064a, Qaryat al Mabidi, \u0642\u0631\u064a\u0629 \u0627\u0644\u0645\u0639\u0628\u064a\u062f\u064a", "name": "\u0627\u0644\u0645\u0639\u064a\u0628\u062f\u064a", "name:ar": "\u0627\u0644\u0645\u0639\u064a\u0628\u062f\u064a", "name:de": "Al Muaybdi", "name:en": "Al Muaybdi", "name:fr": "Al Muaybdi", "place": "village"}}, {"type": "node", "id": 2480199078, "lat": 36.3881103, "lon": 43.0364497, "tags": {"alt_name": "\u0642\u0631\u064a\u0629 \u062d\u0644\u064a\u0644\u0629", "int_name": "\u1e28ulaylah, Qaryat \u1e28ulaylah, \u0642\u0631\u064a\u0629 \u062d\u0644\u064a\u0644\u0629, Hulaylah, Qaryat Hulaylah, \u0642\u0631\u064a\u0629 \u062d\u0644\u064a\u0644\u0629", "is_in": "Iraq , \u062c\u0645\u0647\u0648\u0631\u064a\u0629 \u0627\u0644\u0639\u0631\u0627\u0642", "name": "\u0642\u0631\u064a\u0629 \u062d\u0644\u064a\u0644\u0629", "name:ar": "\u0642\u0631\u064a\u0629 \u062d\u0644\u064a\u0644\u0629", "name:ar1": "\u0642\u0631\u064a\u0629 \u062d\u0644\u064a\u0644\u0629", "name:de": "Hulaylah", "name:en": "Hulaylah", "name:fr": "Hulaylah", "place": "village"}}, {"type": "node", "id": 2480199092, "lat": 36.4127936, "lon": 42.9894676, "tags": {"alt_name": "\u0642\u0631\u0629 \u0642\u064a\u0648\u0646\u0644\u064a \u0627\u0644\u0639\u0644\u064a\u0627", "int_name": "Qarah Quyunl\u012b al Uly\u0101, Qarah Quyunlt al Uly\u0101, Qarah Quyunli al Ulya, Qarah Quyunlt al Ulya", "is_in": "Iraq , \u062c\u0645\u0647\u0648\u0631\u064a\u0629 \u0627\u0644\u0639\u0631\u0627\u0642", "name": "\u0642\u0631\u0629 \u0642\u064a\u0648\u0646\u0644\u064a \u0627\u0644\u0639\u0644\u064a\u0627", "name:ar": "\u0642\u0631\u0629 \u0642\u064a\u0648\u0646\u0644\u064a \u0627\u0644\u0639\u0644\u064a\u0627", "name:ar1": "\u0642\u0631\u0629 \u0642\u064a\u0648\u0646\u0644\u064a \u0627\u0644\u0639\u0644\u064a\u0627", "name:de": "Qarah Quyunli al Ulya", "name:en": "Qarah Quyunli al Ulya", "name:fr": "Qarah Quyunli al Ulya", "place": "village"}}, {"type": "node", "id": 2480199098, "lat": 36.3936971, "lon": 43.0169812, "tags": {"alt_name": "\u0642\u0631\u064a\u0629 \u062c\u062f\u064a\u062f\u0629", "int_name": "Qaryat Jad\u012bdah, \u0642\u0631\u064a\u0629 \u062c\u062f\u064a\u062f\u0629, Qaryat Jadidah, \u0642\u0631\u064a\u0629 \u062c\u062f\u064a\u062f\u0629", "is_in": "Iraq , \u062c\u0645\u0647\u0648\u0631\u064a\u0629 \u0627\u0644\u0639\u0631\u0627\u0642", "name": "\u0642\u0631\u064a\u0629 \u062c\u062f\u064a\u062f\u0629", "name:ar": "\u0642\u0631\u064a\u0629 \u062c\u062f\u064a\u062f\u0629", "name:ar1": "\u0642\u0631\u064a\u0629 \u062c\u062f\u064a\u062f\u0629", "name:de": "Qaryat Jadidah", "name:en": "Qaryat Jadidah", "name:fr": "Qaryat Jadidah", "place": "village"}}, {"type": "node", "id": 2480199101, "lat": 36.40248, "lon": 43.045415, "tags": {"alt_name": "\u0642\u0631\u064a\u0629 \u062c\u0631\u0641 \u0627\u0644\u0645\u0644\u062d", "int_name": "Qaryat Jarf al Mil\u1e29, \u0642\u0631\u064a\u0629 \u062c\u0631\u0641 \u0627\u0644\u0645\u0644\u062d, Qaryat Jarf al Milh, \u0642\u0631\u064a\u0629 \u062c\u0631\u0641 \u0627\u0644\u0645\u0644\u062d", "is_in": "Iraq , \u062c\u0645\u0647\u0648\u0631\u064a\u0629 \u0627\u0644\u0639\u0631\u0627\u0642", "name": "\u0642\u0631\u064a\u0629 \u0627\u0644\u0642\u0628\u0647", "name:ar": "\u0642\u0631\u064a\u0629 \u0642\u0631\u0647 \u0642\u0648\u064a\u0646", "name:ar1": "\u0642\u0631\u064a\u0629 \u062c\u0631\u0641 \u0627\u0644\u0645\u0644\u062d", "name:de": "Qaryat Jarf al Milh", "name:en": "Qaryat Jarf al Milh", "name:fr": "Qaryat Jarf al Milh", "name:ku": "kara kuyun", "place": "village"}}, {"type": "node", "id": 2480199110, "lat": 36.422542, "lon": 42.9832265, "tags": {"alt_name": "\u0634\u064a\u062e \u0645\u062d\u0645\u062f", "int_name": "Shaikh Muhammad, Shaykh Mu\u1e29ammad, \u0634\u064a\u062e \u0645\u062d\u0645\u062f, Shaikh Muhammad, Shaykh Muhammad, \u0634\u064a\u062e \u0645\u062d\u0645\u062f", "is_in": "Iraq , \u062c\u0645\u0647\u0648\u0631\u064a\u0629 \u0627\u0644\u0639\u0631\u0627\u0642", "name": "\u0634\u064a\u062e \u0645\u062d\u0645\u062f", "name:ar": "\u0634\u064a\u062e \u0645\u062d\u0645\u062f", "name:ar1": "\u0634\u064a\u062e \u0645\u062d\u0645\u062f", "name:de": "Shaikh Muhammad", "name:en": "Shaikh Muhammad", "name:fr": "Shaikh Muhammad", "place": "village"}}, {"type": "node", "id": 2484131572, "lat": 36.367128, "lon": 43.429938, "tags": {"name": "\u0628\u0627\u0633\u062e\u0631\u0627", "name:en": "Basakhra", "name:ku": "\u0628\u0627\u0633\u062e\u0631\u0627", "place": "village"}}, {"type": "node", "id": 2484131573, "lat": 36.341569, "lon": 43.446834, "tags": {"alt_name": "\u0642\u0631\u064a\u0629 \u0628\u0627\u0632\u0643\u0631\u062a\u0627\u0646", "name": "\u0628\u0627\u0632\u06af\u0631\u062a\u0627\u0646", "name:ar": "\u0642\u0631\u064a\u0629 \u0628\u0627\u0632\u0643\u0631\u062a\u0627\u0646 \u0639\u062f\u062f \u0627\u0644\u0646\u0641\u0648\u0633 2000 \u0634\u0647 \u0628\u0647 \u0643", "name:de": "Bazgirtan", "name:en": "Bazgirtan", "name:fr": "Bazgirtan", "name:ku": "Bazgirtan", "place": "village", "population": "2000"}}, {"type": "node", "id": 2484131575, "lat": 36.30563, "lon": 43.414114, "tags": {"alt_name": "\u0642\u0631\u064a\u0629 \u0643\u0631\u0645\u0644\u064a\u0633", "int_name": "Keramlais, Kirmalays, Qaryat Kiraml\u012bs, \u0642\u0631\u064a\u0629 \u0643\u0631\u0645\u0644\u064a\u0633, Keramlais, Kirmalays, Qaryat Kiramlis, \u0642\u0631\u064a\u0629 \u0643\u0631\u0645\u0644\u064a\u0633", "name": "\u071f\u072a\u0721\u0720\u072b", "name:ar": "\u0642\u0631\u064a\u0629 \u0643\u0631\u0645\u0644\u064a\u0633", "name:ar1": "\u0642\u0631\u064a\u0629 \u0643\u0631\u0645\u0644\u064a\u0633", "name:arc": "\u071f\u072a\u0721\u0720\u072b", "name:de": "Keramlais", "name:en": "Karamles", "name:fr": "Keramlais", "place": "village", "wikidata": "Q4115974", "wikipedia": "arc:\u071f\u072a\u0721\u0720\u072b"}}, {"type": "node", "id": 2484131578, "lat": 36.322798, "lon": 43.447312, "tags": {"alt_name": "\u0642\u0631\u064a\u0629 \u0634\u0627\u0642\u0648\u0644\u064a", "int_name": "Qaryat Sh\u0101q\u016bl\u012b, \u0642\u0631\u064a\u0629 \u0634\u0627\u0642\u0648\u0644\u064a, Qaryat Shaquli, \u0642\u0631\u064a\u0629 \u0634\u0627\u0642\u0648\u0644\u064a", "name": "\u0634\u0627 \u0642\u0648\u0644\u06cc", "name:ar": "\u0642\u0631\u064a\u0629 \u0634\u0627\u0642\u0648\u0644\u064a \u0639\u062f\u062f \u0627\u0644\u0646\u0641\u0648\u0633 3000", "name:ar1": "\u0642\u0631\u064a\u0629 \u0634\u0627\u0642\u0648\u0644\u064a", "name:de": "Qaryat Shaquli", "name:en": "Qaryat Shaquli", "name:fr": "Qaryat Shaquli", "place": "village", "population": "3000"}}, {"type": "node", "id": 2484142376, "lat": 36.1643643, "lon": 43.2553627, "tags": {"alt_name": "\u0646\u0627\u062d\u064a\u0629 \u062d\u0645\u0627\u0645 \u0627\u0644\u0639\u0644\u064a\u0644", "capital": "7", "ele": "189", "int_name": "Ham\u0101m al Alil, Hamam Ali, \u1e28ammam al A\u012bl, \u1e28amm\u0101m al Al\u012bl, N\u0101\u1e29iyat \u1e28am\u0101m al Ulayl, \u0646\u0627\u062d\u064a\u0629 \u062d\u0645\u0627\u0645 \u0627\u0644\u0639\u0644\u064a\u0644, Hamam al Alil, Hamam Ali, Hammam al Ail, Hammam al Alil, Nahiyat Hamam al Ulayl, \u0646\u0627\u062d\u064a\u0629 \u062d\u0645\u0627\u0645 \u0627\u0644\u0639\u0644\u064a\u0644", "name": "\u0646\u0627\u062d\u064a\u0629 \u062d\u0645\u0627\u0645 \u0627\u0644\u0639\u0644\u064a\u0644", "name:ar": "\u0646\u0627\u062d\u064a\u0629 \u062d\u0645\u0627\u0645 \u0627\u0644\u0639\u0644\u064a\u0644", "name:de": "Hamam al Alil", "name:en": "Hamam al Alil", "name:fr": "Hamam al Alil", "name:ko": "\ud568\ub9d8 \uc54c \uc54c\ub9b4", "name:ml": "\u0d39\u0d2e\u0d3e\u0d02 \u0d05\u0d7d \u0d05\u0d32\u0d3f\u0d7d", "name:ru": "\u0425\u0430\u043c\u043c\u0430\u043c-\u044d\u043b\u044c-\u0410\u043b\u0438\u043b\u044c", "name:uk": "\u0425\u0430\u043c\u043c\u0430\u043c-\u0435\u043b\u044c-\u0410\u043b\u0456\u043b\u044c", "place": "town", "population": "25000", "population:date": "2016", "wikidata": "Q4495294"}}, {"type": "node", "id": 2484142377, "lat": 36.1468605, "lon": 43.2528538, "tags": {"alt_name": "\u062c\u0647\u064a\u0646\u0629", "int_name": "Jah\u012bnah, \u062c\u0647\u064a\u0646\u0629, Jahinah, \u062c\u0647\u064a\u0646\u0629", "name": "\u062c\u0647\u064a\u0646\u0629", "name:ar": "\u0623\u062f\u0644\u0627\u0648\u064a \u0627\u0644\u064a\u0648\u0633\u0641", "name:ar1": "\u062c\u0647\u064a\u0646\u0629", "name:de": "Jahinah", "name:en": "Odlaoa Yousuf", "name:fr": "Jahinah", "place": "village"}}, {"type": "node", "id": 2484142378, "lat": 36.130849, "lon": 43.258008, "tags": {"alt_name": "\u0642\u0631\u064a\u0629 \u062c\u0647\u064a\u0646\u0629", "int_name": "Qaryat Jah\u012bnah, \u0642\u0631\u064a\u0629 \u062c\u0647\u064a\u0646\u0629, Qaryat Jahinah, \u0642\u0631\u064a\u0629 \u062c\u0647\u064a\u0646\u0629", "name": "\u0642\u0631\u064a\u0629 \u062c\u0647\u064a\u0646\u0629", "name:ar": "\u0642\u0631\u064a\u0629 \u062c\u0647\u064a\u0646\u0629", "name:ar1": "\u0642\u0631\u064a\u0629 \u062c\u0647\u064a\u0646\u0629", "name:de": "Qaryat Jahinah", "name:en": "Qaryat Jahinah", "name:fr": "Qaryat Jahinah", "name:ku": "36.130849 43.258009", "place": "village"}}, {"type": "node", "id": 2484143530, "lat": 36.0933778, "lon": 43.3198949, "tags": {"alt_name": "\u0642\u0631\u064a\u0629 \u0627\u0644\u0646\u0639\u0645\u0627\u0646\u064a\u0629", "int_name": "Qaryat an Nam\u0101n\u012byah, \u0642\u0631\u064a\u0629 \u0627\u0644\u0646\u0639\u0645\u0627\u0646\u064a\u0629, Qaryat an Namaniyah, \u0642\u0631\u064a\u0629 \u0627\u0644\u0646\u0639\u0645\u0627\u0646\u064a\u0629", "name": "\u0642\u0631\u064a\u0629 \u0627\u0644\u0646\u0639\u0645\u0627\u0646\u064a\u0629", "name:ar": "\u0642\u0631\u064a\u0629 \u0627\u0644\u0646\u0639\u0645\u0627\u0646\u064a\u0629", "name:ar1": "\u0642\u0631\u064a\u0629 \u0627\u0644\u0646\u0639\u0645\u0627\u0646\u064a\u0629", "name:de": "Qaryat an Namaniyah", "name:en": "Qaryat an Namaniyah", "name:fr": "Qaryat an Namaniyah", "place": "village"}}, {"type": "node", "id": 2484143531, "lat": 36.1116174, "lon": 43.328688, "tags": {"alt_name": "\u0642\u0631\u064a\u0629 \u0627\u0644\u062a\u0648\u0641\u064a\u0642\u064a\u0629", "int_name": "Qaryat at Tawf\u012bq\u012byah, \u0642\u0631\u064a\u0629 \u0627\u0644\u062a\u0648\u0641\u064a\u0642\u064a\u0629, Qaryat at Tawfiqiyah, \u0642\u0631\u064a\u0629 \u0627\u0644\u062a\u0648\u0641\u064a\u0642\u064a\u0629", "name": "\u0642\u0631\u064a\u0629 \u0627\u0644\u062a\u0648\u0641\u064a\u0642\u064a\u0629", "name:ar": "\u0642\u0631\u064a\u0629 \u0627\u0644\u062a\u0648\u0641\u064a\u0642\u064a\u0629", "name:ar1": "\u0642\u0631\u064a\u0629 \u0627\u0644\u062a\u0648\u0641\u064a\u0642\u064a\u0629", "name:de": "Qaryat at Tawfiqiyah", "name:en": "Qaryat at Tawfiqiyah", "name:fr": "Qaryat at Tawfiqiyah", "place": "village"}}, {"type": "node", "id": 2484143819, "lat": 36.145513, "lon": 43.315879, "tags": {"alt_name": "\u0645\u0646\u0635\u0648\u0631\u064a\u0629 \u0627\u0644\u0633\u0644\u0627\u0645\u064a\u0629", "int_name": "Man\u015f\u016br\u012byat as Sal\u0101m\u012byah, \u0645\u0646\u0635\u0648\u0631\u064a\u0629 \u0627\u0644\u0633\u0644\u0627\u0645\u064a\u0629, Mansuriyat as Salamiyah, \u0645\u0646\u0635\u0648\u0631\u064a\u0629 \u0627\u0644\u0633\u0644\u0627\u0645\u064a\u0629", "name": "\u0645\u0646\u0635\u0648\u0631\u064a\u0629 \u0627\u0644\u0633\u0644\u0627\u0645\u064a\u0629", "name:ar": "\u0627\u0644\u0633\u0644\u0627\u0645\u064a\u0629", "name:ar1": "\u0645\u0646\u0635\u0648\u0631\u064a\u0629 \u0627\u0644\u0633\u0644\u0627\u0645\u064a\u0629", "name:de": "Mansuriyat as Salamiyah", "name:en": "Mansuriyat as Salamiyah", "name:fr": "Mansuriyat as Salamiyah", "place": "village"}}, {"type": "node", "id": 2484143851, "lat": 36.0778209, "lon": 43.2918258, "tags": {"alt_name": "\u0642\u0631\u064a\u0629 \u0643\u0637\u064a\u0629", "int_name": "Qaryat Ga\u0163\u012byah, \u0642\u0631\u064a\u0629 \u06af\u0637\u064a\u0629, Qaryat Gatiyah, \u0642\u0631\u064a\u0629 \u06af\u0637\u064a\u0629", "name": "\u0642\u0631\u064a\u0629 \u0643\u0637\u064a\u0629", "name:ar": "\u0642\u0631\u064a\u0629 \u0643\u0637\u064a\u0629", "name:ar1": "\u0642\u0631\u064a\u0629 \u0643\u0637\u064a\u0629", "name:de": "Qaryat Gatiyah", "name:en": "Qaryat Gatiyah", "name:fr": "Qaryat Gatiyah", "place": "village"}}, {"type": "node", "id": 2484143853, "lat": 36.100458, "lon": 43.311227, "tags": {"alt_name": "\u0642\u0631\u064a\u0629 \u0646\u0645\u0631\u0648\u062f", "capital": "7", "int_name": "Qaryat Nimr\u016bd, \u0642\u0631\u064a\u0629 \u0646\u0645\u0631\u0648\u062f, Qaryat Nimrud, \u0642\u0631\u064a\u0629 \u0646\u0645\u0631\u0648\u062f", "name": "\u0642\u0631\u064a\u0629 \u0646\u0645\u0631\u0648\u062f", "name:ar": "\u0642\u0631\u064a\u0629 \u0646\u0645\u0631\u0648\u062f", "name:de": "Qaryat Nimrud", "name:en": "Qaryat Nimrud", "name:fr": "Qaryat Nimrud", "place": "village"}}, {"type": "node", "id": 2484143859, "lat": 36.0774012, "lon": 43.333353, "tags": {"alt_name": "\u0642\u0631\u064a\u0629 \u0627\u0644\u0645\u0641\u062a\u064a\u0627\u062a", "int_name": "Qaryat al Muftiy\u0101t, \u0642\u0631\u064a\u0629 \u0627\u0644\u0645\u0641\u062a\u064a\u0627\u062a, Qaryat al Muftiyat, \u0642\u0631\u064a\u0629 \u0627\u0644\u0645\u0641\u062a\u064a\u0627\u062a", "name": "\u0642\u0631\u064a\u0629 \u0627\u0644\u0645\u0641\u062a\u064a\u0627\u062a", "name:ar": "\u0642\u0631\u064a\u0629 \u0627\u0644\u0645\u0641\u062a\u064a\u0627\u062a", "name:ar1": "\u0642\u0631\u064a\u0629 \u0627\u0644\u0645\u0641\u062a\u064a\u0627\u062a", "name:de": "Qaryat al Muftiyat", "name:en": "Qaryat al Muftiyat", "name:fr": "Qaryat al Muftiyat", "place": "village"}}, {"type": "node", "id": 2484148985, "lat": 36.0859132, "lon": 43.4112142, "tags": {"alt_name": "\u0643\u0627\u0646\u064a \u062d\u0631\u0627\u0645\u064a", "int_name": "K\u0101n\u012b \u1e28ar\u0101m\u012b, Kani Harami", "name": "\u06a9\u0627\u0646\u06cc \u062d\u06d5\u0631\u0627\u0645\u06cc", "name:ar": "\u0643\u0627\u0646\u064a \u062d\u0631\u0627\u0645\u064a", "name:de": "Kani Harami", "name:en": "Kani Harami", "name:fr": "Kani Harami", "place": "village"}}, {"type": "node", "id": 2484148988, "lat": 36.094887, "lon": 43.379082, "tags": {"alt_name": "\u0646\u06d5\u0645\u0631\u0648\u062f", "name": "\u0646\u06d5\u0645\u0631\u0648\u062f", "name:ar": "\u0646\u0645\u0631\u0648\u062f", "name:ckb": "\u0646\u06d5\u0645\u0631\u0648\u062f", "name:de": "Nemrud", "name:en": "Namrud", "name:fr": "Nemrud", "place": "village"}}, {"type": "node", "id": 2485315427, "lat": 36.2220393, "lon": 43.4145537, "tags": {"alt_name": "\u0628\u0627\u0644\u0627\u0648\u0627\u062a", "int_name": "B\u0101l\u0101w\u0101t, \u0628\u0627\u0644\u0627\u0648\u0627\u062a, Balawat, \u0628\u0627\u0644\u0627\u0648\u0627\u062a", "name": "\u0628\u0644\u0627\u0648\u0627\u062a / \u0723\u0718\u072a\u071d\u071d\u0710", "name:ar": "\u0628\u0644\u0627\u0648\u0627\u062a \u0639\u062f\u062f \u0627\u0644\u0646\u0641\u0648\u0633 175", "name:ar1": "\u0628\u0627\u0644\u0627\u0648\u0627\u062a", "name:arc": "\u0723\u0718\u072a\u071d\u071d\u0710", "name:de": "Balawat", "name:en": "Balawat", "name:fr": "Balawat", "place": "village", "wikidata": "Q1659846", "wikipedia": "ar:\u0628\u0644\u0627\u0648\u0627\u062a"}}, {"type": "node", "id": 2485315489, "lat": 36.213748, "lon": 43.378378, "tags": {"name": "\u06a9\u0627\u0631\u06ce\u0632", "name:de": "Kahariz", "name:en": "Kahariz", "name:fr": "Kahariz", "place": "village"}}, {"type": "node", "id": 2485315490, "lat": 36.1963664, "lon": 43.3994611, "tags": {"name": "\u0642\u06d5\u0631\u06d5 \u0634\u06c6\u0631", "name:ar": "\u0642\u0631\u0647 \u0634\u0648\u0631", "name:de": "Qaryat Qarah Shur", "name:en": "Qaryat Qarah Shur", "name:fr": "Qaryat Qarah Shur", "place": "village", "population": "1000"}}, {"type": "node", "id": 2485315495, "lat": 36.220129, "lon": 43.304204, "tags": {"alt_name": "\u0642\u0631\u064a\u0629 \u0637\u0648\u0627\u062c\u0646\u0629 \u0627\u0644\u062c\u062f\u064a\u062f\u0629", "int_name": "Qaryat \u0162aw\u0101jinat al Jad\u012bdah, \u0642\u0631\u064a\u0629 \u0637\u0648\u0627\u062c\u0646\u0629 \u0627\u0644\u062c\u062f\u064a\u062f\u0629, Qaryat Tawajinat al Jadidah, \u0642\u0631\u064a\u0629 \u0637\u0648\u0627\u062c\u0646\u0629 \u0627\u0644\u062c\u062f\u064a\u062f\u0629", "name": "\u0642\u0631\u064a\u0629 \u0637\u0648\u0627\u062c\u0646\u0629 \u0627\u0644\u062c\u062f\u064a\u062f\u0629", "name:ar": "\u0642\u0631\u064a\u0629 \u0637\u0648\u0627\u062c\u0646\u0629 \u0627\u0644\u062c\u062f\u064a\u062f\u0629 \u0639\u062f\u062f \u0627\u0644\u0646\u0641\u0648\u0633 150", "name:ar1": "\u0642\u0631\u064a\u0629 \u0637\u0648\u0627\u062c\u0646\u0629 \u0627\u0644\u062c\u062f\u064a\u062f\u0629", "name:de": "Qaryat Tawajinat al Jadidah", "name:en": "Qaryat Tawajinat al Jadidah", "name:fr": "Qaryat Tawajinat al Jadidah", "place": "village"}}, {"type": "node", "id": 2485315505, "lat": 36.193575, "lon": 43.341358, "tags": {"alt_name": "\u0626\u0648\u0645\u06d5\u0631\u06a9\u0627\u0646", "name": "\u0626\u06c6\u0645\u06d5\u0631\u06a9\u0627\u0646", "name:ar": "\u0639\u0645\u0631\u0643\u0627\u0646", "name:de": "Umarkan", "name:en": "Umarkan", "name:fr": "Umarkan", "place": "village", "population": "4500"}}, {"type": "node", "id": 2486391773, "lat": 36.139167, "lon": 43.002222, "tags": {"alt_name": "\u0642\u0631\u064a\u0629 \u0627\u0644\u062c\u0631\u0646", "int_name": "Jirin, Jurn, Qaryat al Jurn, \u062c\u0631\u0646, \u0642\u0631\u064a\u0629 \u0627\u0644\u062c\u0631\u0646, Jirin, Jurn, Qaryat al Jurn, \u062c\u0631\u0646, \u0642\u0631\u064a\u0629 \u0627\u0644\u062c\u0631\u0646", "name": "\u0627\u0644\u062c\u0631\u0646", "name:ar": "\u0627\u0644\u062c\u0631\u0646", "name:de": "Jirin", "name:en": "Jirin", "name:fr": "Jirin", "place": "village"}}, {"type": "node", "id": 2488215851, "lat": 36.5025, "lon": 42.909722, "tags": {"alt_name": "\u0643\u0641\u0631\u062c", "alt_name:en": "Kafrija", "int_name": "Kafrij, Kafrij", "is_in": "Iraq , \u062c\u0645\u0647\u0648\u0631\u064a\u0629 \u0627\u0644\u0639\u0631\u0627\u0642", "name": "\u0643\u0641\u0631\u062c", "name:ar": "\u0643\u0641\u0631\u062c", "name:de": "Kafrij", "name:en": "Kafrij", "name:fr": "Kafrij", "place": "village"}}, {"type": "node", "id": 2488215859, "lat": 36.4763399, "lon": 42.9755953}, {"type": "node", "id": 2488215872, "lat": 36.4873156, "lon": 42.951715, "tags": {"alt_name": "\u0645\u0644\u0627 \u0627\u0644\u0639\u0644\u064a\u0627", "int_name": "Mall\u0101 Uly\u0101, Mall\u0101h Uliya, Mull\u0101 al Uly\u0101, \u0645\u0644\u0627 \u0627\u0644\u0639\u0644\u064a\u0627, Malla Ulya, Mallah Uliya, Mulla al Ulya, \u0645\u0644\u0627 \u0627\u0644\u0639\u0644\u064a\u0627", "is_in": "Iraq , \u062c\u0645\u0647\u0648\u0631\u064a\u0629 \u0627\u0644\u0639\u0631\u0627\u0642", "name": "\u0645\u0644\u0627 \u0627\u0644\u0639\u0644\u064a\u0627", "name:ar": "\u0645\u0644\u0627 \u0627\u0644\u0639\u0644\u064a\u0627", "name:ar1": "\u0645\u0644\u0627 \u0627\u0644\u0639\u0644\u064a\u0627", "name:de": "Malla Ulya", "name:en": "Malla Ulya", "name:fr": "Malla Ulya", "place": "village"}}, {"type": "node", "id": 2488215950, "lat": 36.440175, "lon": 42.914659, "tags": {"alt_name": "\u064a\u0648\u062a\u064a\u0631", "int_name": "Y\u016bt\u012br, \u064a\u0648\u062a\u064a\u0631, Yutir, \u064a\u0648\u062a\u064a\u0631", "is_in": "Iraq , \u062c\u0645\u0647\u0648\u0631\u064a\u0629 \u0627\u0644\u0639\u0631\u0627\u0642", "name": "\u0628\u0648\u062a\u064a\u0631", "name:ar": "\u064a\u0648\u062a\u064a\u0631", "name:ar1": "\u064a\u0648\u062a\u064a\u0631", "name:de": "Yutir", "name:en": "Yutir", "name:fr": "Yutir", "place": "village"}}, {"type": "node", "id": 2488215955, "lat": 36.4724791, "lon": 42.964595, "tags": {"alt_name": "\u0627\u0631\u062d\u064a\u0646\u0629", "int_name": "\u0627\u0631\u062d\u064a\u0646\u0629, \u0627\u0631\u062d\u064a\u0646\u0629", "is_in": "Iraq , \u062c\u0645\u0647\u0648\u0631\u064a\u0629 \u0627\u0644\u0639\u0631\u0627\u0642", "name": "\u0627\u0631\u062d\u064a\u0646\u0629", "name:ar": "\u0627\u0631\u062d\u064a\u0646\u0629", "name:ar1": "\u0627\u0631\u062d\u064a\u0646\u0629", "name:de": "\u0627\u0631\u062d\u064a\u0646\u0629", "name:en": "rest", "name:fr": "\u0627\u0631\u062d\u064a\u0646\u0629", "place": "village"}}, {"type": "node", "id": 2488231221, "lat": 36.244061, "lon": 43.447031, "tags": {"alt_name": "\u0642\u0631\u064a\u0629 \u0643\u0628\u0631\u0644\u064a", "int_name": "Qaryat Kabarl\u012b, \u0642\u0631\u064a\u0629 \u0643\u0628\u0631\u0644\u064a, Qaryat Kabarli, \u0642\u0631\u064a\u0629 \u0643\u0628\u0631\u0644\u064a", "name": "\u0642\u0631\u064a\u0629 \u0643\u0628\u0631\u0644\u064a", "name:ar": "\u0642\u0631\u064a\u0629 \u0643\u0628\u0631\u0644\u064a \u0639\u062f\u062f \u0627\u0644\u0646\u0641\u0648\u0633 4000", "name:ar1": "\u0642\u0631\u064a\u0629 \u0643\u0628\u0631\u0644\u064a", "name:de": "Qaryat Kabarli", "name:en": "Kaberli village", "name:fa": "\u0647\u0648\u0632\u0649 \u0643\u0628\u0631\u0644\u0649", "name:fr": "Qaryat Kabarli", "name:ku": "\u0647\u0648\u0632\u0649 \u0643\u0628\u0631\u0644\u0649", "place": "village"}}, {"type": "node", "id": 2488231719, "lat": 36.3540175, "lon": 43.3816145, "tags": {"alt_name": "Baretle, Bar\u0163alah, Bar\u0163allah, Bartila, \u0628\u0631\u0637\u0644\u0629, Bard Allah, Bartalah, Bartallah, \u0628\u06d5\u0631\u062a\u0644\u06d5", "capital": "7", "name": "\u0712\u072a\u071b\u0720\u0710 / \u0628\u0631\u0637\u0644\u0629", "name:ar": "\u0628\u0631\u0637\u0644\u0629", "name:arc": "\u0712\u072a\u071b\u0720\u0710", "name:ckb": "\u0628\u06d5\u0631\u062a\u0644\u06d5", "name:de": "Bartella", "name:en": "Bartella", "name:fr": "Bartella", "place": "town", "population": "63000", "population:date": "2014", "source:population": "https://ar.wikipedia.org/wiki/%D8%A8%D8%B1%D8%B7%D9%84%D8%A9", "wikidata": "Q2619715", "wikipedia": "en:Bartella"}}, {"type": "node", "id": 2488231883, "lat": 36.41649, "lon": 43.401075, "tags": {"alt_name": "\u0642\u0631\u064a\u0629 \u0628\u0626\u0631 \u062d\u0644\u0627\u0646", "int_name": "Qaryat B\u012br \u1e28all\u0101n, \u0642\u0631\u064a\u0629 \u0628\u064a\u0631 \u062d\u0644\u0627\u0646, Qaryat Bir Hallan, \u0642\u0631\u064a\u0629 \u0628\u064a\u0631 \u062d\u0644\u0627\u0646", "is_in": "Iraq , \u062c\u0645\u0647\u0648\u0631\u064a\u0629 \u0627\u0644\u0639\u0631\u0627\u0642", "name": "\u0642\u0631\u064a\u0629 \u0628\u0626\u0631 \u062d\u0644\u0627\u0646", "name:ar": "\u0628\u06cc\u0631 \u062d\u0644\u0627\u0646", "name:ar1": "\u0642\u0631\u064a\u0629 \u0628\u0626\u0631 \u062d\u0644\u0627\u0646", "name:de": "Qaryat Bir Hallan", "name:en": "Qaryat Bir Hallan", "name:fr": "Qaryat Bir Hallan", "place": "village"}}, {"type": "node", "id": 2488231894, "lat": 36.452512, "lon": 43.405673, "tags": {"alt_name": "\u0642\u0631\u064a\u0629 \u0642\u0648\u0628\u0627\u0646", "int_name": "Qaryat Q\u016bb\u0101n, \u0642\u0631\u064a\u0629 \u0642\u0648\u0628\u0627\u0646, Qaryat Quban, \u0642\u0631\u064a\u0629 \u0642\u0648\u0628\u0627\u0646", "is_in": "Iraq , \u062c\u0645\u0647\u0648\u0631\u064a\u0629 \u0627\u0644\u0639\u0631\u0627\u0642", "name": "\u0642\u0631\u064a\u0629 \u0642\u0648\u0628\u0627\u0646", "name:ar": "\u0642\u06c6\u067e\u0627\u0646", "name:ar1": "\u0642\u0631\u064a\u0629 \u0642\u0648\u0628\u0627\u0646", "name:de": "Qaryat Quban", "name:en": "Qaryat Quban", "name:fr": "Qaryat Quban", "place": "village"}}, {"type": "node", "id": 2488231922, "lat": 36.4109512, "lon": 43.3793534, "tags": {"alt_name": "\u062a\u064a\u0633\u062e\u0631\u0627\u0628 \u0643\u0628\u064a\u0631", "int_name": "T\u012bskhar\u0101b Kab\u012br, \u062a\u064a\u0633\u062e\u0631\u0627\u0628 \u0643\u0628\u064a\u0631, Tiskharab Kabir, \u062a\u064a\u0633\u062e\u0631\u0627\u0628 \u0643\u0628\u064a\u0631", "is_in": "Iraq , \u062c\u0645\u0647\u0648\u0631\u064a\u0629 \u0627\u0644\u0639\u0631\u0627\u0642", "name": "\u062a\u064a\u0633\u062e\u0631\u0627\u0628 \u0643\u0628\u064a\u0631", "name:ar": "\u062a\u064a\u0633\u062e\u0631\u0627\u0628 \u0643\u0628\u064a\u0631 \u0639\u062f\u062f \u0627\u0644\u0646\u0641\u0648\u0633 2000", "name:ar1": "\u062a\u064a\u0633\u062e\u0631\u0627\u0628 \u0643\u0628\u064a\u0631", "name:de": "Tiskharab Kabir", "name:en": "Tiskharab Kabir", "name:fr": "Tiskharab Kabir", "name:ku": "\u0643\u0648\u0646\u062f\u064a \u062a\u064a\u0633\u062e\u0631\u0627\u0628 \u0643\u0647 \u0648\u0631\u0647", "place": "village"}}, {"type": "node", "id": 2488231927, "lat": 36.401302, "lon": 43.377149, "tags": {"alt_name": "\u062a\u064a\u0633\u062e\u0631\u0627\u0628 \u0635\u063a\u064a\u0631", "int_name": "T\u012bskhar\u0101b \u015eagh\u012br, \u062a\u064a\u0633\u062e\u0631\u0627\u0628 \u0635\u063a\u064a\u0631, Tiskharab Saghir, \u062a\u064a\u0633\u062e\u0631\u0627\u0628 \u0635\u063a\u064a\u0631", "is_in": "Iraq , \u062c\u0645\u0647\u0648\u0631\u064a\u0629 \u0627\u0644\u0639\u0631\u0627\u0642", "name": "\u062a\u064a\u0633\u062e\u0631\u0627\u0628 \u0635\u063a\u064a\u0631", "name:ar": "\u062a\u064a\u0633\u062e\u0631\u0627\u0628 \u0635\u063a\u064a\u0631 \u0639\u062f\u062f \u0627\u0644\u0646\u0641\u0648\u0633 400", "name:ar1": "\u062a\u064a\u0633\u062e\u0631\u0627\u0628 \u0635\u063a\u064a\u0631", "name:de": "Tiskharab Saghir", "name:en": "Tiskharab Saghir", "name:fr": "Tiskharab Saghir", "name:ku": "\u0643\u0648\u0646\u062f\u064a \u062a\u064a\u0633\u062e\u0631\u0627\u0628 \u0643\u062c\u0643\u0647", "place": "village"}}, {"type": "node", "id": 2488245753, "lat": 36.3105109, "lon": 42.9238171, "tags": {"alt_name": "\u0627\u0644\u062f\u0631\u0646\u0627\u062c", "int_name": "Ad Dirn\u0101j, Darn\u0101q, \u0627\u0644\u062f\u0631\u0646\u0627\u062c, Ad Dirnaj, Darnaq, \u0627\u0644\u062f\u0631\u0646\u0627\u062c", "name": "\u0627\u0644\u062f\u0631\u0646\u0627\u062c", "name:ar": "\u0627\u0644\u062f\u0631\u0646\u0627\u062c", "name:ar1": "\u0627\u0644\u062f\u0631\u0646\u0627\u062c", "name:de": "Ad Dirnaj", "name:en": "Ad Dirnaj", "name:fr": "Ad Dirnaj", "place": "village"}}, {"type": "node", "id": 2488245886, "lat": 36.2790923, "lon": 42.944309, "tags": {"alt_name": "\u0627\u0644\u0633\u062d\u0627\u062c\u064a", "int_name": "As Sa\u1e29\u0101j\u012b, Sahaji, \u0627\u0644\u0633\u062d\u0627\u062c\u064a, As Sahaji, Sahaji, \u0627\u0644\u0633\u062d\u0627\u062c\u064a", "name": "\u0627\u0644\u0633\u062d\u0627\u062c\u064a", "name:ar": "\u0627\u0644\u0633\u062d\u0627\u062c\u064a", "name:ar1": "\u0627\u0644\u0633\u062d\u0627\u062c\u064a", "name:de": "As Sahaji", "name:en": "As Sahaji", "name:fr": "As Sahaji", "place": "village"}}, {"type": "node", "id": 2488245964, "lat": 36.2154011, "lon": 43.0408597, "tags": {"alt_name": "\u0628\u062e\u064a\u0631\u0629", "int_name": "Bakhaira, Bakhaira;Qaryat B\u0101kh\u012brah, \u0642\u0631\u064a\u0629 \u0628\u0627\u062e\u064a\u0631\u0647, Qaryat Bakhirah, \u0642\u0631\u064a\u0629 \u0628\u0627\u062e\u064a\u0631\u0647;Qaryat B\u0101khibrah, \u0642\u0631\u064a\u0629 \u0628\u0627\u062e\u0628\u0631\u0647, Qaryat Bakhibrah, \u0642\u0631\u064a\u0629 \u0628\u0627\u062e\u0628\u0631\u0647", "name": "\u0628\u062e\u064a\u0631\u0629", "name:ar": "\u0628\u062e\u064a\u0631\u0629", "name:de": "Bakhaira", "name:en": "Bakhaira", "name:fr": "Bakhaira", "place": "village"}}, {"type": "node", "id": 2488246674, "lat": 36.466111, "lon": 43.219438, "tags": {"alt_name": "\u0639\u0628\u0627\u0633 \u062d\u0633\u064a\u0646", "int_name": "Abb\u0101s \u1e28usayn, \u0639\u0628\u0627\u0633 \u062d\u0633\u064a\u0646, Abbas Husayn, \u0639\u0628\u0627\u0633 \u062d\u0633\u064a\u0646", "is_in": "Iraq , \u062c\u0645\u0647\u0648\u0631\u064a\u0629 \u0627\u0644\u0639\u0631\u0627\u0642", "name": "\u0639\u0628\u0627\u0633 \u062d\u0633\u064a\u0646", "name:ar": "\u062d\u064a \u0627\u0644\u0639\u0633\u0643\u0631\u064a ) \u062e\u0631\u0645\u0627\u0646\u0643\u0644 (", "name:ar1": "\u0639\u0628\u0627\u0633 \u062d\u0633\u064a\u0646", "name:de": "Abbas Husayn", "name:en": "village Baybukh", "name:fr": "Abbas Husayn", "name:ku": "\u0643\u0648\u0646\u062f\u0649 \u0628\u06d5\u062c\u06d5\u0644\u0627\u0646", "place": "village"}}, {"type": "node", "id": 2488246676, "lat": 36.273488, "lon": 43.162365, "tags": {"alt_name": "\u0628\u0644\u0643", "int_name": "Abu Saif, Alb\u016b Sayf, Qaryat \u0100lb\u016b Sayf, \u0642\u0631\u064a\u0629\u0627\u0644\u0628\u0648 \u0633\u064a\u0641, Abu Saif, Albu Sayf, Qaryat Albu Sayf, \u0642\u0631\u064a\u0629\u0627\u0644\u0628\u0648 \u0633\u064a\u0641", "name": "\u0627\u0644\u0628\u0648 \u0633\u064a\u0641", "name:ar": "\u0628\u0644\u0643", "name:ar1": "\u0628\u0644\u0643", "name:de": "Abu Saif", "name:en": "Abu Saif", "name:fr": "Abu Saif", "name:ru": "\u0410\u043b\u044c\u0431\u0443-\u0421\u0435\u0439\u0444", "place": "village"}}, {"type": "node", "id": 2488246694, "lat": 36.2861255, "lon": 43.2938945, "tags": {"alt_name": "\u0639\u06d5\u0644\u06cc\u06cc\u06d5 \u0695\u06d5\u0634", "description": "\u064a\u0642\u0637\u0646\u0647\u0627 \u0633\u0643\u0627\u0646 \u0645\u0646 \u0642\u0648\u0645\u064a\u0629 \u0627\u0644\u0634\u0628\u0643 \u0639\u062f\u062f \u0627\u0644\u0646\u0641\u0648\u0633 6000 \u062a\u0642\u0631\u064a\u0628\u0627", "name": "\u0639\u06d5\u0644\u06cc\u06cc\u06d5 \u0695\u06d5\u0634", "name:ar": "\u0639\u0644\u064a \u0631\u0634", "name:ckb": "\u0639\u06d5\u0644\u06cc\u06cc\u06d5 \u0695\u06d5\u0634", "name:de": "Aliya Rash", "name:en": "Ali Rash shabak", "name:fr": "Aliya Rash", "name:ku": "\u0639\u06d5\u0644\u06cc\u06cc\u06d5 \u0695\u06d5\u0634", "place": "village", "population": "3500"}}, {"type": "node", "id": 2488246724, "lat": 36.337907, "lon": 43.126924, "tags": {"alt_name": "\u0628\u0627\u0628 \u0627\u0644\u0637\u0648\u0628", "int_name": "B\u0101b a\u0163 \u0162awb, \u0628\u0627\u0628 \u0627\u0644\u0637\u0648\u0628, Bab at Tawb, \u0628\u0627\u0628 \u0627\u0644\u0637\u0648\u0628", "name": "Bab Al-Tuwb", "name:ar": "\u0628\u0627\u0628 \u0627\u0644\u0637\u0648\u0628", "name:ar1": "\u0628\u0627\u0628 \u0627\u0644\u0637\u0648\u0628", "name:de": "Bab at Tawb", "name:en": "Bab at Tawb", "name:fr": "Bab at Tawb", "place": "hamlet"}}, {"type": "node", "id": 2488246726, "lat": 36.460973, "lon": 43.338964, "tags": {"alt_name": "\u0642\u0631\u064a\u0629 \u0628\u062c\u0632\u0627\u0646\u064a", "int_name": "Bahz\u0101n, Bahzani, Qaryat Bajz\u0101n\u012b, \u0642\u0631\u064a\u0629 \u0628\u062c\u0632\u0627\u0646\u064a, Bahzan, Bahzani, Qaryat Bajzani, \u0642\u0631\u064a\u0629 \u0628\u062c\u0632\u0627\u0646\u064a", "is_in": "Iraq , \u062c\u0645\u0647\u0648\u0631\u064a\u0629 \u0627\u0644\u0639\u0631\u0627\u0642", "name": "\u0712\u071d\u072c \u071a\u0719\u0722\u0710 / \u0628\u062d\u0632\u0627\u0646\u064a", "name:ar": "\u0628\u062d\u0632\u0627\u0646\u064a", "name:ar1": "\u0628\u062c\u0632\u0627\u0646\u064a", "name:arc": "\u0712\u071d\u072c \u071a\u0719\u0722\u0710", "name:ckb": "\u0628\u0647\u200c\u062d\u0632\u0627\u0646\u06cc", "name:de": "Bahzan", "name:en": "Bahzan", "name:fr": "Bahzan", "place": "village", "wikidata": "Q4842944"}}, {"type": "node", "id": 2488246733, "lat": 36.33456, "lon": 43.356283, "tags": {"alt_name": "\u0628\u0627\u0634\u0628\u06cc\u062a\u06d5", "name": "\u0628\u0627\u0634\u0628\u06cc\u062a\u06d5", "name:ar": "\u0628\u0627\u0634\u0628\u064a\u062a\u0629", "name:ckb": "\u0628\u0627\u0634\u0628\u06cc\u062a\u06d5", "name:de": "Bashbitah", "name:en": "Bashbitah", "name:fr": "Bashbitah", "place": "village", "population": "2000"}}, {"type": "node", "id": 2488246737, "lat": 36.4322144, "lon": 43.1581225, "tags": {"alt_name": "\u0642\u0631\u064a\u0629 \u0628\u0639\u0648\u064a\u062f\u0629", "int_name": "Baw\u012bzah, Qaryat Baw\u012bdah, \u0642\u0631\u064a\u0629 \u0628\u0639\u0648\u064a\u062f\u0629, Bawizah, Qaryat Bawidah, \u0642\u0631\u064a\u0629 \u0628\u0639\u0648\u064a\u062f\u0629", "is_in": "Iraq , \u062c\u0645\u0647\u0648\u0631\u064a\u0629 \u0627\u0644\u0639\u0631\u0627\u0642", "name": "\u0628\u0639\u0648\u064a\u0632\u0629", "name:ar": "\u0628\u0639\u0648\u064a\u0632\u0629", "name:ar1": "\u0642\u0631\u064a\u0629 \u0628\u0639\u0648\u064a\u062f\u0629", "name:de": "Bawizah", "name:en": "Bawizah", "name:fr": "Bawizah", "place": "village"}}, {"type": "node", "id": 2488246742, "lat": 36.3689154, "lon": 43.2935969, "tags": {"alt_name": "\u0642\u0631\u064a\u0629 \u0628\u0627\u0632\u0648\u0627\u064a\u0627", "int_name": "B\u0101zw\u0101ya, B\u0101zw\u0101yah, Qaryat B\u0101zw\u0101y\u0101, \u0642\u0631\u064a\u0629 \u0628\u0627\u0632\u0648\u0627\u064a\u0627, Bazwaya, Bazwayah, Qaryat Bazwaya, \u0642\u0631\u064a\u0629 \u0628\u0627\u0632\u0648\u0627\u064a\u0627", "is_in": "Iraq , \u062c\u0645\u0647\u0648\u0631\u064a\u0629 \u0627\u0644\u0639\u0631\u0627\u0642", "name": "\u0628\u0627\u0632\u0648\u0627\u06cc\u0627", "name:ar": "\u0628\u0627\u0632\u0648\u0627\u064a\u0627", "name:ar1": "\u0642\u0631\u064a\u0629 \u0628\u0627\u0632\u0648\u0627\u064a\u0627", "name:de": "Bazwaya", "name:en": "Bazwaya", "name:fr": "Bazwaya", "name:ku": "\u0628\u0627\u0632\u064a\u0648\u0647", "place": "village"}}, {"type": "node", "id": 2488246892, "lat": 36.397285, "lon": 43.284243, "tags": {"alt_name": "\u0643\u0648\u0631\u064a \u063a\u0631\u064a\u0628\u0627\u0646", "int_name": "G\u016brah Khayrab\u0101n, K\u016br\u012b Ghar\u012bb\u0101n, \u0643\u0648\u0631\u064a \u063a\u0631\u064a\u0628\u0627\u0646, Gurah Khayraban, Kuri Ghariban, \u0643\u0648\u0631\u064a \u063a\u0631\u064a\u0628\u0627\u0646", "is_in": "Iraq , \u062c\u0645\u0647\u0648\u0631\u064a\u0629 \u0627\u0644\u0639\u0631\u0627\u0642", "name": "\u0643\u0648\u0631\u064a \u063a\u0631\u064a\u0628\u0627\u0646", "name:ar": "\u0643\u0648\u0631\u064a \u063a\u0631\u064a\u0628\u0627\u0646 \u0639\u062f\u062f \u0627\u0644\u0646\u0641\u0648\u0633 2750", "name:ar1": "\u0643\u0648\u0631\u064a \u063a\u0631\u064a\u0628\u0627\u0646", "name:de": "Gurah Khayraban", "name:en": "Gurah Khayraban", "name:fr": "Gurah Khayraban", "place": "village"}}, {"type": "node", "id": 2488246898, "lat": 36.310139, "lon": 43.194511, "tags": {"alt_name": "\u062d\u064a \u0641\u0644\u0633\u0637\u064a\u0646", "int_name": "\u1e28ayy Filas\u0163\u012bn, \u062d\u064a \u0641\u0644\u0633\u0637\u064a\u0646, Hayy Filastin, \u062d\u064a \u0641\u0644\u0633\u0637\u064a\u0646", "name": "\u062d\u064a \u0641\u0644\u0633\u0637\u064a\u0646", "name:ar": "\u062f\u0648\u0645\u064a\u0632", "name:ar1": "\u062d\u064a \u0641\u0644\u0633\u0637\u064a\u0646", "name:de": "Hayy Filastin", "name:en": "Hayy domez", "name:fr": "Hayy Filastin", "place": "hamlet"}}, {"type": "node", "id": 2488246907, "lat": 36.34677, "lon": 43.214542, "tags": {"alt_name": "\u062d\u064a \u0627\u0644\u0643\u0631\u0627\u0645\u0629", "int_name": "\u1e28ayy al Kar\u0101mah, \u062d\u064a \u0627\u0644\u0643\u0631\u0627\u0645\u0629, Hayy al Karamah, \u062d\u064a \u0627\u0644\u0643\u0631\u0627\u0645\u0629", "name": "\u062d\u064a \u0627\u0644\u0643\u0631\u0627\u0645\u0629", "name:ar": "\u0627\u0644\u0643\u0631\u0627\u0645\u0647", "name:ar1": "\u062d\u064a \u0627\u0644\u0643\u0631\u0627\u0645\u0629", "name:de": "Hayy al Karamah", "name:en": "Hayy al Karamah", "name:fr": "Hayy al Karamah", "place": "hamlet"}}, {"type": "node", "id": 2488246908, "lat": 36.349071, "lon": 43.167827, "tags": {"alt_name": "\u062d\u064a \u0627\u0644\u0645\u0627\u0644\u064a\u0629", "int_name": "\u1e28ayy al M\u0101l\u012byah, \u062d\u064a \u0627\u0644\u0645\u0627\u0644\u064a\u0629, Hayy al Maliyah, \u062d\u064a \u0627\u0644\u0645\u0627\u0644\u064a\u0629", "name": "\u062d\u064a \u0627\u0644\u0645\u0627\u0644\u064a\u0629", "name:ar": "\u062d\u064a \u0646\u064a\u0646\u0648\u0649 \u0627\u0644\u0634\u0631\u0642\u064a\u0629", "name:ar1": "\u062d\u064a \u0627\u0644\u0645\u0627\u0644\u064a\u0629", "name:de": "Hayy al Maliyah", "name:en": "Hayy al Maliyah", "name:fr": "Hayy al Maliyah", "place": "hamlet"}}, {"type": "node", "id": 2488246917, "lat": 36.391579, "lon": 43.16177, "tags": {"alt_name": "\u062d\u064a \u0627\u0644\u0645\u062d\u0627\u0641\u0638\u0629", "int_name": "\u1e28ayy al Mu\u1e29\u0101faz\u0327ah, \u062d\u064a \u0627\u0644\u0645\u062d\u0627\u0641\u0638\u0629, Hayy al Muhafazah, \u062d\u064a \u0627\u0644\u0645\u062d\u0627\u0641\u0638\u0629", "is_in": "Iraq , \u062c\u0645\u0647\u0648\u0631\u064a\u0629 \u0627\u0644\u0639\u0631\u0627\u0642", "name": "\u062d\u064a \u0627\u0644\u0645\u062d\u0627\u0641\u0638\u0629", "name:ar": "\u062d\u064a \u0627\u0644\u0635\u062f\u064a\u0642", "name:ar1": "\u062d\u064a \u0627\u0644\u0645\u062d\u0627\u0641\u0638\u0629", "name:de": "Hayy al Muhafazah", "name:en": "Hayy al Muhafazah", "name:fr": "Hayy al Muhafazah", "place": "hamlet"}}, {"type": "node", "id": 2488246918, "lat": 36.372462, "lon": 43.174418, "tags": {"alt_name": "\u0628\u063a\u062f\u0627\u062f \u0632\u064a\u0648\u0646\u0629", "int_name": "\u1e28ayy al Muthann\u00e1, \u062d\u064a \u0627\u0644\u0645\u062b\u0646\u0649, Hayy al Muthanna, \u062d\u064a \u0627\u0644\u0645\u062b\u0646\u0649", "is_in": "Iraq , \u062c\u0645\u0647\u0648\u0631\u064a\u0629 \u0627\u0644\u0639\u0631\u0627\u0642", "name": "\u062d\u064a \u0627\u0644\u0645\u062b\u0646\u0649", "name:ar": "\u062d\u064a \u0627\u0644\u0645\u062b\u0646\u0649", "name:ar1": "\u062d\u064a \u0627\u0644\u0645\u062b\u0646\u0649", "name:de": "Hayy al Muthanna", "name:en": "Hayy al Muthanna", "name:fr": "Hayy al Muthanna", "place": "hamlet"}}, {"type": "node", "id": 2488246921, "lat": 36.321909, "lon": 43.199228, "tags": {"alt_name": "\u062d\u064a \u0627\u0644\u0648\u062d\u062f\u0629", "int_name": "\u1e28ayy al Wa\u1e29dah, \u062d\u064a \u0627\u0644\u0648\u062d\u062f\u0647, Hayy al Wahdah, \u062d\u064a \u0627\u0644\u0648\u062d\u062f\u0647", "name": "\u062d\u064a \u0627\u0644\u0648\u062d\u062f\u0629", "name:ar": "\u062d\u064a \u0627\u0644\u0648\u062d\u062f\u06291", "name:ar1": "\u062d\u064a \u0627\u0644\u0648\u062d\u062f\u0629", "name:de": "Hayy al Wahdah", "name:en": "Hayy al Wahdah", "name:fr": "Hayy al Wahdah", "place": "hamlet"}}, {"type": "node", "id": 2488246924, "lat": 36.339264, "lon": 43.061893, "tags": {"alt_name": "\u062d\u064a \u0627\u0644\u0646\u0635\u0631", "int_name": "\u1e28ayy an Na\u015fr, \u062d\u064a \u0627\u0644\u0646\u0635\u0631, Hayy an Nasr, \u062d\u064a \u0627\u0644\u0646\u0635\u0631", "name": "\u062d\u064a \u0627\u0644\u0646\u0635\u0631", "name:ar": "\u062d\u064a \u0627\u0644\u0646\u0647\u0631\u0648\u0627\u0646", "name:ar1": "\u062d\u064a \u0627\u0644\u0646\u0635\u0631", "name:de": "Hayy an Nasr", "name:en": "Hayy an Nasr", "name:fr": "Hayy an Nasr", "place": "hamlet"}}, {"type": "node", "id": 2488246927, "lat": 36.3598878, "lon": 43.0944572, "tags": {"alt_name": "\u062d\u064a \u0627\u0644\u0631\u0628\u064a\u0639", "int_name": "\u1e28ayy ar Rab\u012b, \u062d\u064a \u0627\u0644\u0631\u0628\u064a\u0639, Hayy ar Rabi, \u062d\u064a \u0627\u0644\u0631\u0628\u064a\u0639", "name": "\u062d\u064a \u0627\u0644\u0631\u0628\u064a\u0639", "name:ar": "\u062d\u064a \u0627\u0644\u0631\u0628\u064a\u0639", "name:ar1": "\u062d\u064a \u0627\u0644\u0631\u0628\u064a\u0639", "name:en": "Hayy ar Rabi", "place": "hamlet"}}, {"type": "node", "id": 2488246934, "lat": 36.339579, "lon": 43.099072, "tags": {"alt_name": "\u062d\u064a \u0627\u0644\u0633\u0643\u0643", "int_name": "\u1e28ayy as Sikkak, \u062d\u064a \u0627\u0644\u0633\u0643\u0643, Hayy as Sikkak, \u062d\u064a \u0627\u0644\u0633\u0643\u0643", "name": "\u062d\u064a \u0627\u0644\u0633\u0643\u0643", "name:ar": "\u062d\u064a \u0627\u0644\u0639\u0631\u0648\u0628\u0629", "name:ar1": "\u062d\u064a \u0627\u0644\u0633\u0643\u0643", "name:de": "Hayy as Sikkak", "name:en": "Hayy al-Auropa", "name:fr": "Hayy as Sikkak", "place": "hamlet"}}, {"type": "node", "id": 2488246936, "lat": 36.372135, "lon": 43.20046, "tags": {"alt_name": "\u062d\u064a \u0627\u0644\u062a\u062d\u0631\u064a\u0631", "int_name": "\u1e28ayy at Ta\u1e29r\u012br, \u062d\u064a \u0627\u0644\u062a\u062d\u0631\u064a\u0631, Hayy at Tahrir, \u062d\u064a \u0627\u0644\u062a\u062d\u0631\u064a\u0631", "is_in": "Iraq , \u062c\u0645\u0647\u0648\u0631\u064a\u0629 \u0627\u0644\u0639\u0631\u0627\u0642", "name": "\u0627\u0631\u0628\u062c\u064a\u0629", "name:ar": "\u062d\u064a \u0627\u0644\u062a\u062d\u0631\u064a\u0631", "name:ar1": "\u062d\u064a \u0627\u0644\u062a\u062d\u0631\u064a\u0631", "name:de": "Hayy at Tahrir", "name:en": "Hayy at Tahrir", "name:fr": "Hayy at Tahrir", "place": "hamlet"}}, {"type": "node", "id": 2488246941, "lat": 36.344359, "lon": 43.105309, "tags": {"alt_name": "\u062d\u064a \u0627\u0644\u062b\u0648\u0631\u0629", "int_name": "\u1e28ayy ath Thawrah, \u062d\u064a \u0627\u0644\u062b\u0648\u0631\u0629, Hayy ath Thawrah, \u062d\u064a \u0627\u0644\u062b\u0648\u0631\u0629", "name": "\u062d\u064a \u0627\u0644\u062b\u0648\u0631\u0629", "name:ar": "\u062d\u064a \u0627\u0644\u062b\u0648\u0631\u0629", "name:ar1": "\u062d\u064a \u0627\u0644\u062b\u0648\u0631\u0629", "name:de": "Hayy ath Thawrah", "name:en": "Al- Thawra Quarter", "name:fr": "Hayy ath Thawrah", "place": "hamlet"}}, {"type": "node", "id": 2488246962, "lat": 36.3323587, "lon": 43.0651564, "tags": {"alt_name": "\u0643\u0647\u0631\u0628\u0627\u0621 \u0627\u0644\u064a\u0631\u0645\u0648\u0643", "int_name": "Kahrab\u0101 al Yarm\u016bk, \u0643\u0647\u0631\u0628\u0627\u0621 \u0627\u0644\u064a\u0631\u0645\u0648\u0643, Kahraba al Yarmuk, \u0643\u0647\u0631\u0628\u0627\u0621 \u0627\u0644\u064a\u0631\u0645\u0648\u0643", "name": "\u0643\u0647\u0631\u0628\u0627\u0621 \u0627\u0644\u064a\u0631\u0645\u0648\u0643", "name:ar": "\u0643\u0647\u0631\u0628\u0627\u0621 \u0627\u0644\u064a\u0631\u0645\u0648\u0643", "name:ar1": "\u0643\u0647\u0631\u0628\u0627\u0621 \u0627\u0644\u064a\u0631\u0645\u0648\u0643", "name:de": "Kahraba al Yarmuk", "name:en": "Kahraba al Yarmuk", "name:fr": "Kahraba al Yarmuk", "place": "village"}}, {"type": "node", "id": 2488246972, "lat": 36.390198, "lon": 43.077707, "tags": {"alt_name": "\u0642\u0631\u064a\u0629 \u0627\u0644\u0643\u0646\u064a\u0633\u0629", "int_name": "Kan\u012bsah, Qaryat al Kan\u012bsah, \u0642\u0631\u064a\u0629 \u0627\u0644\u0643\u0646\u064a\u0633\u0629, Kanisah, Qaryat al Kanisah, \u0642\u0631\u064a\u0629 \u0627\u0644\u0643\u0646\u064a\u0633\u0629", "is_in": "Iraq , \u062c\u0645\u0647\u0648\u0631\u064a\u0629 \u0627\u0644\u0639\u0631\u0627\u0642", "name": "\u0642\u0631\u064a\u0629 \u062d\u0627\u0648\u064a \u0627\u0644\u0643\u0646\u064a\u0633\u0629", "name:ar": "\u0642\u0631\u064a\u0629 \u0627\u0644\u0643\u0646\u064a\u0633\u0629", "name:ar1": "\u0642\u0631\u064a\u0629 \u0627\u0644\u0643\u0646\u064a\u0633\u0629", "name:de": "Kanisah", "name:en": "Kanisah", "name:fr": "Kanisah", "place": "village"}}, {"type": "node", "id": 2488246980, "lat": 36.364099, "lon": 43.356494, "tags": {"alt_name": "\u062e\u0632\u0646\u0629 \u062a\u0628\u0629", "int_name": "Khaznah, Khaznat Tappah, \u062e\u0632\u0646\u0629 \u062a\u067e\u0629, Khaznah, Khaznat Tappah, \u062e\u0632\u0646\u0629 \u062a\u067e\u0629", "name": "\u062e\u0632\u0646\u0629 \u062a\u0628\u0629", "name:ar": "\u062e\u0632\u0646\u0647 \u062a\u0628\u0647", "name:ar1": "\u062e\u0632\u0646\u0629 \u062a\u0628\u0629", "name:de": "Khaznah", "name:en": "Khaznah", "name:fr": "Khaznah", "name:ku": "\u0643\u0648\u0646\u062f\u064a \u062e\u0647 \u0632\u0646\u0647 \u062a\u0647 \u0628\u0647", "place": "village"}}, {"type": "node", "id": 2488246987, "lat": 36.509742, "lon": 43.224174, "tags": {"alt_name": "\u062e\u0648\u0631\u0633\u0628\u0627\u0637", "int_name": "Khur\u015f\u0101b\u0101d, Khursbat, Kh\u016brsb\u0101\u0163, \u062e\u0648\u0631\u0633\u0628\u0627\u0637, Khursabad, Khursbat, Khursbat, \u062e\u0648\u0631\u0633\u0628\u0627\u0637", "is_in": "Iraq , \u062c\u0645\u0647\u0648\u0631\u064a\u0629 \u0627\u0644\u0639\u0631\u0627\u0642", "name": "\u062e\u0648\u0631\u0633\u0628\u0627\u0637", "name:ar": "\u062e\u0648\u0631\u0633\u064a\u0628\u0627\u0637", "name:ar1": "\u062e\u0648\u0631\u0633\u0628\u0627\u0637", "name:de": "Khursabad", "name:en": "Khursabad", "name:fr": "Khursabad", "place": "village"}}, {"type": "node", "id": 2488246998, "lat": 36.3402765, "lon": 43.1339718, "tags": {"alt_name": "\u0645\u062d\u0644\u0629 \u0627\u0644\u062c\u0648\u0628\u0629", "int_name": "Ma\u1e29allat al J\u016bbah, \u0645\u062d\u0644\u0629 \u0627\u0644\u062c\u0648\u0628\u0629, Mahallat al Jubah, \u0645\u062d\u0644\u0629 \u0627\u0644\u062c\u0648\u0628\u0629", "name": "\u0645\u062d\u0644\u0629 \u0627\u0644\u062c\u0648\u0628\u0629", "name:ar": "\u0645\u062d\u0644\u0629 \u0627\u0644\u062c\u0648\u0628\u0629", "name:ar1": "\u0645\u062d\u0644\u0629 \u0627\u0644\u062c\u0648\u0628\u0629", "name:de": "Mahallat al Jubah", "name:en": "Mahallat al Jubah", "name:fr": "Mahallat al Jubah", "place": "hamlet"}}, {"type": "node", "id": 2488247026, "lat": 36.3915754, "lon": 43.0651573, "tags": {"alt_name": "\u0642\u0631\u064a\u0629 \u0625\u0645\u0634\u064a\u0631\u0646\u0629", "int_name": "Musharrifah, Musharritah, Qaryat Imshayrafah, \u0642\u0631\u064a\u0629 \u0627\u0645\u0634\u064a\u0631\u0646\u0629, Musharrifah, Musharrifah, Qaryat Imshayrafah, \u0642\u0631\u064a\u0629 \u0627\u0645\u0634\u064a\u0631\u0641\u0629", "is_in": "Iraq , \u062c\u0645\u0647\u0648\u0631\u064a\u0629 \u0627\u0644\u0639\u0631\u0627\u0642", "name": "\u0642\u0631\u064a\u0629 \u0623\u0645\u0634\u064a\u0631\u0641\u0629", "name:ar": "\u0642\u0631\u064a\u0629 \u0625\u0645\u0634\u064a\u0631\u0641\u0629", "name:ar1": "\u0642\u0631\u064a\u0629 \u0625\u0645\u0634\u064a\u0631\u0641\u0629", "name:de": "Musharrifah", "name:en": "Musharrifah", "name:fr": "Musharrifah", "place": "village"}}, {"type": "node", "id": 2488247044, "lat": 36.3925, "lon": 43.188611, "tags": {"alt_name": "\u0646\u0644\u0645\u0634", "int_name": "N\u0308lmush, Nlmush", "is_in": "Iraq , \u062c\u0645\u0647\u0648\u0631\u064a\u0629 \u0627\u0644\u0639\u0631\u0627\u0642", "name": "\u0646\u0644\u0645\u0634", "name:ar": "\u062d\u064a \u0627\u0644\u0623\u0645\u0646", "name:ar1": "\u0646\u0644\u0645\u0634", "name:de": "Nlmush", "name:en": "Nlmush", "name:fr": "Nlmush", "place": "village"}}, {"type": "node", "id": 2488247049, "lat": 36.422993, "lon": 43.232879, "tags": {"alt_name": "\u0642\u0631\u064a\u0629 \u0623\u0648\u0631\u0637\u0629 \u062e\u0631\u0627\u0628", "int_name": "Orta Khar\u0101b, Qaryat \u016ar\u0163at Khar\u0101b, Ur\u0163at Khar\u0101b, \u0642\u0631\u064a\u0629 \u0627\u0648\u0631\u0637\u0629 \u062e\u0631\u0627\u0628, Orta Kharab, Qaryat Urtat Kharab, Urtat Kharab, \u0642\u0631\u064a\u0629 \u0627\u0648\u0631\u0637\u0629 \u062e\u0631\u0627\u0628", "is_in": "Iraq , \u062c\u0645\u0647\u0648\u0631\u064a\u0629 \u0627\u0644\u0639\u0631\u0627\u0642", "name": "\u0642\u0631\u064a\u0629 \u0623\u0648\u0631\u0637\u0629 \u062e\u0631\u0627\u0628", "name:ar": "\u0642\u0631\u064a\u0629 \u0623\u0648\u0631\u0637\u0629 \u062e\u0631\u0627\u0628 \u0639\u062f\u062f \u0627\u0644\u0646\u0641\u0648\u0633 2000", "name:ar1": "\u0642\u0631\u064a\u0629 \u0623\u0648\u0631\u0637\u0629 \u062e\u0631\u0627\u0628", "name:de": "Orta Kharab", "name:en": "Orta Kharab", "name:fr": "Orta Kharab", "place": "village", "population": "kurd"}}, {"type": "node", "id": 2488247051, "lat": 36.386944, "lon": 43.1275, "tags": {"alt_name": "\u0642\u0636\u064a\u0629", "int_name": "Qa\u1e11\u012byah, Qadiyah", "is_in": "Iraq , \u062c\u0645\u0647\u0648\u0631\u064a\u0629 \u0627\u0644\u0639\u0631\u0627\u0642", "name": "\u06af\u0627\u0636\u064a\u0629", "name:ar": "\u0642\u0627\u0636\u064a\u0629", "name:ar1": "\u0642\u0636\u064a\u0629", "name:de": "Qadiyah", "name:en": "Qadiyah", "name:fr": "Qadiyah", "place": "village"}}, {"type": "node", "id": 2488247055, "lat": 36.41306, "lon": 43.31722, "tags": {"alt_name": "\u0642\u0631\u064a\u0629 \u0623\u0628\u0648 \u062c\u0631\u0628\u0648\u0639\u0629", "int_name": "Qaryat Ab\u016b Jarb\u016bah, \u0642\u0631\u064a\u0629 \u0627\u0628\u0648 \u062c\u0631\u0628\u0648\u0639\u0629, Qaryat Abu Jarbuah, \u0642\u0631\u064a\u0629 \u0627\u0628\u0648 \u062c\u0631\u0628\u0648\u0639\u0629", "is_in": "Iraq , \u062c\u0645\u0647\u0648\u0631\u064a\u0629 \u0627\u0644\u0639\u0631\u0627\u0642", "name": "\u0642\u0631\u064a\u0629 \u0623\u0628\u0648 \u062c\u0631\u0628\u0648\u0639\u0629", "name:ar": "\u0642\u0631\u064a\u0629 \u0623\u0628\u0648 \u062c\u0631\u0628\u0648\u0639\u0629 \u0639\u062f\u062f \u0627\u0644\u0646\u0641\u0648\u0633 \u0665\u0666\u0662\u0667", "name:ar1": "\u0642\u0631\u064a\u0629 \u0623\u0628\u0648 \u062c\u0631\u0628\u0648\u0639\u0629", "name:de": "Qaryat Abu Jarbuah", "name:en": "Qaryat Abu Jarbuah", "name:fr": "Qaryat Abu Jarbuah", "place": "village"}}, {"type": "node", "id": 2488247059, "lat": 36.1140715, "lon": 43.2416109, "tags": {"alt_name": "\u0642\u0631\u064a\u0629 \u0639\u064a\u0646 \u0634\u0647\u0644\u0648\u0628", "int_name": "Qaryat Ayn Shahl\u016bb, \u0642\u0631\u064a\u0629 \u0639\u064a\u0646 \u0634\u0647\u0644\u0648\u0628, Qaryat Ayn Shahlub, \u0642\u0631\u064a\u0629 \u0639\u064a\u0646 \u0634\u0647\u0644\u0648\u0628", "name": "\u0642\u0631\u064a\u0629 \u0639\u064a\u0646 \u0634\u0647\u0644\u0648\u0628", "name:ar": "\u0642\u0631\u064a\u0629 \u0639\u064a\u0646 \u0634\u0647\u0644\u0648\u0628", "name:ar1": "\u0642\u0631\u064a\u0629 \u0639\u064a\u0646 \u0634\u0647\u0644\u0648\u0628", "name:de": "Qaryat Ayn Shahlub", "name:en": "Qaryat Ayn Shahlub", "name:fr": "Qaryat Ayn Shahlub", "place": "village"}}, {"type": "node", "id": 2488247061, "lat": 36.4300689, "lon": 43.1581609, "tags": {"alt_name": "\u0642\u0631\u064a\u0629 \u0628\u0639\u0648\u064a\u0632\u0629", "int_name": "Qaryat Baw\u012bzah, \u0642\u0631\u064a\u0629 \u0628\u0639\u0648\u064a\u0632\u0629, Qaryat Bawizah, \u0642\u0631\u064a\u0629 \u0628\u0639\u0648\u064a\u0632\u0629", "is_in": "Iraq , \u062c\u0645\u0647\u0648\u0631\u064a\u0629 \u0627\u0644\u0639\u0631\u0627\u0642", "name": "\u0642\u0631\u064a\u0629 \u0628\u0639\u0648\u064a\u0632\u0629", "name:ar": "c", "name:ar1": "\u0642\u0631\u064a\u0629 \u0628\u0639\u0648\u064a\u0632\u0629", "name:de": "Qaryat Bawizah", "name:en": "Qaryat Bawizah", "name:fr": "Qaryat Bawizah", "place": "village"}}, {"type": "node", "id": 2488247062, "lat": 36.462238, "lon": 43.217399, "tags": {"alt_name": "\u0642\u0631\u064a\u0629 \u0628\u0627\u064a\u0628\u0648\u062e\u062a", "int_name": "Qaryat B\u0101yb\u016bkhat, \u0642\u0631\u064a\u0629 \u0628\u0627\u064a\u0628\u0648\u062e\u062a, Qaryat Baybukhat, \u0642\u0631\u064a\u0629 \u0628\u0627\u064a\u0628\u0648\u062e\u062a", "is_in": "Iraq , \u062c\u0645\u0647\u0648\u0631\u064a\u0629 \u0627\u0644\u0639\u0631\u0627\u0642", "name": "\u0642\u0631\u064a\u0629 \u0628\u0627\u064a\u0628\u0648\u062e\u062a", "name:ar": "\u0628\u0627\u064a\u0628\u0648\u062e\u062a", "name:ar1": "\u0642\u0631\u064a\u0629 \u0628\u0627\u064a\u0628\u0648\u062e\u062a", "name:de": "Qaryat Baybukhat", "name:en": "Qaryat Baybukhat", "name:fr": "Qaryat Baybukhat", "place": "village"}}, {"type": "node", "id": 2488247064, "lat": 36.074546, "lon": 43.1965365, "tags": {"alt_name": "\u0642\u0631\u064a\u0629 \u0628\u0626\u0631 \u0625\u0628\u0646 \u062c\u0641\u064a\u062f\u0627\u062a", "int_name": "Qaryat B\u012br Ibn Chaf\u012bd\u0101t, \u0642\u0631\u064a\u0629 \u0628\u064a\u0631 \u0627\u0628\u0646 \u0686\u0641\u064a\u062f\u0627\u062a, Qaryat Bir Ibn Chafidat, \u0642\u0631\u064a\u0629 \u0628\u064a\u0631 \u0627\u0628\u0646 \u0686\u0641\u064a\u062f\u0627\u062a", "name": "\u0642\u0631\u064a\u0629 \u0628\u0626\u0631 \u0625\u0628\u0646 \u062c\u0641\u064a\u062f\u0627\u062a", "name:ar": "\u0642\u0631\u064a\u0629 \u0628\u0626\u0631 \u0625\u0628\u0646 \u062c\u0641\u064a\u062f\u0627\u062a", "name:ar1": "\u0642\u0631\u064a\u0629 \u0628\u0626\u0631 \u0625\u0628\u0646 \u062c\u0641\u064a\u062f\u0627\u062a", "name:de": "Qaryat Bir Ibn Chafidat", "name:en": "Qaryat Bir Ibn Chafidat", "name:fr": "Qaryat Bir Ibn Chafidat", "place": "village"}}, {"type": "node", "id": 2488247067, "lat": 36.407487, "lon": 43.09853, "tags": {"alt_name": "\u0642\u0631\u064a\u0629 \u0628\u064a\u0633\u0627\u0646", "int_name": "Qaryat B\u012bs\u0101n, \u0642\u0631\u064a\u0629 \u0628\u064a\u0633\u0627\u0646, Qaryat Bisan, \u0642\u0631\u064a\u0629 \u0628\u064a\u0633\u0627\u0646", "is_in": "Iraq , \u062c\u0645\u0647\u0648\u0631\u064a\u0629 \u0627\u0644\u0639\u0631\u0627\u0642", "name": "\u062d\u064a \u0628\u064a\u0633\u0627\u0646", "name:ar": "\u0642\u0631\u064a\u0629 \u0628\u064a\u0633\u0627\u0646", "name:ar1": "\u0642\u0631\u064a\u0629 \u0628\u064a\u0633\u0627\u0646", "name:de": "Bisan square", "name:en": "Bisan square", "name:fr": "Bisan square", "place": "village"}}, {"type": "node", "id": 2488247069, "lat": 36.488464, "lon": 43.234428, "tags": {"alt_name": "\u0642\u0631\u064a\u0629 \u062c\u0646\u062c\u064a", "int_name": "Qaryat Chunj\u012b, \u0642\u0631\u064a\u0629 \u0686\u0646\u062c\u064a, Qaryat Chunji, \u0642\u0631\u064a\u0629 \u0686\u0646\u062c\u064a", "is_in": "Iraq , \u062c\u0645\u0647\u0648\u0631\u064a\u0629 \u0627\u0644\u0639\u0631\u0627\u0642", "name": "\u0642\u0631\u064a\u0629 \u062c\u0646\u062c\u064a", "name:ar": "\u0642\u0631\u064a\u0629 \u062c\u0646\u062c\u064a \u0639\u062f\u062f \u0627\u0644\u0646\u0641\u0648\u0633 650", "name:ar1": "\u0642\u0631\u064a\u0629 \u062c\u0646\u062c\u064a", "name:de": "Qaryat Chunji", "name:en": "Qaryat Chunji", "name:fr": "Qaryat Chunji", "place": "village"}}, {"type": "node", "id": 2488247070, "lat": 36.491138, "lon": 43.215347, "tags": {"alt_name": "\u0642\u0631\u064a\u0629 \u062f\u064a\u0631\u062c", "int_name": "Qaryat Dayrij, \u0642\u0631\u064a\u0629 \u062f\u064a\u0631\u062c, Qaryat Dayrij, \u0642\u0631\u064a\u0629 \u062f\u064a\u0631\u062c", "is_in": "Iraq , \u062c\u0645\u0647\u0648\u0631\u064a\u0629 \u0627\u0644\u0639\u0631\u0627\u0642", "name": "\u0642\u0631\u064a\u0629 \u062f\u064a\u0631\u062c", "name:ar": "\u0642\u0631\u064a\u0629 \u062f\u064a\u0631\u0643", "name:ar1": "\u0642\u0631\u064a\u0629 \u062f\u064a\u0631\u062c", "name:de": "Qaryat Dayrij", "name:en": "Qaryat Dayrij", "name:fr": "Qaryat Dayrij", "place": "village"}}, {"type": "node", "id": 2488247118, "lat": 36.288059, "lon": 43.24271, "tags": {"alt_name": "\u0642\u0631\u064a\u0629 \u062c\u0644\u0648\u062e\u0627\u0646", "int_name": "Qaryat Jul\u016bkh\u0101n, \u0642\u0631\u064a\u0629 \u062c\u0644\u0648\u062e\u0627\u0646, Qaryat Julukhan, \u0642\u0631\u064a\u0629 \u062c\u0644\u0648\u062e\u0627\u0646", "name": "\u0642\u0631\u064a\u0629 \u062c\u0644\u0648\u062e\u0627\u0646", "name:ar": "\u0642\u0631\u064a\u0629 \u062c\u0644\u064a\u0648\u062e\u0627\u0646", "name:ar1": "\u0642\u0631\u064a\u0629 \u062c\u0644\u0648\u062e\u0627\u0646", "name:de": "Qaryat Julukhan", "name:en": "Qaryat jleokhan", "name:fr": "Qaryat Julukhan", "name:ku": "\u0643\u0648\u0646\u062f\u0649 \u062c\u0644\u064a\u0648\u062e\u0627\u0646", "place": "village"}}, {"type": "node", "id": 2488247127, "lat": 36.491397, "lon": 43.306172, "tags": {"alt_name": "\u0642\u0631\u064a\u0629 \u0643\u0627\u0646\u0648\u0646\u0629", "int_name": "Qaryat K\u0101n\u016bnah, \u0642\u0631\u064a\u0629 \u0643\u0627\u0646\u0648\u0646\u0629, Qaryat Kanunah, \u0642\u0631\u064a\u0629 \u0643\u0627\u0646\u0648\u0646\u0629", "is_in": "Iraq , \u062c\u0645\u0647\u0648\u0631\u064a\u0629 \u0627\u0644\u0639\u0631\u0627\u0642", "name": "\u0642\u0631\u064a\u0629 \u0643\u0627\u0646\u0648\u0646\u0629", "name:ar": "\u0642\u0631\u064a\u0629 \u0643\u0627\u0646\u0648\u0646\u0629 \u0639\u062f\u062f \u0627\u0644\u0646\u0641\u0648\u0633750", "name:ar1": "\u0642\u0631\u064a\u0629 \u0643\u0627\u0646\u0648\u0646\u0629", "name:de": "Qaryat Kanunah", "name:en": "Qaryat Kanunah", "name:fr": "Qaryat Kanunah", "place": "village"}}, {"type": "node", "id": 2488247159, "lat": 36.323175, "lon": 43.241058, "tags": {"alt_name": "\u0642\u0631\u064a\u0629 \u062e\u0648\u064a\u062a\u0644\u0629", "int_name": "Qaryat Khuwaytilah, \u0642\u0631\u064a\u0629 \u062e\u0648\u064a\u062a\u0644\u0629, Qaryat Khuwaytilah, \u0642\u0631\u064a\u0629 \u062e\u0648\u064a\u062a\u0644\u0629", "name": "\u0642\u0631\u064a\u0629 \u062e\u0648\u064a\u062a\u0644\u0629", "name:ar": "\u0642\u0631\u064a\u0629 \u062e\u0648\u064a\u062a\u0644\u0629 \u0639\u062f\u062f \u0627\u0644\u0646\u0641\u0648\u0633 500", "name:ar1": "\u0642\u0631\u064a\u0629 \u062e\u0648\u064a\u062a\u0644\u0629", "name:de": "Qaryat Khuwaytilah", "name:en": "Qaryat Khuwaytilah", "name:fr": "Qaryat Khuwaytilah", "place": "village"}}, {"type": "node", "id": 2488247207, "lat": 36.313335, "lon": 43.236169, "tags": {"alt_name": "\u0642\u0631\u064a\u0629 \u0634\u0647\u0631\u0632\u0627\u062f", "int_name": "Qaryat Shahraz\u0101d, \u0642\u0631\u064a\u0629 \u0634\u0647\u0631\u0632\u0627\u062f, Qaryat Shahrazad, \u0642\u0631\u064a\u0629 \u0634\u0647\u0631\u0632\u0627\u062f", "name": "\u0642\u0631\u064a\u0629 \u0634\u0647\u0631\u0632\u0627\u062f", "name:ar": "\u0642\u0631\u064a\u0629 \u0634\u0647\u0631\u0632\u0627\u062f \u0639\u062f\u062f \u0627\u0644\u0646\u0641\u0648\u0633 500", "name:ar1": "\u0642\u0631\u064a\u0629 \u0634\u0647\u0631\u0632\u0627\u062f", "name:de": "Qaryat Shahrazad", "name:en": "Qaryat Shahrazad", "name:fr": "Qaryat Shahrazad", "place": "village"}}, {"type": "node", "id": 2488247208, "lat": 36.258747, "lon": 43.191044, "tags": {"alt_name": "\u0642\u0631\u064a\u0629 \u0634\u0645\u0633\u0627\u062a", "int_name": "Qaryat Shams\u0101t, \u0642\u0631\u064a\u0629 \u0634\u0645\u0633\u0627\u062a, Qaryat Shamsat, \u0642\u0631\u064a\u0629 \u0634\u0645\u0633\u0627\u062a", "name": "\u0642\u0631\u064a\u0629 \u0634\u0645\u0633\u0627\u062a", "name:ar": "\u0642\u0631\u064a\u0629 \u0634\u0645\u0633\u064a\u0627\u062a", "name:ar1": "\u0642\u0631\u064a\u0629 \u0634\u0645\u0633\u0627\u062a", "name:de": "Qaryat Shamsat", "name:en": "Qaryat Shamsyat", "name:fr": "Qaryat Shamsat", "place": "village"}}, {"type": "node", "id": 2488247209, "lat": 36.34525, "lon": 43.325808, "tags": {"alt_name": "\u0642\u0631\u064a\u0629 \u0637\u0647\u0631\u0627\u0648\u0629", "description": "\u0639\u062f\u062f \u0627\u0644\u0646\u0641\u0648\u0633 1750", "int_name": "Qaryat \u0162ahr\u0101wah, \u0162ahr\u0101wah, \u0642\u0631\u064a\u0629 \u0637\u0647\u0631\u0627\u0648\u0629, Qaryat Tahrawah, Tahrawah, \u0642\u0631\u064a\u0629 \u0637\u0647\u0631\u0627\u0648\u0629", "name": "\u062a\u06d5\u0647\u0631\u0627\u0648\u06d5", "name:ar": "\u0642\u0631\u064a\u0629 \u0637\u0647\u0631\u0627\u0648\u0629", "name:ar1": "\u0642\u0631\u064a\u0629 \u0637\u0647\u0631\u0627\u0648\u0629", "name:ckb": "\u062a\u06d5\u0647\u0631\u0627\u0648\u06d5", "name:de": "Qaryat Tahrawah", "name:en": "Qaryat Tahrawah", "name:fr": "Qaryat Tahrawah", "place": "village"}}, {"type": "node", "id": 2488247224, "lat": 36.445844, "lon": 43.252693, "tags": {"alt_name": "\u0642\u0631\u064a\u0629 \u062a\u0644\u064a\u0627\u0631\u0629", "int_name": "Qaryat Taly\u0101rah, \u0642\u0631\u064a\u0629 \u062a\u0644\u064a\u0627\u0631\u0629, Qaryat Talyarah, \u0642\u0631\u064a\u0629 \u062a\u0644\u064a\u0627\u0631\u0629", "is_in": "Iraq , \u062c\u0645\u0647\u0648\u0631\u064a\u0629 \u0627\u0644\u0639\u0631\u0627\u0642", "name": "\u0642\u0631\u064a\u0629 \u062a\u0644\u064a\u0627\u0631\u0629", "name:ar": "\u0642\u0631\u064a\u0629 \u062a\u0644\u064a\u0627\u0631\u0629 \u0639\u062f\u062f \u0627\u0644\u0646\u0641\u0648\u0633 1500", "name:ar1": "\u0642\u0631\u064a\u0629 \u062a\u0644\u064a\u0627\u0631\u0629", "name:de": "Qaryat Talyarah", "name:en": "Qaryat Talyarah", "name:fr": "Qaryat Talyarah", "place": "village"}}, {"type": "node", "id": 2488247225, "lat": 36.404684, "lon": 43.281693, "tags": {"alt_name": "\u0642\u0631\u064a\u0629 \u062a\u0628\u0629 \u0634\u0628\u0644", "int_name": "Qaryat Tappat Shabal, \u0642\u0631\u064a\u0629 \u062a\u067e\u0629 \u0634\u0628\u0644, Qaryat Tappat Shabal, \u0642\u0631\u064a\u0629 \u062a\u067e\u0629 \u0634\u0628\u0644", "is_in": "Iraq , \u062c\u0645\u0647\u0648\u0631\u064a\u0629 \u0627\u0644\u0639\u0631\u0627\u0642", "name": "\u0642\u0631\u064a\u0629 \u062a\u0628\u0629 \u0634\u0628\u0644", "name:ar": "\u0642\u0631\u064a\u0629 \u0642\u0631\u0647 \u062a\u0628\u0647 \u0634\u0628\u0643", "name:ar1": "\u0642\u0631\u064a\u0629 \u062a\u0628\u0629 \u0634\u0628\u0644", "name:de": "Qaryat Tappat Shabal", "name:en": "Qaryat Tappat Shabal", "name:fr": "Qaryat Tappat Shabal", "place": "village"}}, {"type": "node", "id": 2488247226, "lat": 36.387946, "lon": 43.350671, "tags": {"name": "\u0637\u0648\u0628\u0632\u0627\u0648\u0627", "name:en": "Tobzawa", "place": "village"}}, {"type": "node", "id": 2488247228, "lat": 36.407323, "lon": 43.181242, "tags": {"alt_name": "\u0642\u0631\u064a\u0629 \u0637\u0648\u064a\u0644\u0629", "int_name": "Qaryat \u0162aw\u012blah, \u0642\u0631\u064a\u0629 \u0637\u0648\u064a\u0644\u0629, Qaryat Tawilah, \u0642\u0631\u064a\u0629 \u0637\u0648\u064a\u0644\u0629", "is_in": "Iraq , \u062c\u0645\u0647\u0648\u0631\u064a\u0629 \u0627\u0644\u0639\u0631\u0627\u0642", "name": "\u0642\u0631\u064a\u0629 \u0637\u0648\u064a\u0644\u0629", "name:ar": "\u0642\u0631\u064a\u0629 \u0627\u0644\u0637\u0648\u064a\u0644\u0647", "name:ar1": "\u0642\u0631\u064a\u0629 \u0637\u0648\u064a\u0644\u0629", "name:de": "Qaryat Tawilah", "name:en": "Qaryat Tawilah", "name:fr": "Qaryat Tawilah", "place": "village"}}, {"type": "node", "id": 2488247229, "lat": 36.4782104, "lon": 43.2708739, "tags": {"alt_name": "\u0642\u0631\u064a\u0629 \u0639\u0645\u0631 \u0642\u0627\u0628\u062c\u064a", "int_name": "Qaryat Umar Q\u0101bj\u012b, \u0642\u0631\u064a\u0629 \u0639\u0645\u0631 \u0642\u0627\u0628\u062c\u064a, Qaryat Umar Qabji, \u0642\u0631\u064a\u0629 \u0639\u0645\u0631 \u0642\u0627\u0628\u062c\u064a", "is_in": "Iraq , \u062c\u0645\u0647\u0648\u0631\u064a\u0629 \u0627\u0644\u0639\u0631\u0627\u0642", "name": "\u0642\u0631\u064a\u0629 \u0639\u0645\u0631 \u0642\u0627\u0628\u062c\u064a", "name:ar": "\u0642\u0631\u064a\u0629 \u0639\u0645\u0631 \u0642\u0627\u0628\u062c\u064a \u0639\u062f\u062f \u0627\u0644\u0646\u0641\u0648\u0633 3750", "name:ar1": "\u0642\u0631\u064a\u0629 \u0639\u0645\u0631 \u0642\u0627\u0628\u062c\u064a", "name:de": "Qaryat Umar Qabji", "name:en": "Qaryat Umar Qabji", "name:fr": "Qaryat Umar Qabji", "place": "village"}}, {"type": "node", "id": 2488247235, "lat": 36.4248511, "lon": 43.2988896, "tags": {"alt_name": "\u0642\u0631\u064a\u0629 \u0627\u0644\u062f\u0631\u0627\u0648\u064a\u0634", "int_name": "Qaryat ad Dar\u0101w\u012bsh, \u0642\u0631\u064a\u0629 \u0627\u0644\u062f\u0631\u0627\u0648\u064a\u0634, Qaryat ad Darawish, \u0642\u0631\u064a\u0629 \u0627\u0644\u062f\u0631\u0627\u0648\u064a\u0634", "is_in": "Iraq , \u062c\u0645\u0647\u0648\u0631\u064a\u0629 \u0627\u0644\u0639\u0631\u0627\u0642", "name": "\u0642\u0631\u064a\u0629 \u0627\u0644\u062f\u0631\u0627\u0648\u064a\u0634", "name:ar": "\u0642\u0631\u064a\u0629 \u0627\u0644\u062f\u0631\u0627\u0648\u064a\u0634 \u0639\u062f\u062f \u0627\u0644\u0646\u0641\u0648\u0633 4000", "name:ar1": "\u0642\u0631\u064a\u0629 \u0627\u0644\u062f\u0631\u0627\u0648\u064a\u0634", "name:de": "Qaryat ad Darawish", "name:en": "Qaryat ad Darawish", "name:fr": "Qaryat ad Darawish", "place": "village"}}, {"type": "node", "id": 2488247236, "lat": 36.431234, "lon": 43.194436, "tags": {"alt_name": "\u0642\u0631\u064a\u0629 \u0627\u0644\u0639\u0628\u0627\u0633\u064a\u0629", "int_name": "Qaryat al Abb\u0101s\u012byah, \u0642\u0631\u064a\u0629 \u0627\u0644\u0639\u0628\u0627\u0633\u064a\u0629, Qaryat al Abbasiyah, \u0642\u0631\u064a\u0629 \u0627\u0644\u0639\u0628\u0627\u0633\u064a\u0629", "is_in": "Iraq , \u062c\u0645\u0647\u0648\u0631\u064a\u0629 \u0627\u0644\u0639\u0631\u0627\u0642", "name": "\u0642\u0631\u064a\u0629 \u0627\u0644\u0639\u0628\u0627\u0633\u064a\u0629", "name:ar": "\u0642\u0631\u064a\u0629 \u0627\u0644\u0639\u0628\u0627\u0633\u064a\u0629 \u0639\u062f\u062f \u0627\u0644\u0646\u0641\u0648\u0633 2750", "name:ar1": "\u0642\u0631\u064a\u0629 \u0627\u0644\u0639\u0628\u0627\u0633\u064a\u0629", "name:de": "Qaryat al Abbasiyah", "name:en": "Qaryat al Abbasiyah", "name:fr": "Qaryat al Abbasiyah", "place": "village"}}, {"type": "node", "id": 2488247249, "lat": 36.1232236, "lon": 43.1907777, "tags": {"alt_name": "\u0642\u0631\u064a\u0629 \u0627\u0644\u062e\u0631\u0627\u0631", "int_name": "Qaryat al Khar\u0101r, \u0642\u0631\u064a\u0629 \u0627\u0644\u062e\u0631\u0627\u0631, Qaryat al Kharar, \u0642\u0631\u064a\u0629 \u0627\u0644\u062e\u0631\u0627\u0631", "name": "\u0642\u0631\u064a\u0629 \u0627\u0644\u062e\u0631\u0627\u0631", "name:ar": "\u0642\u0631\u064a\u0629 \u0627\u0644\u062e\u0631\u0627\u0631", "name:ar1": "\u0642\u0631\u064a\u0629 \u0627\u0644\u062e\u0631\u0627\u0631", "name:de": "Qaryat al Kharar", "name:en": "Qaryat al Kharar", "name:fr": "Qaryat al Kharar", "place": "village"}}, {"type": "node", "id": 2488247250, "lat": 36.299303, "lon": 43.263063, "tags": {"alt_name": "\u0642\u0631\u064a\u0629 \u0627\u0644\u0644\u0643", "int_name": "Qaryat al Lak, \u0642\u0631\u064a\u0629 \u0627\u0644\u0644\u0643, Qaryat al Lak, \u0642\u0631\u064a\u0629 \u0627\u0644\u0644\u0643", "name": "\u0642\u0631\u064a\u0629 \u0627\u0644\u0644\u0643", "name:ar": "\u0642\u0631\u064a\u0629 \u0627\u0644\u0644\u0643 \u0639\u062f\u062f \u0627\u0644\u0646\u0641\u0648\u0633 750", "name:ar1": "\u0642\u0631\u064a\u0629 \u0627\u0644\u0644\u0643", "name:de": "Qaryat al Lak", "name:en": "Qaryat al Lak", "name:fr": "Qaryat al Lak", "name:ku": "\u0643\u0648\u0646\u062f\u0649 \u0644\u0643 \u0633\u0647 \u0631\u0648", "place": "village"}}, {"type": "node", "id": 2488247257, "lat": 36.4235159, "lon": 43.1622786, "tags": {"alt_name": "\u0642\u0631\u064a\u0629 \u0627\u0644\u0633\u0627\u062f\u0629", "int_name": "Qaryat as S\u0101dah, \u0642\u0631\u064a\u0629 \u0627\u0644\u0633\u0627\u062f\u0629, Qaryat as Sadah, \u0642\u0631\u064a\u0629 \u0627\u0644\u0633\u0627\u062f\u0629", "is_in": "Iraq , \u062c\u0645\u0647\u0648\u0631\u064a\u0629 \u0627\u0644\u0639\u0631\u0627\u0642", "name": "\u0642\u0631\u064a\u0629 \u0627\u0644\u0633\u0627\u062f\u0629", "name:ar": "\u0642\u0631\u064a\u0629 \u0627\u0644\u0633\u0627\u062f\u0629", "name:ar1": "\u0642\u0631\u064a\u0629 \u0627\u0644\u0633\u0627\u062f\u0629", "name:de": "Qaryat as Sadah", "name:en": "Qaryat as Sadah", "name:fr": "Qaryat as Sadah", "place": "village"}}, {"type": "node", "id": 2488247258, "lat": 36.466215, "lon": 43.244536, "tags": {"alt_name": "\u0642\u0631\u064a\u0629 \u0627\u0644\u0633\u0645\u0627\u0642\u064a\u0629", "int_name": "Qaryat as Summ\u0101q\u012byah, \u0642\u0631\u064a\u0629 \u0627\u0644\u0633\u0645\u0627\u0642\u064a\u0629, Qaryat as Summaqiyah, \u0642\u0631\u064a\u0629 \u0627\u0644\u0633\u0645\u0627\u0642\u064a\u0629", "is_in": "Iraq , \u062c\u0645\u0647\u0648\u0631\u064a\u0629 \u0627\u0644\u0639\u0631\u0627\u0642", "name": "\u0642\u0631\u064a\u0629 \u0627\u0644\u0633\u0645\u0627\u0642\u064a\u0629", "name:ar": "\u0642\u0631\u064a\u0629 \u0627\u0644\u0633\u0645\u0627\u0642\u064a\u0629 \u0639\u062f\u062f \u0627\u0644\u0646\u0641\u0648\u0633 750", "name:ar1": "\u0642\u0631\u064a\u0629 \u0627\u0644\u0633\u0645\u0627\u0642\u064a\u0629", "name:de": "Qaryat as Summaqiyah", "name:en": "Qaryat as Summaqiyah", "name:fr": "Qaryat as Summaqiyah", "place": "village"}}, {"type": "node", "id": 2488247319, "lat": 36.458889, "lon": 43.216944, "tags": {"alt_name": "\u0631\u062d\u0627\u062a \u0622\u063a\u0648\u0627\u062a", "int_name": "Ra\u1e29\u0101t \u0100ghaw\u0101t, Rahat Aghawat", "is_in": "Iraq , \u062c\u0645\u0647\u0648\u0631\u064a\u0629 \u0627\u0644\u0639\u0631\u0627\u0642", "name": "\u0631\u062d\u0627\u062a \u0622\u063a\u0648\u0627\u062a", "name:ar": "\u0642\u0631\u064a\u0647 \u0628\u0627\u064a\u0628\u0648\u062e\u062a", "name:ar1": "\u0631\u062d\u0627\u062a \u0622\u063a\u0648\u0627\u062a", "name:de": "Rahat Aghawat", "name:en": "Bybokht", "name:fr": "Rahat Aghawat", "place": "village"}}, {"type": "node", "id": 2488247372, "lat": 36.42, "lon": 43.161944, "tags": {"alt_name": "\u0633\u064a\u062f \u0644\u0627\u0631", "int_name": "Sayyid Lar, Sayyid Lar", "is_in": "Iraq , \u062c\u0645\u0647\u0648\u0631\u064a\u0629 \u0627\u0644\u0639\u0631\u0627\u0642", "name": "\u0633\u064a\u062f \u0644\u0627\u0631", "name:ar": "\u0627\u0644\u0633\u0627\u062f\u0629 \u0627\u0644\u0627\u0639\u0631\u062c\u064a\u0629", "name:ar1": "\u0633\u064a\u062f \u0644\u0627\u0631", "name:de": "Sayyid Lar", "name:en": "Sayyid Alaaraji", "name:fr": "Sayyid Lar", "place": "village"}}, {"type": "node", "id": 2488247384, "lat": 36.4033456, "lon": 43.0734394, "tags": {"alt_name": "\u0634\u0631\u064a\u062e\u0627\u0646 \u0627\u0644\u0633\u0641\u0644\u0649", "int_name": "Shuraykh\u0101n as Sufl\u00e1, \u0634\u0631\u064a\u062e\u0627\u0646 \u0627\u0644\u0633\u0641\u0644\u0649, Shuraykhan as Sufla, \u0634\u0631\u064a\u062e\u0627\u0646 \u0627\u0644\u0633\u0641\u0644\u0649", "is_in": "Iraq , \u062c\u0645\u0647\u0648\u0631\u064a\u0629 \u0627\u0644\u0639\u0631\u0627\u0642", "name": "Sharikhan Al-Sufla", "name:ar": "\u0634\u0631\u064a\u062e\u0627\u0646 \u0627\u0644\u0633\u0641\u0644\u0649", "name:ar1": "\u0634\u0631\u064a\u062e\u0627\u0646 \u0627\u0644\u0633\u0641\u0644\u0649", "name:de": "Shuraykhan as Sufla", "name:en": "Shuraykhan as Sufla", "name:fr": "Shuraykhan as Sufla", "place": "village"}}, {"type": "node", "id": 2488247407, "lat": 36.321315, "lon": 43.281387, "tags": {"alt_name": "\u0637\u0628\u0631\u0642 \u0632\u064a\u0627\u0631\u0629", "int_name": "\u0162ubraq Ziy\u0101rah, \u0162\u016bpr\u0101q Ziy\u0101rah, \u0637\u0628\u0631\u0642 \u0632\u064a\u0627\u0631\u0629, Tubraq Ziyarah, Tupraq Ziyarah, \u0637\u0628\u0631\u0642 \u0632\u064a\u0627\u0631\u0629", "name": "\u0637\u0628\u0631\u0642 \u0632\u064a\u0627\u0631\u0629", "name:ar": "\u0637\u0628\u0631\u0642 \u0632\u064a\u0627\u0631\u0629 \u0639\u062f\u062f \u0627\u0644\u0646\u0641\u0648\u0633 1000", "name:ar1": "\u0637\u0628\u0631\u0642 \u0632\u064a\u0627\u0631\u0629", "name:de": "Tubraq Ziyarah", "name:en": "Tubraq Ziyarah", "name:fr": "Tubraq Ziyarah", "name:ku": "\u0643\u0648\u0646\u062f\u064a \u062a\u0648\u0628\u0631\u0642", "place": "village"}}, {"type": "node", "id": 2488247621, "lat": 36.1317425, "lon": 43.2058621, "tags": {"alt_name": "\u0642\u0631\u064a\u0629 \u0627\u0644\u0642\u0627\u0647\u0631\u0647", "int_name": "\u0642\u0631\u064a\u0629 \u0627\u0644\u0642\u0627\u0647\u0631\u0647, \u0642\u0631\u064a\u0629 \u0627\u0644\u0642\u0627\u0647\u0631\u0647", "name": "\u0642\u0631\u064a\u0629 \u0627\u0644\u0642\u0627\u0647\u0631\u0647", "name:ar": "\u0642\u0631\u064a\u0629 \u0627\u0644\u0642\u0627\u0647\u0631\u0647", "name:ar1": "\u0642\u0631\u064a\u0629 \u0627\u0644\u0642\u0627\u0647\u0631\u0647", "place": "village"}}, {"type": "node", "id": 2785337834, "lat": 36.2761434, "lon": 42.9376922}, {"type": "node", "id": 2785337862, "lat": 36.2835901, "lon": 42.9430888}, {"type": "node", "id": 2785337920, "lat": 36.2829934, "lon": 42.9446874}, {"type": "node", "id": 2785338021, "lat": 36.2824485, "lon": 42.9506311}, {"type": "node", "id": 2785338056, "lat": 36.2823188, "lon": 42.942606}, {"type": "node", "id": 2785338112, "lat": 36.279975, "lon": 42.9409108}, {"type": "node", "id": 2785338188, "lat": 36.2837631, "lon": 42.9453847}, {"type": "node", "id": 2785338210, "lat": 36.2786257, "lon": 42.9408893}, {"type": "node", "id": 2785338226, "lat": 36.2808571, "lon": 42.9483995}, {"type": "node", "id": 2785338240, "lat": 36.2810734, "lon": 42.9502127}, {"type": "node", "id": 2785338288, "lat": 36.2747681, "lon": 42.9399774}, {"type": "node", "id": 2785338299, "lat": 36.2747768, "lon": 42.9454598}, {"type": "node", "id": 2785338304, "lat": 36.2822582, "lon": 42.9477343}, {"type": "node", "id": 2785338314, "lat": 36.2769331, "lon": 42.9460687}, {"type": "node", "id": 2785338317, "lat": 36.2835469, "lon": 42.9426703}, {"type": "node", "id": 2785338330, "lat": 36.2831404, "lon": 42.9464362}, {"type": "node", "id": 2785338376, "lat": 36.2841721, "lon": 42.9451889}, {"type": "node", "id": 2785338402, "lat": 36.2810907, "lon": 42.9407177}, {"type": "node", "id": 2785338412, "lat": 36.2824684, "lon": 42.9468304}, {"type": "node", "id": 2785338430, "lat": 36.2837977, "lon": 42.9444406}, {"type": "node", "id": 2785338469, "lat": 36.2825808, "lon": 42.9434079}, {"type": "node", "id": 2785338473, "lat": 36.2771813, "lon": 42.9415009}, {"type": "node", "id": 2785338476, "lat": 36.2744827, "lon": 42.9430458}, {"type": "node", "id": 2785338492, "lat": 36.2794906, "lon": 42.9401812}, {"type": "node", "id": 2785338522, "lat": 36.2776311, "lon": 42.9473159}, {"type": "node", "id": 2785338531, "lat": 36.281722, "lon": 42.9417798}, {"type": "node", "id": 2785338532, "lat": 36.2818976, "lon": 42.9508216}, {"type": "node", "id": 2785338538, "lat": 36.2830132, "lon": 42.9449207}, {"type": "node", "id": 2785981903, "lat": 36.5112057, "lon": 43.119782}, {"type": "node", "id": 2785981916, "lat": 36.5090326, "lon": 43.1143532}, {"type": "node", "id": 2785981917, "lat": 36.5128277, "lon": 43.1197316}, {"type": "node", "id": 2785981926, "lat": 36.5110074, "lon": 43.1152544}, {"type": "node", "id": 2785981946, "lat": 36.509757, "lon": 43.1175397}, {"type": "node", "id": 2785981948, "lat": 36.5155525, "lon": 43.1189162}, {"type": "node", "id": 2785981959, "lat": 36.5112812, "lon": 43.1210885}, {"type": "node", "id": 2785981966, "lat": 36.509481, "lon": 43.1174002}, {"type": "node", "id": 2785981970, "lat": 36.5120187, "lon": 43.1211291}, {"type": "node", "id": 2785981973, "lat": 36.5105331, "lon": 43.1199536}, {"type": "node", "id": 2785981980, "lat": 36.5095078, "lon": 43.1157512}, {"type": "node", "id": 2785981984, "lat": 36.5122836, "lon": 43.1164346}, {"type": "node", "id": 2785981992, "lat": 36.5098268, "lon": 43.1186158}, {"type": "node", "id": 2785982011, "lat": 36.5153706, "lon": 43.1173036}, {"type": "node", "id": 2785982060, "lat": 36.5161647, "lon": 43.1176287}, {"type": "node", "id": 2785982113, "lat": 36.5163536, "lon": 43.1184623}, {"type": "node", "id": 2785982124, "lat": 36.5122663, "lon": 43.1169496}, {"type": "node", "id": 2785982126, "lat": 36.5103261, "lon": 43.118752}, {"type": "node", "id": 2785982141, "lat": 36.5119473, "lon": 43.1197391}, {"type": "node", "id": 2785982147, "lat": 36.5088774, "lon": 43.1154583}, {"type": "node", "id": 2923651910, "lat": 36.2650184, "lon": 43.1568976}, {"type": "node", "id": 2923651911, "lat": 36.2651219, "lon": 43.1578421}, {"type": "node", "id": 2923651912, "lat": 36.2652993, "lon": 43.1565491}, {"type": "node", "id": 2923651913, "lat": 36.2658243, "lon": 43.1589609}, {"type": "node", "id": 2923651915, "lat": 36.266401, "lon": 43.1589609}, {"type": "node", "id": 2923651916, "lat": 36.2665637, "lon": 43.1564941}, {"type": "node", "id": 2923651918, "lat": 36.2671552, "lon": 43.1561089}, {"type": "node", "id": 2923651919, "lat": 36.2675027, "lon": 43.1593369}, {"type": "node", "id": 2923651921, "lat": 36.2679167, "lon": 43.1603823}, {"type": "node", "id": 2923651922, "lat": 36.2685822, "lon": 43.1607583}, {"type": "node", "id": 2923651923, "lat": 36.2688336, "lon": 43.1605566}, {"type": "node", "id": 2923651924, "lat": 36.2690036, "lon": 43.1563382}, {"type": "node", "id": 2923651925, "lat": 36.2697356, "lon": 43.1565032}, {"type": "node", "id": 2923651926, "lat": 36.2697725, "lon": 43.161226}, {"type": "node", "id": 2923651928, "lat": 36.2701053, "lon": 43.1562832}, {"type": "node", "id": 2923651929, "lat": 36.2701274, "lon": 43.1613911}, {"type": "node", "id": 2923651930, "lat": 36.2702827, "lon": 43.1560447}, {"type": "node", "id": 2923651931, "lat": 36.2704527, "lon": 43.1638946}, {"type": "node", "id": 2923651932, "lat": 36.2705415, "lon": 43.1618129}, {"type": "node", "id": 2923651933, "lat": 36.270608, "lon": 43.1630601}, {"type": "node", "id": 2923651934, "lat": 36.2706672, "lon": 43.1623815}, {"type": "node", "id": 2923651935, "lat": 36.2710036, "lon": 43.1639909}, {"type": "node", "id": 2923651936, "lat": 36.2711625, "lon": 43.1558888}, {"type": "node", "id": 2923651937, "lat": 36.2713104, "lon": 43.1643577}, {"type": "node", "id": 2923651939, "lat": 36.2717651, "lon": 43.1646787}, {"type": "node", "id": 2923651940, "lat": 36.2727521, "lon": 43.1549626}, {"type": "node", "id": 2923651941, "lat": 36.2732992, "lon": 43.1645732}, {"type": "node", "id": 2923651942, "lat": 36.2739054, "lon": 43.164564}, {"type": "node", "id": 2923651943, "lat": 36.2739424, "lon": 43.1543024}, {"type": "node", "id": 2923651944, "lat": 36.2744895, "lon": 43.1550085}, {"type": "node", "id": 2923651945, "lat": 36.274763, "lon": 43.1650959}, {"type": "node", "id": 2923651947, "lat": 36.2753101, "lon": 43.1647933}, {"type": "node", "id": 2923651948, "lat": 36.2753693, "lon": 43.1628492}, {"type": "node", "id": 2923651949, "lat": 36.2754654, "lon": 43.1637845}, {"type": "node", "id": 2923651950, "lat": 36.2757389, "lon": 43.1560814}, {"type": "node", "id": 2923651952, "lat": 36.2764708, "lon": 43.1611435}, {"type": "node", "id": 2923651953, "lat": 36.2765521, "lon": 43.1572185}, {"type": "node", "id": 2923651954, "lat": 36.2769513, "lon": 43.1610976}, {"type": "node", "id": 2923651955, "lat": 36.2772692, "lon": 43.1574203}, {"type": "node", "id": 2923651956, "lat": 36.2775354, "lon": 43.1618312}, {"type": "node", "id": 2923651957, "lat": 36.2780972, "lon": 43.157567}, {"type": "node", "id": 2923651958, "lat": 36.278563, "lon": 43.1573469}, {"type": "node", "id": 2923651960, "lat": 36.2787552, "lon": 43.161281}, {"type": "node", "id": 2923651961, "lat": 36.2801395, "lon": 43.1597463}, {"type": "node", "id": 2923651962, "lat": 36.2794501, "lon": 43.1576679}, {"type": "node", "id": 2923651966, "lat": 36.2808728, "lon": 43.1562945}, {"type": "node", "id": 2923651967, "lat": 36.2811854, "lon": 43.1592083}, {"type": "node", "id": 2923651970, "lat": 36.2832217, "lon": 43.1571838}, {"type": "node", "id": 2923651971, "lat": 36.2833971, "lon": 43.1531252}, {"type": "node", "id": 2923651972, "lat": 36.2839614, "lon": 43.1564932}, {"type": "node", "id": 2923651973, "lat": 36.2847011, "lon": 43.1557931}, {"type": "node", "id": 2923651974, "lat": 36.2849451, "lon": 43.1508831}, {"type": "node", "id": 2923651975, "lat": 36.2859213, "lon": 43.1522076}, {"type": "node", "id": 2923651976, "lat": 36.2860738, "lon": 43.1511574}, {"type": "node", "id": 2925614933, "lat": 36.421938, "lon": 43.154272}, {"type": "node", "id": 2961395925, "lat": 36.2514904, "lon": 43.1971433}, {"type": "node", "id": 2961395926, "lat": 36.252713, "lon": 43.1976237}, {"type": "node", "id": 2961395927, "lat": 36.2552551, "lon": 43.1955221}, {"type": "node", "id": 2961395928, "lat": 36.256623, "lon": 43.1947415}, {"type": "node", "id": 2961395929, "lat": 36.2576895, "lon": 43.1986886}, {"type": "node", "id": 2961395930, "lat": 36.2589827, "lon": 43.188625}, {"type": "node", "id": 2961395931, "lat": 36.2592254, "lon": 43.1944263}, {"type": "node", "id": 2961395932, "lat": 36.2596854, "lon": 43.1974735}, {"type": "node", "id": 2961396204, "lat": 36.3940785, "lon": 43.282569}, {"type": "node", "id": 2961396205, "lat": 36.3942031, "lon": 43.2807642}, {"type": "node", "id": 2961396206, "lat": 36.3947842, "lon": 43.2851301}, {"type": "node", "id": 2961396207, "lat": 36.3966658, "lon": 43.2794751}, {"type": "node", "id": 2961396209, "lat": 36.3976758, "lon": 43.2864536}, {"type": "node", "id": 2961396211, "lat": 36.3982154, "lon": 43.2821221}, {"type": "node", "id": 2961396212, "lat": 36.3991008, "lon": 43.2845113}, {"type": "node", "id": 2961396213, "lat": 36.4016741, "lon": 43.2817784}, {"type": "node", "id": 2961396214, "lat": 36.4027356, "lon": 43.2837532}, {"type": "node", "id": 2961396215, "lat": 36.403943, "lon": 43.2844598}, {"type": "node", "id": 2961396216, "lat": 36.4043303, "lon": 43.2808845}, {"type": "node", "id": 2961396217, "lat": 36.4056336, "lon": 43.2826799}, {"type": "node", "id": 2961396218, "lat": 36.4060734, "lon": 43.2852161}, {"type": "node", "id": 2961396219, "lat": 36.4061702, "lon": 43.2802658}, {"type": "node", "id": 2961396220, "lat": 36.4067513, "lon": 43.2812111}, {"type": "node", "id": 2961396221, "lat": 36.40756, "lon": 43.3171266}, {"type": "node", "id": 2961396222, "lat": 36.4083204, "lon": 43.3151375}, {"type": "node", "id": 2961396223, "lat": 36.4087406, "lon": 43.3205577}, {"type": "node", "id": 2961396224, "lat": 36.4096144, "lon": 43.3142542}, {"type": "node", "id": 2961396225, "lat": 36.4105015, "lon": 43.3217511}, {"type": "node", "id": 2961396226, "lat": 36.4108416, "lon": 43.3139192}, {"type": "node", "id": 2961396227, "lat": 36.4114219, "lon": 43.3231186}, {"type": "node", "id": 2961396228, "lat": 36.4118714, "lon": 43.3245166}, {"type": "node", "id": 2961396229, "lat": 36.4132347, "lon": 43.3138626}, {"type": "node", "id": 2961396230, "lat": 36.4209296, "lon": 43.3117022}, {"type": "node", "id": 2961396231, "lat": 36.4253363, "lon": 43.3166116}, {"type": "node", "id": 2961396232, "lat": 36.4139324, "lon": 43.3250387}, {"type": "node", "id": 2961396233, "lat": 36.2597822, "lon": 43.1933755}, {"type": "node", "id": 2961396234, "lat": 36.2599638, "lon": 43.1942161}, {"type": "node", "id": 2961396235, "lat": 36.2599759, "lon": 43.1898328}, {"type": "node", "id": 2961396236, "lat": 36.2599759, "lon": 43.196768}, {"type": "node", "id": 2961396237, "lat": 36.2605932, "lon": 43.1910037}, {"type": "node", "id": 2961396238, "lat": 36.2611016, "lon": 43.1928501}, {"type": "node", "id": 2961396248, "lat": 36.3104226, "lon": 43.2374277}, {"type": "node", "id": 2961396249, "lat": 36.3114899, "lon": 43.2381985}, {"type": "node", "id": 2961396250, "lat": 36.3114987, "lon": 43.2340512}, {"type": "node", "id": 2961396251, "lat": 36.3117458, "lon": 43.2381491}, {"type": "node", "id": 2961396252, "lat": 36.312018, "lon": 43.2379112}, {"type": "node", "id": 2961396253, "lat": 36.3129406, "lon": 43.234705}, {"type": "node", "id": 2961396254, "lat": 36.3129892, "lon": 43.2384946}, {"type": "node", "id": 2961396255, "lat": 36.3136697, "lon": 43.2368594}, {"type": "node", "id": 2961396256, "lat": 36.3146903, "lon": 43.2357364}, {"type": "node", "id": 2961396257, "lat": 36.314839, "lon": 43.2367026}, {"type": "node", "id": 2961396258, "lat": 36.3149502, "lon": 43.2374703}, {"type": "node", "id": 2961396259, "lat": 36.3149702, "lon": 43.2361707}, {"type": "node", "id": 2961396260, "lat": 36.3150927, "lon": 43.2368655}, {"type": "node", "id": 2961396449, "lat": 36.4398759, "lon": 43.3569161}, {"type": "node", "id": 2961396450, "lat": 36.4375944, "lon": 43.3443454}, {"type": "node", "id": 2961396451, "lat": 36.4419548, "lon": 43.3562437}, {"type": "node", "id": 2961396453, "lat": 36.4432182, "lon": 43.3420169}, {"type": "node", "id": 2961396454, "lat": 36.4437094, "lon": 43.3538232}, {"type": "node", "id": 2961396455, "lat": 36.4441729, "lon": 43.342952}, {"type": "node", "id": 2961396456, "lat": 36.4451277, "lon": 43.3410279}, {"type": "node", "id": 2961396457, "lat": 36.4464729, "lon": 43.3396613}, {"type": "node", "id": 2961396458, "lat": 36.446536, "lon": 43.3509113}, {"type": "node", "id": 2961396459, "lat": 36.4466754, "lon": 43.33691}, {"type": "node", "id": 2961396460, "lat": 36.4471293, "lon": 43.3555524}, {"type": "node", "id": 2961396461, "lat": 36.4474132, "lon": 43.340956}, {"type": "node", "id": 2961396462, "lat": 36.4476509, "lon": 43.3520303}, {"type": "node", "id": 2961396463, "lat": 36.4486566, "lon": 43.3378075}, {"type": "node", "id": 2961396464, "lat": 36.4488277, "lon": 43.338439}, {"type": "node", "id": 2961396465, "lat": 36.4492359, "lon": 43.3369745}, {"type": "node", "id": 2961396466, "lat": 36.4493967, "lon": 43.35731}, {"type": "node", "id": 2961396467, "lat": 36.4496389, "lon": 43.3479798}, {"type": "node", "id": 2961396468, "lat": 36.4496715, "lon": 43.3541451}, {"type": "node", "id": 2961396469, "lat": 36.4500024, "lon": 43.3320907}, {"type": "node", "id": 2961396470, "lat": 36.4502211, "lon": 43.3535337}, {"type": "node", "id": 2961396471, "lat": 36.4511322, "lon": 43.344572}, {"type": "node", "id": 2961396472, "lat": 36.4520852, "lon": 43.3411538}, {"type": "node", "id": 2961396473, "lat": 36.4522069, "lon": 43.3334933}, {"type": "node", "id": 2961396474, "lat": 36.4526409, "lon": 43.3345543}, {"type": "node", "id": 2961396475, "lat": 36.4527072, "lon": 43.3453604}, {"type": "node", "id": 2961396476, "lat": 36.4528392, "lon": 43.3543609}, {"type": "node", "id": 2961396478, "lat": 36.4533207, "lon": 43.3373235}, {"type": "node", "id": 2961396479, "lat": 36.453792, "lon": 43.3396433}, {"type": "node", "id": 2961396480, "lat": 36.4539095, "lon": 43.3445965}, {"type": "node", "id": 2961396482, "lat": 36.4541596, "lon": 43.3380608}, {"type": "node", "id": 2961396483, "lat": 36.4541885, "lon": 43.3355972}, {"type": "node", "id": 2961396486, "lat": 36.4548334, "lon": 43.344031}, {"type": "node", "id": 2961396519, "lat": 36.4583769, "lon": 43.3354354}, {"type": "node", "id": 2961396520, "lat": 36.4584655, "lon": 43.3465026}, {"type": "node", "id": 2961396527, "lat": 36.4591, "lon": 43.3436713}, {"type": "node", "id": 2961396529, "lat": 36.459317, "lon": 43.3363705}, {"type": "node", "id": 2961396530, "lat": 36.4590879, "lon": 43.3419275}, {"type": "node", "id": 2961396533, "lat": 36.4181723, "lon": 43.3031298}, {"type": "node", "id": 2961396536, "lat": 36.4208004, "lon": 43.3197713}, {"type": "node", "id": 2961396537, "lat": 36.4209305, "lon": 43.3049167}, {"type": "node", "id": 2961396538, "lat": 36.4179821, "lon": 43.2946036}, {"type": "node", "id": 2961396539, "lat": 36.4189388, "lon": 43.3278641}, {"type": "node", "id": 2961396540, "lat": 36.4198665, "lon": 43.320721}, {"type": "node", "id": 2961396541, "lat": 36.4188875, "lon": 43.2973111}, {"type": "node", "id": 2961396542, "lat": 36.4202032, "lon": 43.3002119}, {"type": "node", "id": 2961396543, "lat": 36.4204056, "lon": 43.3223727}, {"type": "node", "id": 2961396544, "lat": 36.4210379, "lon": 43.2972232}, {"type": "node", "id": 2961396545, "lat": 36.4212218, "lon": 43.2961859}, {"type": "node", "id": 2961396546, "lat": 36.4219008, "lon": 43.2995087}, {"type": "node", "id": 2961396547, "lat": 36.4226082, "lon": 43.2976627}, {"type": "node", "id": 2961396548, "lat": 36.4233721, "lon": 43.3019349}, {"type": "node", "id": 2961396549, "lat": 36.423556, "lon": 43.3002295}, {"type": "node", "id": 2961396550, "lat": 36.4241218, "lon": 43.2967309}, {"type": "node", "id": 2961396551, "lat": 36.4251404, "lon": 43.2964145}, {"type": "node", "id": 2961396552, "lat": 36.4251828, "lon": 43.3034996}, {"type": "node", "id": 2961396553, "lat": 36.4254516, "lon": 43.2939531}, {"type": "node", "id": 2961396554, "lat": 36.4259043, "lon": 43.2954475}, {"type": "node", "id": 2961396555, "lat": 36.4261023, "lon": 43.2941289}, {"type": "node", "id": 2961396556, "lat": 36.4265125, "lon": 43.301425}, {"type": "node", "id": 2961396557, "lat": 36.4270925, "lon": 43.2987351}, {"type": "node", "id": 2961396558, "lat": 36.4271633, "lon": 43.2963617}, {"type": "node", "id": 2961396559, "lat": 36.4275876, "lon": 43.2953948}, {"type": "node", "id": 2961396560, "lat": 36.4278705, "lon": 43.2976275}, {"type": "node", "id": 2961396561, "lat": 36.4283374, "lon": 43.2962211}, {"type": "node", "id": 2961396562, "lat": 36.4287759, "lon": 43.2993681}, {"type": "node", "id": 2961396563, "lat": 36.4294407, "lon": 43.2977858}, {"type": "node", "id": 2961396564, "lat": 36.4338548, "lon": 43.3519714}, {"type": "node", "id": 2961396565, "lat": 36.4552836, "lon": 43.3454237}, {"type": "node", "id": 2961396566, "lat": 36.4554553, "lon": 43.3433296}, {"type": "node", "id": 2961396569, "lat": 36.4557175, "lon": 43.345136}, {"type": "node", "id": 2961396570, "lat": 36.4557753, "lon": 43.3559973}, {"type": "node", "id": 2961396572, "lat": 36.4559923, "lon": 43.348157}, {"type": "node", "id": 2961396573, "lat": 36.4560398, "lon": 43.3391398}, {"type": "node", "id": 2961396575, "lat": 36.4562526, "lon": 43.3572561}, {"type": "node", "id": 2961396576, "lat": 36.4562815, "lon": 43.354307}, {"type": "node", "id": 2961396577, "lat": 36.4564406, "lon": 43.3470961}, {"type": "node", "id": 2961396579, "lat": 36.4565997, "lon": 43.349218}, {"type": "node", "id": 2961396580, "lat": 36.4566142, "lon": 43.3529763}, {"type": "node", "id": 2961396581, "lat": 36.4567154, "lon": 43.3557635}, {"type": "node", "id": 2961396582, "lat": 36.4567733, "lon": 43.3572021}, {"type": "node", "id": 2961396583, "lat": 36.4568456, "lon": 43.3508724}, {"type": "node", "id": 2961396585, "lat": 36.4569468, "lon": 43.3458013}, {"type": "node", "id": 2961396586, "lat": 36.4569613, "lon": 43.3473658}, {"type": "node", "id": 2961396590, "lat": 36.4572361, "lon": 43.3483908}, {"type": "node", "id": 2961396592, "lat": 36.4573211, "lon": 43.3386722}, {"type": "node", "id": 2961396593, "lat": 36.4573423, "lon": 43.338925}, {"type": "node", "id": 2961396595, "lat": 36.4575109, "lon": 43.3454417}, {"type": "node", "id": 2961396596, "lat": 36.4575109, "lon": 43.3486066}, {"type": "node", "id": 2961396599, "lat": 36.4578418, "lon": 43.3365683}, {"type": "node", "id": 2961396633, "lat": 36.4597798, "lon": 43.3356332}, {"type": "node", "id": 2961396634, "lat": 36.4598521, "lon": 43.3334214}, {"type": "node", "id": 2961396641, "lat": 36.4604595, "lon": 43.3448761}, {"type": "node", "id": 2961396656, "lat": 36.4624186, "lon": 43.3387518}, {"type": "node", "id": 2961396664, "lat": 36.4631495, "lon": 43.3398591}, {"type": "node", "id": 2961396666, "lat": 36.4633231, "lon": 43.3349499}, {"type": "node", "id": 2961443359, "lat": 36.4153054, "lon": 43.1714216}, {"type": "node", "id": 2961443360, "lat": 36.4157324, "lon": 43.1675982}, {"type": "node", "id": 2961443362, "lat": 36.4177097, "lon": 43.1646695}, {"type": "node", "id": 2961443367, "lat": 36.4186514, "lon": 43.1584922}, {"type": "node", "id": 2961443368, "lat": 36.4189579, "lon": 43.1566417}, {"type": "node", "id": 2961443369, "lat": 36.4192063, "lon": 43.2336459}, {"type": "node", "id": 2961443370, "lat": 36.4194031, "lon": 43.2351697}, {"type": "node", "id": 2961443372, "lat": 36.4195108, "lon": 43.1708308}, {"type": "node", "id": 2961443373, "lat": 36.4199783, "lon": 43.2308804}, {"type": "node", "id": 2961443375, "lat": 36.420666, "lon": 43.1569229}, {"type": "node", "id": 2961443376, "lat": 36.4206783, "lon": 43.1534488}, {"type": "node", "id": 2961443377, "lat": 36.4208866, "lon": 43.2366183}, {"type": "node", "id": 2961443379, "lat": 36.4217041, "lon": 43.2352638}, {"type": "node", "id": 2961443382, "lat": 36.4227413, "lon": 43.1569728}, {"type": "node", "id": 2961443383, "lat": 36.4230211, "lon": 43.235847}, {"type": "node", "id": 2961443384, "lat": 36.423328, "lon": 43.1635759}, {"type": "node", "id": 2961443386, "lat": 36.4233996, "lon": 43.2261019}, {"type": "node", "id": 2961443393, "lat": 36.4236664, "lon": 43.1594628}, {"type": "node", "id": 2961443396, "lat": 36.4237623, "lon": 43.1617905}, {"type": "node", "id": 2961443397, "lat": 36.4237065, "lon": 43.1613133}, {"type": "node", "id": 2961443400, "lat": 36.4237951, "lon": 43.1614095}, {"type": "node", "id": 2961443404, "lat": 36.4240305, "lon": 43.1625321}, {"type": "node", "id": 2961443405, "lat": 36.4244138, "lon": 43.2344548}, {"type": "node", "id": 2961443406, "lat": 36.4248188, "lon": 43.1610626}, {"type": "node", "id": 2961443407, "lat": 36.424994, "lon": 43.1615388}, {"type": "node", "id": 2961443408, "lat": 36.4250378, "lon": 43.1630355}, {"type": "node", "id": 2961443409, "lat": 36.4250192, "lon": 43.1597071}, {"type": "node", "id": 2961443411, "lat": 36.4266473, "lon": 43.1903539}, {"type": "node", "id": 2961443412, "lat": 36.4267324, "lon": 43.1923219}, {"type": "node", "id": 2961443413, "lat": 36.4268206, "lon": 43.2321596}, {"type": "node", "id": 2961443414, "lat": 36.4269569, "lon": 43.2353202}, {"type": "node", "id": 2961443415, "lat": 36.4271475, "lon": 43.1556969}, {"type": "node", "id": 2961443416, "lat": 36.4271734, "lon": 43.1876548}, {"type": "node", "id": 2961443417, "lat": 36.4273806, "lon": 43.1597155}, {"type": "node", "id": 2961443418, "lat": 36.4274412, "lon": 43.2334954}, {"type": "node", "id": 2961443419, "lat": 36.4276434, "lon": 43.1605183}, {"type": "node", "id": 2961443420, "lat": 36.4282674, "lon": 43.1651989}, {"type": "node", "id": 2961443422, "lat": 36.4287974, "lon": 43.1522319}, {"type": "node", "id": 2961443423, "lat": 36.428264, "lon": 43.1955841}, {"type": "node", "id": 2961443424, "lat": 36.4281724, "lon": 43.1923632}, {"type": "node", "id": 2961443425, "lat": 36.429592, "lon": 43.1923389}, {"type": "node", "id": 2961443426, "lat": 36.4298766, "lon": 43.1885019}, {"type": "node", "id": 2961443427, "lat": 36.4302996, "lon": 43.1536262}, {"type": "node", "id": 2961443429, "lat": 36.4306723, "lon": 43.1954604}, {"type": "node", "id": 2961443430, "lat": 36.4307746, "lon": 43.1601891}, {"type": "node", "id": 2961443432, "lat": 36.43266, "lon": 43.1935031}, {"type": "node", "id": 2961443536, "lat": 36.4323056, "lon": 43.1960762}, {"type": "node", "id": 2961443538, "lat": 36.4329016, "lon": 43.1969806}, {"type": "node", "id": 2961443541, "lat": 36.4335716, "lon": 43.1541107},