{"version": 0.6, "generator": "Overpass API 0.7.61.5 4133829e", "osm3s": {"timestamp_osm_base": "2024-03-05T15:10:59Z", "copyright": "The data included in this document is from www.openstreetmap.org. The data is made available under ODbL."}, "elements": [{"type": "node", "id": 28831940, "lat": 59.1329314, "lon": 12.9248679, "tags": {"name": "S\u00e4ffle", "name:ru": "\u0421\u0435\u0444\u043b\u0435", "place": "town", "population": "9490", "population:date": "2018-03-28", "population:source": "SCB", "ref:se:pts:postort": "S\u00c4FFLE", "ref:se:scb": "5840", "wikidata": "Q368574", "wikipedia": "sv:S\u00e4ffle"}}, {"type": "node", "id": 287811705, "lat": 59.4679377, "lon": 13.0390826, "tags": {"name": "Koled", "place": "hamlet"}}, {"type": "node", "id": 292167626, "lat": 59.3182695, "lon": 12.3099228, "tags": {"name": "Sillerud", "place": "hamlet", "population": "78", "ref:se:scb": "S5885"}}, {"type": "node", "id": 305237225, "lat": 59.4333194, "lon": 12.7523795, "tags": {"name": "St\u00f6mne", "place": "hamlet", "population": "68", "ref:se:scb": "S5869"}}, {"type": "node", "id": 356285446, "lat": 59.2641397, "lon": 12.628998, "tags": {"name": "Sillingsfors", "place": "hamlet", "population": "59", "ref:se:scb": "S5855"}}, {"type": "node", "id": 356285678, "lat": 59.2830694, "lon": 12.7745993, "tags": {"alt_name": "V\u00e4rmlands Nys\u00e4ter", "name": "Nys\u00e4ter", "place": "village", "population": "149", "ref:se:pts:postort": "V\u00c4RMLANDS NYS\u00c4TER", "ref:se:scb": "S5811"}}, {"type": "node", "id": 367485938, "lat": 59.1815134, "lon": 13.0147903, "tags": {"name": "V\u00e4rmlandsbro", "place": "village", "population": "284", "population:date": "2018-03-28", "population:source": "SCB", "ref:se:scb": "5868", "wikidata": "Q33111039"}}, {"type": "node", "id": 367487939, "lat": 59.1763516, "lon": 12.5508503, "tags": {"alt_name": "Svanskog", "name": "Svaneholm", "place": "village", "ref:se:pts:postort": "SVANSKOG", "ref:se:scb": "5832"}}, {"type": "node", "id": 367496071, "lat": 59.2747878, "lon": 13.0426532, "tags": {"name": "Segmon", "place": "village", "population": "423", "population:date": "2018-03-28", "population:source": "SCB", "ref:se:pts:postort": "SEGMON", "ref:se:scb": "5796", "wikidata": "Q3161335"}}, {"type": "node", "id": 1277519032, "lat": 59.3502517, "lon": 12.9559679, "tags": {"name": "Borgvik", "place": "hamlet", "population": "189", "ref:se:pts:postort": "BORGVIK", "ref:se:scb": "S5633", "wikidata": "Q893574", "wikipedia": "sv:Borgvik"}}, {"type": "node", "id": 2226880743, "lat": 59.2793764, "lon": 12.6727388, "tags": {"name": "L\u00e5ngserud", "place": "hamlet", "ref:se:pts:postort": "L\u00c5NGSERUD"}}, {"type": "node", "id": 2226881047, "lat": 59.4533588, "lon": 12.9094837, "tags": {"name": "V\u00e4rmskog", "place": "hamlet", "postal_code": "66492", "ref:se:pts:postort": "V\u00c4RMSKOG"}}, {"type": "node", "id": 2308406194, "lat": 59.3797481, "lon": 12.2342204, "tags": {"name": "Tenvik", "place": "hamlet", "population": "102", "ref:se:scb": "S5905"}}, {"type": "node", "id": 2316478091, "lat": 59.0830999, "lon": 12.6994794, "tags": {"name": "Kasenberg", "place": "hamlet", "population": "82", "ref:se:scb": "S5089"}}, {"type": "node", "id": 2371496446, "lat": 59.0928839, "lon": 12.3346858, "tags": {"name": "Solvik", "place": "hamlet"}}, {"type": "node", "id": 2450411468, "lat": 59.1793797, "lon": 12.232735, "tags": {"name": "Krokfors", "place": "hamlet"}}, {"type": "node", "id": 2984618646, "lat": 59.4862329, "lon": 12.6923906, "tags": {"name": "S\u00f6lje", "place": "hamlet"}}, {"type": "node", "id": 3279277248, "lat": 59.4867161, "lon": 12.934168, "tags": {"addr:postcode": "664 92", "name": "Gansbyn", "place": "hamlet", "source": "local knowledge"}}, {"type": "node", "id": 3325062661, "lat": 59.4755907, "lon": 12.8846911, "tags": {"name": "Bj\u00f6rnebol", "place": "hamlet"}}, {"type": "node", "id": 3897140680, "lat": 59.0895957, "lon": 12.5493906, "tags": {"name": "Varsrud", "place": "hamlet"}}, {"type": "node", "id": 4318024663, "lat": 59.1095132, "lon": 12.3543182, "tags": {"name": "Busterud", "place": "hamlet"}}, {"type": "node", "id": 4610790657, "lat": 59.0634345, "lon": 12.2687367, "tags": {"name": "Sundet", "place": "hamlet"}}, {"type": "node", "id": 4915414150, "lat": 59.2082644, "lon": 12.6904455, "tags": {"name": "Fj\u00e4ll", "place": "hamlet"}}, {"type": "node", "id": 5227197415, "lat": 59.1516922, "lon": 12.8792059, "tags": {"name": "Gunnarsbol", "place": "hamlet", "source": "survey"}}, {"type": "node", "id": 5241540355, "lat": 59.1603063, "lon": 12.8778541, "tags": {"name": "Fager\u00e5s", "place": "hamlet", "source": "survey"}}, {"type": "node", "id": 5609043171, "lat": 59.1924707, "lon": 13.0290301, "tags": {"name": "Brotorp", "place": "hamlet"}}, {"type": "node", "id": 5808174994, "lat": 59.0930825, "lon": 12.5016341, "tags": {"name": "Bergane", "place": "hamlet", "source": "survey"}}, {"type": "node", "id": 6008347338, "lat": 59.405564, "lon": 12.4806726, "tags": {"name": "Finntorp", "place": "hamlet"}}, {"type": "node", "id": 6186240015, "lat": 59.2487035, "lon": 12.8364515, "tags": {"name": "Kn\u00f6stad", "place": "hamlet"}}, {"type": "node", "id": 6186240016, "lat": 59.2851069, "lon": 12.7921146, "tags": {"name": "Kik", "place": "hamlet"}}, {"type": "node", "id": 6186240017, "lat": 59.2806268, "lon": 12.8301107, "tags": {"name": "Skeverud", "place": "hamlet"}}, {"type": "node", "id": 6186240021, "lat": 59.3258778, "lon": 12.8616428, "tags": {"name": "Byn", "place": "hamlet"}}, {"type": "node", "id": 6186240040, "lat": 59.4648134, "lon": 12.8913831, "tags": {"name": "Vegerbol", "place": "hamlet", "wikidata": "Q10713628", "wikipedia": "sv:Vegerbol"}}, {"type": "node", "id": 6186240042, "lat": 59.4633525, "lon": 12.8709983, "tags": {"name": "Rolfsbol", "place": "hamlet"}}, {"type": "node", "id": 6186240048, "lat": 59.3509776, "lon": 12.8047317, "tags": {"name": "S\u00f6dra H\u00f6gs\u00e4ter", "place": "hamlet"}}, {"type": "node", "id": 6186240054, "lat": 59.2742577, "lon": 12.7954244, "tags": {"name": "Granb\u00e4ck", "place": "hamlet"}}, {"type": "node", "id": 6186240301, "lat": 59.2546345, "lon": 12.2687324, "tags": {"name": "Harn\u00e4s", "place": "hamlet"}}, {"type": "node", "id": 6186240302, "lat": 59.2666839, "lon": 12.2598623, "tags": {"name": "Lisslerud", "place": "hamlet"}}, {"type": "node", "id": 6186240303, "lat": 59.2744111, "lon": 12.2896671, "tags": {"name": "Signebyn", "place": "hamlet"}}, {"type": "node", "id": 6186240376, "lat": 59.3345684, "lon": 12.275033, "tags": {"name": "Snarkil", "place": "hamlet"}}, {"type": "node", "id": 6186240733, "lat": 59.4658164, "lon": 12.7794599, "tags": {"name": "S\u00f6dra Fj\u00f6le", "place": "hamlet"}}, {"type": "node", "id": 6704378678, "lat": 59.4885113, "lon": 12.344352, "tags": {"name": "Lenungen", "place": "hamlet", "source": "survey"}}, {"type": "node", "id": 7472168577, "lat": 59.4379121, "lon": 12.9167029, "tags": {"name": "Borgebols fritidsomr\u00e5de", "place": "hamlet"}}, {"type": "node", "id": 7472295208, "lat": 59.3862279, "lon": 13.0472206, "tags": {"name": "Norra Flokerud", "place": "hamlet"}}, {"type": "node", "id": 7472302339, "lat": 59.4433738, "lon": 12.7966577, "tags": {"name": "Skas\u00e5s", "place": "hamlet"}}, {"type": "node", "id": 7472380329, "lat": 59.3824567, "lon": 13.0471841, "tags": {"name": "S\u00f6dra Flokerud", "place": "hamlet"}}, {"type": "node", "id": 7472426955, "lat": 59.3669538, "lon": 12.3987168, "tags": {"name": "\u00d6stra Boda", "place": "hamlet"}}, {"type": "node", "id": 7472457640, "lat": 59.2422285, "lon": 12.9307985, "tags": {"name": "Norra Hultet", "place": "hamlet"}}, {"type": "node", "id": 7472466153, "lat": 59.1082961, "lon": 13.0457637, "tags": {"name": "\u00d6stra Uggels\u00e4ter", "place": "hamlet"}}, {"type": "node", "id": 7472479073, "lat": 59.1398342, "lon": 12.9975998, "tags": {"name": "Norra H\u00f6g", "place": "hamlet"}}, {"type": "node", "id": 7472487108, "lat": 59.4291351, "lon": 12.8727442, "tags": {"name": "G\u00e5rdsviks fritidsomr\u00e5de", "place": "hamlet"}}, {"type": "node", "id": 7472521738, "lat": 59.1768111, "lon": 13.0697374, "tags": {"name": "V\u00e4stra Bros\u00e4ter", "place": "hamlet"}}, {"type": "node", "id": 7472525094, "lat": 59.1169338, "lon": 13.0220633, "tags": {"name": "V\u00e4stra Uggels\u00e4ter", "place": "hamlet"}}, {"type": "node", "id": 7472549765, "lat": 59.1299904, "lon": 12.7730999, "tags": {"name": "Sn\u00e5re", "place": "hamlet"}}, {"type": "node", "id": 7472562499, "lat": 59.2235968, "lon": 12.3964547, "tags": {"name": "R\u00f6k", "place": "hamlet"}}, {"type": "node", "id": 7472568683, "lat": 59.1255506, "lon": 12.7915085, "tags": {"name": "Tonerudstorp", "place": "hamlet"}}, {"type": "node", "id": 7472580707, "lat": 59.1221633, "lon": 12.8536869, "tags": {"name": "Lerbyn", "place": "hamlet"}}, {"type": "node", "id": 7472588586, "lat": 59.3961689, "lon": 13.0574843, "tags": {"name": "V\u00e4stra Malsj\u00f6", "place": "hamlet", "wikidata": "Q10718308"}}, {"type": "node", "id": 7472592921, "lat": 59.1227838, "lon": 12.7981792, "tags": {"name": "Tonerud", "place": "hamlet"}}, {"type": "node", "id": 7472604774, "lat": 59.1164898, "lon": 12.7744508, "tags": {"name": "\u00c4sketan", "place": "hamlet"}}, {"type": "node", "id": 7472610753, "lat": 59.118043, "lon": 12.7888663, "tags": {"name": "Humletan", "place": "hamlet"}}, {"type": "node", "id": 7472610754, "lat": 59.2417241, "lon": 12.3224795, "tags": {"name": "Hj\u00e4llen", "place": "hamlet"}}, {"type": "node", "id": 7472613084, "lat": 59.2191587, "lon": 12.2684363, "tags": {"name": "Torgelsbyn", "place": "hamlet"}}, {"type": "node", "id": 7472615070, "lat": 59.2353207, "lon": 12.4160248, "tags": {"name": "L\u00e5ngfors", "place": "hamlet"}}, {"type": "node", "id": 7472620251, "lat": 59.177316, "lon": 12.6088939, "tags": {"name": "H\u00f6keliden", "place": "hamlet"}}, {"type": "node", "id": 7472621439, "lat": 59.102462, "lon": 12.8172838, "tags": {"name": "Lunden", "place": "hamlet"}}, {"type": "node", "id": 7472628413, "lat": 59.2257455, "lon": 12.2939495, "tags": {"name": "\u00d6nnebyn", "place": "hamlet"}}, {"type": "node", "id": 7472628461, "lat": 59.264069, "lon": 12.6368616, "tags": {"name": "Viksfors", "place": "hamlet"}}, {"type": "node", "id": 7472629560, "lat": 59.1421406, "lon": 12.4810992, "tags": {"name": "Remmesn\u00e4s", "place": "hamlet"}}, {"type": "node", "id": 7472631351, "lat": 59.2131716, "lon": 12.5115761, "tags": {"name": "B\u00e4cken", "place": "hamlet"}}, {"type": "node", "id": 7472637118, "lat": 59.2922331, "lon": 12.286682, "tags": {"name": "Guttarebol", "place": "hamlet"}}, {"type": "node", "id": 7472639313, "lat": 59.285664, "lon": 12.286975, "tags": {"name": "Liane", "place": "hamlet"}}, {"type": "node", "id": 7472643574, "lat": 59.1639809, "lon": 12.5082128, "tags": {"name": "Finntorpet", "place": "hamlet"}}, {"type": "node", "id": 7472644591, "lat": 59.2279408, "lon": 12.425172, "tags": {"name": "Solberg", "place": "hamlet"}}, {"type": "node", "id": 7472644594, "lat": 59.2923659, "lon": 12.2993142, "tags": {"name": "\u00c4lgt\u00e5n", "place": "hamlet"}}, {"type": "node", "id": 7472646694, "lat": 59.2893957, "lon": 12.3517603, "tags": {"name": "F\u00e4lltakan", "place": "hamlet"}}, {"type": "node", "id": 7472648201, "lat": 59.1987189, "lon": 12.6014284, "tags": {"name": "Slirud", "place": "hamlet"}}, {"type": "node", "id": 7472654377, "lat": 59.2741868, "lon": 12.3042302, "tags": {"name": "Tobyn", "place": "hamlet"}}, {"type": "node", "id": 7472660502, "lat": 59.2593265, "lon": 12.2561273, "tags": {"name": "\u00c4skedalen", "place": "hamlet"}}, {"type": "node", "id": 7472665897, "lat": 59.2049178, "lon": 12.5390674, "tags": {"name": "N\u00e4s", "place": "hamlet"}}, {"type": "node", "id": 7472667356, "lat": 59.1913756, "lon": 12.5371048, "tags": {"name": "Krubben\u00e4s", "place": "hamlet"}}, {"type": "node", "id": 7472674280, "lat": 59.1588044, "lon": 12.5312248, "tags": {"name": "K\u00e4lltegen", "place": "hamlet"}}, {"type": "node", "id": 7472679153, "lat": 59.1532971, "lon": 12.7499806, "tags": {"name": "B\u00e4ck", "place": "hamlet"}}, {"type": "node", "id": 7472680860, "lat": 59.2030039, "lon": 12.5930575, "tags": {"name": "H\u00f6gen", "place": "hamlet"}}, {"type": "node", "id": 7472684063, "lat": 59.1822879, "lon": 12.5010563, "tags": {"name": "Norane", "place": "hamlet"}}, {"type": "node", "id": 7472691315, "lat": 59.2726901, "lon": 12.6592889, "tags": {"name": "Olebyn", "place": "hamlet"}}, {"type": "node", "id": 7472696507, "lat": 59.1983299, "lon": 12.6111844, "tags": {"name": "Tr\u00f6nneviken", "place": "hamlet"}}, {"type": "node", "id": 7472696969, "lat": 59.1528446, "lon": 12.887732, "tags": {"name": "Sm\u00e4rsbol", "place": "hamlet"}}, {"type": "node", "id": 7472700368, "lat": 59.2774105, "lon": 12.6810917, "tags": {"name": "Backa", "place": "hamlet"}}, {"type": "node", "id": 7472701268, "lat": 59.1443278, "lon": 12.753211, "tags": {"name": "Kallskog", "place": "hamlet"}}, {"type": "node", "id": 7472710212, "lat": 59.194592, "lon": 12.7328948, "tags": {"name": "Ingersbyn", "place": "hamlet"}}, {"type": "node", "id": 7472719531, "lat": 59.1641261, "lon": 12.7666118, "tags": {"name": "Vickersrudstorp", "place": "hamlet"}}, {"type": "node", "id": 7472729989, "lat": 59.2448772, "lon": 12.713883, "tags": {"name": "Mosserud", "place": "hamlet"}}, {"type": "node", "id": 7472730456, "lat": 59.2425693, "lon": 12.7653438, "tags": {"name": "Lillerud", "place": "hamlet"}}, {"type": "node", "id": 7472732154, "lat": 59.1532729, "lon": 12.7623114, "tags": {"name": "\u00d6sterg\u00e5rden", "place": "hamlet"}}, {"type": "node", "id": 7472748237, "lat": 59.1577214, "lon": 12.8731865, "tags": {"name": "Punsbol", "place": "hamlet"}}, {"type": "node", "id": 7472750186, "lat": 59.2463261, "lon": 12.7947847, "tags": {"name": "Hallerud", "place": "hamlet"}}, {"type": "node", "id": 7472770044, "lat": 59.2612832, "lon": 12.5484587, "tags": {"name": "\u00c5skog", "place": "hamlet"}}, {"type": "node", "id": 7472776639, "lat": 59.3020884, "lon": 12.4460572, "tags": {"name": "Grinsbyn", "place": "hamlet"}}, {"type": "node", "id": 7472818633, "lat": 59.3387272, "lon": 12.7251492, "tags": {"name": "Stenarsbol", "place": "hamlet"}}, {"type": "node", "id": 7472820039, "lat": 59.2594761, "lon": 12.5833684, "tags": {"name": "Sj\u00f6\u00e4ndan", "place": "hamlet"}}, {"type": "node", "id": 7472825671, "lat": 59.3276141, "lon": 12.7316837, "tags": {"name": "Blixbol", "place": "hamlet"}}, {"type": "node", "id": 7472832524, "lat": 59.2928352, "lon": 12.4311465, "tags": {"name": "Myr\u00e5s", "place": "hamlet"}}, {"type": "node", "id": 7472840156, "lat": 59.3238845, "lon": 12.765497, "tags": {"name": "V\u00e4sby", "place": "hamlet"}}, {"type": "node", "id": 7472841524, "lat": 59.3323583, "lon": 12.7568079, "tags": {"name": "\u00c5sen", "place": "hamlet"}}, {"type": "node", "id": 7472842837, "lat": 59.3181089, "lon": 12.72946, "tags": {"name": "M\u00f6lnerud", "place": "hamlet"}}, {"type": "node", "id": 7472843478, "lat": 59.285726, "lon": 12.7551374, "tags": {"name": "Rolfsbol", "place": "hamlet"}}, {"type": "node", "id": 7472867584, "lat": 59.3081394, "lon": 12.3322695, "tags": {"name": "Trubbyn", "place": "hamlet"}}, {"type": "node", "id": 7472871386, "lat": 59.3155543, "lon": 12.3519689, "tags": {"name": "Byn", "place": "hamlet"}}, {"type": "node", "id": 7472874522, "lat": 59.3203368, "lon": 12.3275531, "tags": {"name": "Ut\u00e4ngen", "place": "hamlet"}}, {"type": "node", "id": 7472875251, "lat": 59.2893508, "lon": 12.6914787, "tags": {"name": "Strand", "place": "hamlet"}}, {"type": "node", "id": 7472878626, "lat": 59.296667, "lon": 12.2988358, "tags": {"name": "Korsbyn", "place": "hamlet"}}, {"type": "node", "id": 7472884210, "lat": 59.3328166, "lon": 12.3551212, "tags": {"name": "G\u00e4ngene", "place": "hamlet"}}, {"type": "node", "id": 7472886725, "lat": 59.3371119, "lon": 12.2833542, "tags": {"name": "Nortj\u00e4rn", "place": "hamlet"}}, {"type": "node", "id": 7472886727, "lat": 59.3352193, "lon": 12.3333177, "tags": {"name": "H\u00e4ljebyn", "place": "hamlet"}}, {"type": "node", "id": 7472890706, "lat": 59.3048274, "lon": 12.3025631, "tags": {"name": "Karlsfors", "place": "hamlet"}}, {"type": "node", "id": 7472900190, "lat": 59.3281467, "lon": 12.557402, "tags": {"name": "Fj\u00e4ll", "place": "hamlet"}}, {"type": "node", "id": 7472903852, "lat": 59.3631148, "lon": 12.2781045, "tags": {"name": "Sanda", "place": "hamlet"}}, {"type": "node", "id": 7472914575, "lat": 59.3303342, "lon": 12.6463086, "tags": {"name": "Graven", "place": "hamlet"}}, {"type": "node", "id": 7472915483, "lat": 59.3591218, "lon": 12.3912499, "tags": {"name": "Br\u00e4nn\u00e5sen", "place": "hamlet"}}, {"type": "node", "id": 7472915928, "lat": 59.380248, "lon": 12.2572177, "tags": {"name": "Tenvikstorp", "place": "hamlet"}}, {"type": "node", "id": 7472932006, "lat": 59.3356445, "lon": 12.3206658, "tags": {"name": "Stenarsbyn", "place": "hamlet"}}, {"type": "node", "id": 7472940635, "lat": 59.3983632, "lon": 12.3990844, "tags": {"name": "Tegen", "place": "hamlet"}}, {"type": "node", "id": 7472960953, "lat": 59.3534619, "lon": 12.7351592, "tags": {"name": "Rotvik", "place": "hamlet"}}, {"type": "node", "id": 7472963025, "lat": 59.4263578, "lon": 12.7509414, "tags": {"name": "Finserud", "place": "hamlet"}}, {"type": "node", "id": 7472967073, "lat": 59.3590245, "lon": 12.7211789, "tags": {"name": "Speke", "place": "hamlet"}}, {"type": "node", "id": 7473259016, "lat": 59.1947816, "lon": 12.7638167, "tags": {"name": "S\u00e4tterskog", "place": "hamlet"}}, {"type": "node", "id": 7473273358, "lat": 59.1954833, "lon": 12.7951139, "tags": {"name": "Bj\u00f6rk\u00e5s", "place": "hamlet"}}, {"type": "node", "id": 7473280126, "lat": 59.1267096, "lon": 12.8300418, "tags": {"name": "Karudstorp", "place": "hamlet"}}, {"type": "node", "id": 7473289620, "lat": 59.204962, "lon": 12.7913019, "tags": {"name": "Kr\u00e5kbr\u00e5ten", "place": "hamlet"}}, {"type": "node", "id": 7473291407, "lat": 59.1854335, "lon": 12.8610094, "tags": {"name": "Harn\u00e4s", "place": "hamlet"}}, {"type": "node", "id": 7473292249, "lat": 59.1299793, "lon": 12.8461149, "tags": {"name": "Grorud", "place": "hamlet"}}, {"type": "node", "id": 7473295113, "lat": 59.0972392, "lon": 12.8293151, "tags": {"name": "Billsvik", "place": "hamlet"}}, {"type": "node", "id": 7473303810, "lat": 59.1869535, "lon": 12.7960409, "tags": {"name": "Storekleven", "place": "hamlet"}}, {"type": "node", "id": 7473317250, "lat": 59.1784965, "lon": 12.8454888, "tags": {"name": "S\u00f6dra Ed", "place": "hamlet"}}, {"type": "node", "id": 7473319071, "lat": 59.0902629, "lon": 12.7998432, "tags": {"name": "Gatan", "place": "hamlet"}}, {"type": "node", "id": 7473319149, "lat": 59.135024, "lon": 12.814426, "tags": {"name": "Sm\u00e4rslid", "place": "hamlet"}}, {"type": "node", "id": 7473321028, "lat": 59.1753536, "lon": 12.850643, "tags": {"name": "Mon", "place": "hamlet"}}, {"type": "node", "id": 7473321066, "lat": 59.1570138, "lon": 12.9242637, "tags": {"name": "Sunsa", "place": "hamlet"}}, {"type": "node", "id": 7473321190, "lat": 59.1230958, "lon": 12.8244499, "tags": {"name": "Karud", "place": "hamlet"}}, {"type": "node", "id": 7473321723, "lat": 59.147713, "lon": 12.8505621, "tags": {"name": "Valn\u00e4s", "place": "hamlet"}}, {"type": "node", "id": 7473321885, "lat": 59.079873, "lon": 12.8334901, "tags": {"name": "Hulta", "place": "hamlet"}}, {"type": "node", "id": 7473323897, "lat": 59.1607523, "lon": 12.8563637, "tags": {"name": "K\u00e5llerud", "place": "hamlet"}}, {"type": "node", "id": 7473335431, "lat": 59.1130508, "lon": 12.8048345, "tags": {"name": "Gubbr\u00f6nningen", "place": "hamlet"}}, {"type": "node", "id": 7473356450, "lat": 59.0795991, "lon": 12.939765, "tags": {"name": "Rud", "place": "hamlet"}}, {"type": "node", "id": 7473365126, "lat": 59.1497135, "lon": 12.9622258, "tags": {"name": "Ox\u00e5sen", "place": "hamlet"}}, {"type": "node", "id": 7473367732, "lat": 59.1657024, "lon": 12.9536729, "tags": {"name": "Bj\u00f6rrudstorp", "place": "hamlet"}}, {"type": "node", "id": 7473368614, "lat": 59.09051, "lon": 12.8686318, "tags": {"name": "K\u00e4rvinge", "place": "hamlet"}}, {"type": "node", "id": 7473374985, "lat": 59.1562884, "lon": 12.9714606, "tags": {"name": "G\u00f6stakrog", "place": "hamlet"}}, {"type": "node", "id": 7473378367, "lat": 59.1795956, "lon": 12.9449892, "tags": {"name": "Sl\u00e4ttv\u00e5l", "place": "hamlet"}}, {"type": "node", "id": 7473378734, "lat": 59.1644089, "lon": 12.9292555, "tags": {"name": "Borgene", "place": "hamlet"}}, {"type": "node", "id": 7473390466, "lat": 59.1777233, "lon": 12.9219879, "tags": {"name": "Sp\u00e4sslanda", "place": "hamlet"}}, {"type": "node", "id": 7473392940, "lat": 59.1290001, "lon": 13.078922, "tags": {"name": "Ramstad", "place": "hamlet"}}, {"type": "node", "id": 7473411205, "lat": 59.1286865, "lon": 13.0386355, "tags": {"name": "Karlslund", "place": "hamlet"}}, {"type": "node", "id": 7473437108, "lat": 59.110795, "lon": 13.061983, "tags": {"name": "Tolerud", "place": "hamlet"}}, {"type": "node", "id": 7473438193, "lat": 59.1472281, "lon": 13.0536071, "tags": {"name": "V\u00e5letorp", "place": "hamlet"}}, {"type": "node", "id": 7473438641, "lat": 59.1605435, "lon": 13.0712157, "tags": {"name": "Stelerud", "place": "hamlet"}}, {"type": "node", "id": 7473449540, "lat": 59.2080584, "lon": 13.0743323, "tags": {"name": "Ingrirud", "place": "hamlet"}}, {"type": "node", "id": 7473453849, "lat": 59.1463424, "lon": 12.988887, "tags": {"name": "G\u00f6sta", "place": "hamlet"}}, {"type": "node", "id": 7473454484, "lat": 59.1508249, "lon": 13.0154807, "tags": {"name": "Toverud", "place": "hamlet"}}, {"type": "node", "id": 7473457885, "lat": 59.145636, "lon": 13.0227212, "tags": {"name": "Sk\u00e5perud", "place": "hamlet"}}, {"type": "node", "id": 7473461661, "lat": 59.2018941, "lon": 13.0626893, "tags": {"name": "Stirserudstorp", "place": "hamlet"}}, {"type": "node", "id": 7473463099, "lat": 59.1850939, "lon": 13.0442424, "tags": {"name": "Finntorp", "place": "hamlet"}}, {"type": "node", "id": 7473497274, "lat": 59.1922083, "lon": 13.0625214, "tags": {"name": "Stirserud", "place": "hamlet"}}, {"type": "node", "id": 7473501126, "lat": 59.1794598, "lon": 13.0563389, "tags": {"name": "Sand\u00e5sen", "place": "hamlet"}}, {"type": "node", "id": 7474654813, "lat": 59.3130321, "lon": 13.0596043, "tags": {"name": "H\u00e4ggvik", "place": "hamlet"}}, {"type": "node", "id": 7474661775, "lat": 59.3143891, "lon": 13.0410824, "tags": {"name": "Segoltan", "place": "hamlet"}}, {"type": "node", "id": 7474663761, "lat": 59.2118842, "lon": 12.9449139, "tags": {"name": "Backa", "place": "hamlet"}}, {"type": "node", "id": 7474676224, "lat": 59.2109058, "lon": 13.024395, "tags": {"name": "Mellbyn", "place": "hamlet"}}, {"type": "node", "id": 7474677446, "lat": 59.2141519, "lon": 13.0574488, "tags": {"name": "K\u00e4llserud", "place": "hamlet"}}, {"type": "node", "id": 7474693825, "lat": 59.2407392, "lon": 12.9031737, "tags": {"name": "Boda", "place": "hamlet"}}, {"type": "node", "id": 7474703631, "lat": 59.2495214, "lon": 12.9348313, "tags": {"name": "B\u00e4ckelid", "place": "hamlet"}}, {"type": "node", "id": 7474709449, "lat": 59.206035, "lon": 12.8097554, "tags": {"name": "Pr\u00e4stg\u00e5rden", "place": "hamlet"}}, {"type": "node", "id": 7474729500, "lat": 59.3544518, "lon": 13.0294504, "tags": {"name": "Bj\u00f6rnev\u00e5l", "place": "hamlet"}}, {"type": "node", "id": 7474738421, "lat": 59.3245528, "lon": 12.9699239, "tags": {"name": "Bjurtan", "place": "hamlet"}}, {"type": "node", "id": 7474738800, "lat": 59.3385919, "lon": 12.9491292, "tags": {"name": "Sparn\u00e4s", "place": "hamlet"}}, {"type": "node", "id": 7474738972, "lat": 59.3351869, "lon": 12.8550622, "tags": {"name": "Dalen", "place": "hamlet"}}, {"type": "node", "id": 7474743060, "lat": 59.2931377, "lon": 13.037646, "tags": {"name": "Fj\u00e4ll", "place": "hamlet"}}, {"type": "node", "id": 7474758206, "lat": 59.3730773, "lon": 13.0483945, "tags": {"name": "Sand\u00e5ker", "place": "hamlet"}}, {"type": "node", "id": 7474774574, "lat": 59.3631973, "lon": 12.8409181, "tags": {"name": "Sk\u00e4ggebol", "place": "hamlet"}}, {"type": "node", "id": 7474777966, "lat": 59.3631489, "lon": 13.0286108, "tags": {"name": "Bj\u00e4lmerud", "place": "hamlet"}}, {"type": "node", "id": 7474778448, "lat": 59.3663692, "lon": 13.045931, "tags": {"name": "Ingersbyn", "place": "hamlet"}}, {"type": "node", "id": 7474783797, "lat": 59.3525332, "lon": 12.9699804, "tags": {"name": "Sj\u00f6haget", "place": "hamlet"}}, {"type": "node", "id": 7474784094, "lat": 59.3524431, "lon": 12.7830276, "tags": {"name": "Backetorp", "place": "hamlet"}}, {"type": "node", "id": 7474796863, "lat": 59.3444486, "lon": 12.8114184, "tags": {"name": "Fyksn\u00e4s", "place": "hamlet"}}, {"type": "node", "id": 7474799058, "lat": 59.3849958, "lon": 12.9825148, "tags": {"name": "\u00d6verud", "place": "hamlet"}}, {"type": "node", "id": 7474801750, "lat": 59.3735889, "lon": 12.9833579, "tags": {"name": "Gaterud", "place": "hamlet"}}, {"type": "node", "id": 7474802556, "lat": 59.4257409, "lon": 12.8064219, "tags": {"name": "Byn", "place": "hamlet"}}, {"type": "node", "id": 7474803668, "lat": 59.4294413, "lon": 12.9459856, "tags": {"name": "Grinsbol", "place": "hamlet"}}, {"type": "node", "id": 7474803875, "lat": 59.4253627, "lon": 12.8165558, "tags": {"name": "Sk\u00e5rstorp", "place": "hamlet"}}, {"type": "node", "id": 7474809036, "lat": 59.3833285, "lon": 12.8044244, "tags": {"name": "Magnebyn", "place": "hamlet"}}, {"type": "node", "id": 7474821167, "lat": 59.376182, "lon": 12.938202, "tags": {"name": "V\u00e4rmerud", "place": "hamlet"}}, {"type": "node", "id": 7474843187, "lat": 59.3955376, "lon": 12.9753496, "tags": {"name": "\u00c5sterud", "place": "hamlet"}}, {"type": "node", "id": 7475385110, "lat": 59.399674, "lon": 12.2480482, "tags": {"name": "Tj\u00e4rn", "place": "hamlet"}}, {"type": "node", "id": 7477279540, "lat": 59.4501133, "lon": 12.4862942, "tags": {"name": "R\u00e4m\u00e5na", "place": "hamlet"}}, {"type": "node", "id": 7477308815, "lat": 59.4717466, "lon": 12.6396696, "tags": {"name": "\u00d6jedalen", "place": "hamlet"}}, {"type": "node", "id": 7477316159, "lat": 59.4836589, "lon": 12.6577947, "tags": {"name": "\u00c5llevik", "place": "hamlet"}}, {"type": "node", "id": 7477369511, "lat": 59.4954654, "lon": 12.7266398, "tags": {"name": "Haltersbol", "place": "hamlet"}}, {"type": "node", "id": 7477531971, "lat": 59.4579638, "lon": 12.9925364, "tags": {"name": "Br\u00e5ten", "place": "hamlet"}}, {"type": "node", "id": 7477543784, "lat": 59.4479699, "lon": 13.0253635, "tags": {"name": "Butorp", "place": "hamlet"}}, {"type": "node", "id": 7477552046, "lat": 59.437314, "lon": 12.8053788, "tags": {"name": "G\u00f6ksbol", "place": "hamlet"}}, {"type": "node", "id": 7477559550, "lat": 59.4856871, "lon": 12.8743709, "tags": {"name": "Resbol", "place": "hamlet"}}, {"type": "node", "id": 7477615488, "lat": 59.476894, "lon": 12.9277081, "tags": {"name": "Karsbol", "place": "hamlet"}}, {"type": "node", "id": 7477629260, "lat": 59.5077945, "lon": 13.0282837, "tags": {"name": "V\u00e5l\u00e5sen", "place": "hamlet"}}, {"type": "node", "id": 7479803039, "lat": 59.4012918, "lon": 13.0511209, "tags": {"name": "Backarna", "place": "hamlet"}}, {"type": "node", "id": 7479900477, "lat": 59.5006385, "lon": 13.0504246, "tags": {"name": "Smedstorp", "place": "hamlet"}}, {"type": "node", "id": 7479925889, "lat": 59.4864683, "lon": 13.0442147, "tags": {"name": "Botten\u00e4ngen", "place": "hamlet"}}, {"type": "node", "id": 7482963685, "lat": 59.082568, "lon": 12.7361736, "tags": {"name": "Buxbol", "place": "hamlet"}}, {"type": "node", "id": 7482975553, "lat": 59.088199, "lon": 12.6546129, "tags": {"name": "Barkerud", "place": "hamlet"}}, {"type": "node", "id": 7482976958, "lat": 59.0931193, "lon": 12.7112944, "tags": {"name": "Bockarsbyn", "place": "hamlet"}}, {"type": "node", "id": 7482981846, "lat": 59.0764735, "lon": 12.5175792, "tags": {"name": "Halne", "place": "hamlet"}}, {"type": "node", "id": 7482988310, "lat": 59.0954929, "lon": 12.6488023, "tags": {"name": "Stommen", "place": "hamlet"}}, {"type": "node", "id": 7482991729, "lat": 59.0930371, "lon": 12.7218675, "tags": {"name": "K\u00e5ls\u00e4ter", "place": "hamlet"}}, {"type": "node", "id": 7482993233, "lat": 59.0700819, "lon": 12.6367446, "tags": {"name": "Spakebol", "place": "hamlet"}}, {"type": "node", "id": 7482994205, "lat": 59.1004043, "lon": 12.6653241, "tags": {"name": "Haser\u00e5s", "place": "hamlet"}}, {"type": "node", "id": 7482995812, "lat": 59.0916641, "lon": 12.6669555, "tags": {"name": "\u00d6jersbyn", "place": "hamlet"}}, {"type": "node", "id": 7482999135, "lat": 59.0748779, "lon": 12.6411184, "tags": {"name": "Korsbyn", "place": "hamlet"}}, {"type": "node", "id": 7483002110, "lat": 59.0984021, "lon": 12.7256345, "tags": {"name": "Risa", "place": "hamlet"}}, {"type": "node", "id": 7483004442, "lat": 59.1321214, "lon": 12.7289378, "tags": {"name": "\u00c5rhult", "place": "hamlet"}}, {"type": "node", "id": 7483012606, "lat": 59.0890908, "lon": 12.7271169, "tags": {"name": "Sand", "place": "hamlet"}}, {"type": "node", "id": 7483031938, "lat": 59.1262145, "lon": 12.7383504, "tags": {"name": "R\u00f6sev\u00e5l", "place": "hamlet"}}, {"type": "node", "id": 7483033606, "lat": 59.1206307, "lon": 12.6819213, "tags": {"name": "L\u00e5nsbol", "place": "hamlet"}}, {"type": "node", "id": 7483034011, "lat": 59.1120782, "lon": 12.6991028, "tags": {"name": "Boserud", "place": "hamlet"}}, {"type": "node", "id": 7483037042, "lat": 59.128509, "lon": 12.6785651, "tags": {"name": "Baggerud", "place": "hamlet"}}, {"type": "node", "id": 7483039028, "lat": 59.1200099, "lon": 12.6529222, "tags": {"name": "Henebyn", "place": "hamlet"}}, {"type": "node", "id": 7483044050, "lat": 59.1211375, "lon": 12.6372685, "tags": {"name": "Persbyn", "place": "hamlet"}}, {"type": "node", "id": 7483051059, "lat": 59.1096218, "lon": 12.6824692, "tags": {"name": "Klypersbol", "place": "hamlet"}}, {"type": "node", "id": 7483052797, "lat": 59.147888, "lon": 12.6533989, "tags": {"name": "Gressbol", "place": "hamlet"}}, {"type": "node", "id": 7495776820, "lat": 59.078903, "lon": 12.2490372, "tags": {"name": "S\u00f6dra Lund", "place": "hamlet"}}, {"type": "node", "id": 7496589498, "lat": 59.1119329, "lon": 12.4718696, "tags": {"name": "Strandhulten", "place": "hamlet"}}, {"type": "node", "id": 7496591351, "lat": 59.0735242, "lon": 12.4139822, "tags": {"name": "Back\u00f6g\u00e5rden", "place": "hamlet"}}, {"type": "node", "id": 7496653352, "lat": 59.0742703, "lon": 12.3948351, "tags": {"name": "R\u00e5dviken", "place": "hamlet"}}, {"type": "node", "id": 7496687490, "lat": 59.1003332, "lon": 12.4304899, "tags": {"name": "Sundginge", "place": "hamlet"}}, {"type": "node", "id": 7496691282, "lat": 59.1058038, "lon": 12.2964675, "tags": {"name": "Lund", "place": "hamlet"}}, {"type": "node", "id": 7496717942, "lat": 59.0833234, "lon": 12.4390396, "tags": {"name": "Strand", "place": "hamlet"}}, {"type": "node", "id": 7496720772, "lat": 59.1190054, "lon": 12.3072256, "tags": {"name": "Kallhem", "place": "hamlet"}}, {"type": "node", "id": 7496721791, "lat": 59.115731, "lon": 12.3067393, "tags": {"name": "\u00c4ckre", "place": "hamlet"}}, {"type": "node", "id": 7496730330, "lat": 59.125671, "lon": 12.3272393, "tags": {"name": "Alsbyn", "place": "hamlet"}}, {"type": "node", "id": 7496731556, "lat": 59.1128672, "lon": 12.3261795, "tags": {"name": "H\u00f6glund", "place": "hamlet"}}, {"type": "node", "id": 7496740471, "lat": 59.1122238, "lon": 12.3046338, "tags": {"name": "\u00c4ngen", "place": "hamlet"}}, {"type": "node", "id": 7496744845, "lat": 59.1410304, "lon": 12.3644619, "tags": {"name": "G\u00e5rdsj\u00f6", "place": "hamlet"}}, {"type": "node", "id": 7496815571, "lat": 59.1596656, "lon": 12.3220703, "tags": {"name": "G\u00e4llsn\u00e4s", "place": "hamlet"}}, {"type": "node", "id": 7496833560, "lat": 59.1919696, "lon": 12.2454033, "tags": {"name": "Krokane", "place": "hamlet"}}]}