{"version": 0.6, "generator": "Overpass API 0.7.61.5 4133829e", "osm3s": {"timestamp_osm_base": "2024-03-05T15:07:00Z", "copyright": "The data included in this document is from www.openstreetmap.org. The data is made available under ODbL."}, "elements": [{"type": "node", "id": 26592946, "lat": 57.6530377, "lon": 14.6981554, "tags": {"importance": "national", "name": "N\u00e4ssj\u00f6", "name:ru": "\u041d\u0435\u0441\u0448\u0451", "name:sv": "N\u00e4ssj\u00f6", "place": "town", "population": "16678", "ref:se:pts:postort": "N\u00c4SSJ\u00d6", "ref:se:scb": "1608", "wikidata": "Q654299", "wikipedia": "sv:N\u00e4ssj\u00f6"}}, {"type": "node", "id": 111915147, "lat": 57.4021387, "lon": 14.6667098, "tags": {"name": "S\u00e4vsj\u00f6", "name:ru": "\u0421\u0435\u0432\u0448\u0451", "name:sv": "S\u00e4vsj\u00f6", "place": "town", "population": "5122", "ref:se:pts:postort": "S\u00c4VSJ\u00d6", "ref:se:scb": "1688", "wikidata": "Q985616", "wikipedia": "sv:S\u00e4vsj\u00f6"}}, {"type": "node", "id": 111937980, "lat": 57.4980578, "lon": 14.1484787, "tags": {"name": "Vaggeryd", "name:ru": "\u0412\u0430\u0433\u0433\u0435\u0440\u044e\u0434", "name:sv": "Vaggeryd", "place": "town", "population": "5122", "ref:se:pts:postort": "VAGGERYD", "ref:se:scb": "1720", "wikipedia": "sv:Vaggeryd"}}, {"type": "node", "id": 111937982, "lat": 57.4289474, "lon": 14.091985, "tags": {"name": "Skillingaryd", "name:ru": "\u0428\u0438\u043b\u043b\u0438\u043d\u0433\u0430\u0440\u044e\u0434", "name:sv": "Skillingaryd", "place": "town", "population": "3889", "ref:se:pts:postort": "SKILLINGARYD", "ref:se:scb": "1656"}}, {"type": "node", "id": 201926688, "lat": 57.3551884, "lon": 14.1013807, "tags": {"name": "Klevshult", "place": "village", "ref:se:scb": "1552"}}, {"type": "node", "id": 254041816, "lat": 57.3546161, "lon": 14.4741323, "tags": {"name": "Vrigstad", "place": "village", "ref:se:pts:postort": "VRIGSTAD", "ref:se:scb": "1728"}}, {"type": "node", "id": 263348839, "lat": 57.7550923, "lon": 14.0840187, "tags": {"name": "V\u00e4stersj\u00f6n", "place": "village"}}, {"type": "node", "id": 267171850, "lat": 57.7345037, "lon": 14.7492309, "tags": {"name": "Solberga", "place": "village", "ref:se:pts:postort": "SOLBERGA", "ref:se:scb": "1668"}}, {"type": "node", "id": 267175053, "lat": 57.773366, "lon": 14.418215, "tags": {"name": "Lekeryd", "place": "village", "ref:se:pts:postort": "LEKERYD", "ref:se:scb": "1576", "wikidata": "Q2693699"}}, {"type": "node", "id": 308026322, "lat": 57.7066549, "lon": 14.3210335, "tags": {"name": "Tenhult", "place": "village", "ref:se:pts:postort": "TENHULT", "ref:se:scb": "1696", "wikidata": "Q2264128"}}, {"type": "node", "id": 308050087, "lat": 57.6789477, "lon": 14.0918656, "tags": {"name": "Taberg", "place": "village", "population": "5000", "ref:se:pts:postort": "TABERG", "ref:se:scb": "1692", "wikidata": "Q2745396"}}, {"type": "node", "id": 308051200, "lat": 57.7025277, "lon": 14.1189881, "tags": {"name": "Norrahammar", "place": "village", "population": "9500", "ref:se:pts:postort": "NORRAHAMMAR", "wikidata": "Q2944368", "wikipedia": "sv:Norrahammar"}}, {"type": "node", "id": 308053262, "lat": 57.5406195, "lon": 14.141226, "tags": {"name": "Byarum", "place": "village"}}, {"type": "node", "id": 308053304, "lat": 57.5172107, "lon": 14.2744352, "tags": {"name": "Hok", "place": "village", "ref:se:pts:postort": "HOK", "ref:se:scb": "1516"}}, {"type": "node", "id": 308053449, "lat": 57.5812266, "lon": 14.4586279, "tags": {"name": "Malmb\u00e4ck", "place": "village", "ref:se:pts:postort": "MALMB\u00c4CK", "ref:se:scb": "1584"}}, {"type": "node", "id": 309480744, "lat": 57.6130892, "lon": 14.7740441, "tags": {"name": "Gisseb\u00e4ck", "place": "hamlet"}}, {"type": "node", "id": 560057680, "lat": 57.6165324, "lon": 14.2915375, "tags": {"name": "\u00d6destugu", "place": "village", "wikidata": "Q293973"}}, {"type": "node", "id": 560057885, "lat": 57.6202427, "lon": 14.6030921, "tags": {"name": "Fredriksdal", "place": "village", "ref:se:pts:postort": "FREDRIKSDAL", "ref:se:scb": "1476"}}, {"type": "node", "id": 560058077, "lat": 57.699733, "lon": 14.4723521, "tags": {"name": "Forserum", "place": "village", "ref:se:pts:postort": "FORSERUM", "ref:se:scb": "1468"}}, {"type": "node", "id": 560060711, "lat": 57.5563165, "lon": 14.6019275, "tags": {"name": "Almes\u00e5kra", "place": "hamlet"}}, {"type": "node", "id": 560060926, "lat": 57.5052622, "lon": 14.7033794, "tags": {"name": "Bodafors", "place": "village", "population": "2045", "ref:se:pts:postort": "BODAFORS", "ref:se:scb": "1424", "wikidata": "Q1821030", "wikipedia": "sv:Bodafors"}}, {"type": "node", "id": 618912510, "lat": 57.4005016, "lon": 14.4224446, "tags": {"name": "Lammaskog", "place": "hamlet"}}, {"type": "node", "id": 618912512, "lat": 57.3681176, "lon": 14.4378083, "tags": {"name": "Boda", "place": "hamlet"}}, {"type": "node", "id": 618912513, "lat": 57.4097258, "lon": 14.4284956, "tags": {"name": "Gettersryd", "place": "hamlet"}}, {"type": "node", "id": 619263294, "lat": 57.3634142, "lon": 14.5020215, "tags": {"name": "Biskopsbo", "place": "hamlet"}}, {"type": "node", "id": 619377739, "lat": 57.3396935, "lon": 14.5681462, "tags": {"name": "H\u00e4llaryd", "place": "hamlet"}}, {"type": "node", "id": 626682597, "lat": 57.365155, "lon": 14.4833697, "tags": {"name": "K\u00f6pstad", "place": "hamlet"}}, {"type": "node", "id": 626682641, "lat": 57.3687652, "lon": 14.5182598, "tags": {"name": "Gnillinge", "place": "hamlet"}}, {"type": "node", "id": 626682677, "lat": 57.4059021, "lon": 14.5093338, "tags": {"name": "Hylletofta", "place": "village"}}, {"type": "node", "id": 626682721, "lat": 57.3489742, "lon": 14.4526853, "tags": {"name": "Lundholmen", "place": "hamlet"}}, {"type": "node", "id": 626691715, "lat": 57.4237307, "lon": 14.4037188, "tags": {"name": "Porsam\u00e5len", "place": "hamlet"}}, {"type": "node", "id": 634417708, "lat": 57.3612317, "lon": 14.4554181, "tags": {"name": "Lundby", "place": "hamlet"}}, {"type": "node", "id": 634515017, "lat": 57.3412976, "lon": 14.4799657, "tags": {"name": "Blommedal", "place": "hamlet"}}, {"type": "node", "id": 726583866, "lat": 57.3974059, "lon": 14.688717, "tags": {"name": "Vallsj\u00f6", "place": "hamlet"}}, {"type": "node", "id": 726583871, "lat": 57.3950246, "lon": 14.6936073, "tags": {"name": "Eksj\u00f6hovg\u00e5rd", "place": "hamlet"}}, {"type": "node", "id": 726723069, "lat": 57.3937693, "lon": 14.6457134, "tags": {"name": "M\u00e4jensj\u00f6", "place": "hamlet"}}, {"type": "node", "id": 726800762, "lat": 57.4124847, "lon": 14.7096161, "tags": {"name": "Upp\u00e5kra", "place": "hamlet"}}, {"type": "node", "id": 726800782, "lat": 57.4264743, "lon": 14.693563, "tags": {"name": "Skrapstad", "place": "hamlet"}}, {"type": "node", "id": 735099052, "lat": 57.3770303, "lon": 14.5888732, "tags": {"name": "Norra Ljunga", "place": "hamlet"}}, {"type": "node", "id": 735099053, "lat": 57.4025922, "lon": 14.607583, "tags": {"name": "Komstad", "place": "hamlet"}}, {"type": "node", "id": 842225242, "lat": 57.4698699, "lon": 14.3174601, "tags": {"name": "Svenarum", "place": "village"}}, {"type": "node", "id": 845801183, "lat": 57.5291663, "lon": 14.607632, "tags": {"name": "Storkvarn", "place": "hamlet"}}, {"type": "node", "id": 845801421, "lat": 57.546483, "lon": 14.5647238, "tags": {"name": "K\u00e4rrabo", "place": "hamlet"}}, {"type": "node", "id": 845801582, "lat": 57.5355624, "lon": 14.5710682, "tags": {"name": "Davidstorp", "place": "hamlet"}}, {"type": "node", "id": 845801669, "lat": 57.5616386, "lon": 14.588053, "tags": {"name": "Barkansj\u00f6", "place": "hamlet"}}, {"type": "node", "id": 845801788, "lat": 57.5215052, "lon": 14.5995254, "tags": {"name": "Klev", "place": "hamlet"}}, {"type": "node", "id": 896373460, "lat": 57.3920035, "lon": 14.5815891, "tags": {"name": "Mossaryd", "place": "hamlet"}}, {"type": "node", "id": 940880039, "lat": 57.6210759, "lon": 14.7277428, "tags": {"name": "Is\u00e5sa", "place": "hamlet"}}, {"type": "node", "id": 940880225, "lat": 57.6004175, "lon": 14.7521609, "tags": {"name": "Hultarp", "place": "hamlet"}}, {"type": "node", "id": 1243371061, "lat": 57.7400078, "lon": 14.1194582, "tags": {"name": "B\u00e5rarp", "place": "hamlet"}}, {"type": "node", "id": 1243624801, "lat": 57.7412052, "lon": 14.0864199, "tags": {"name": "Sandseryd", "place": "village"}}, {"type": "node", "id": 1295482561, "lat": 57.6589469, "lon": 14.1925546, "tags": {"name": "Lovsj\u00f6", "place": "village"}}, {"type": "node", "id": 1515972562, "lat": 57.5541893, "lon": 14.7005184, "tags": {"name": "Grimstorp", "place": "village", "ref:se:pts:postort": "GRIMSTORP", "ref:se:scb": "1492"}}, {"type": "node", "id": 1717450320, "lat": 57.6955717, "lon": 14.5666709, "tags": {"name": "\u00c4ng", "place": "hamlet", "ref:se:pts:postort": "\u00c4NG", "ref:se:scb": "1740"}}, {"type": "node", "id": 1773582091, "lat": 57.3494937, "lon": 14.7646823, "tags": {"name": "Skepperstad", "place": "village", "wikidata": "Q1606250", "wikipedia": "sv:Skepperstad"}}, {"type": "node", "id": 1803047777, "lat": 57.723374, "lon": 14.3835715, "tags": {"name": "\u00d6ggestorp", "place": "village", "population": "212", "ref:se:scb": "1742", "wikidata": "Q2736021"}}, {"type": "node", "id": 1824719009, "lat": 57.4462486, "lon": 14.6168841, "tags": {"name": "Bringetofta", "place": "hamlet", "source": "knowledge"}}, {"type": "node", "id": 1824719024, "lat": 57.4871799, "lon": 14.774995, "tags": {"name": "Besekull", "place": "hamlet", "source": "knowledge"}}, {"type": "node", "id": 1824719025, "lat": 57.4966014, "lon": 14.7649206, "tags": {"name": "\u00d6vrarp", "place": "hamlet", "source": "knowledge"}}, {"type": "node", "id": 1824719028, "lat": 57.5189229, "lon": 14.7738792, "tags": {"name": "Sylvansborg", "place": "hamlet", "source": "knowledge"}}, {"type": "node", "id": 1871858146, "lat": 57.5175869, "lon": 14.5816242, "tags": {"name": "Sj\u00f6aveka", "place": "hamlet"}}, {"type": "node", "id": 1880802549, "lat": 57.3762026, "lon": 14.2838564, "tags": {"name": "Rolstorp", "place": "hamlet"}}, {"type": "node", "id": 1880802552, "lat": 57.3944296, "lon": 14.2977181, "tags": {"name": "Glastorp", "place": "hamlet"}}, {"type": "node", "id": 1880802557, "lat": 57.3900356, "lon": 14.3035117, "tags": {"name": "Hubbestad", "place": "hamlet"}}, {"type": "node", "id": 1885245522, "lat": 57.4111297, "lon": 14.310641, "tags": {"name": "Yxenhaga", "place": "hamlet"}}, {"type": "node", "id": 1885245591, "lat": 57.4201779, "lon": 14.3078086, "tags": {"name": "Svenstorp", "place": "hamlet"}}, {"type": "node", "id": 1885245613, "lat": 57.4045415, "lon": 14.3164785, "tags": {"name": "Norra Hubbestad", "place": "hamlet", "short_name": "N. Hubbestad"}}, {"type": "node", "id": 1891496744, "lat": 57.4884854, "lon": 14.3741313, "tags": {"name": "L\u00e5ngserum", "place": "hamlet"}}, {"type": "node", "id": 1891497123, "lat": 57.4707436, "lon": 14.3471848, "tags": {"name": "Hagafors", "place": "village"}}, {"type": "node", "id": 1927497027, "lat": 57.3921, "lon": 14.7636487, "tags": {"name": "Vallsj\u00f6", "place": "village"}}, {"type": "node", "id": 1944466746, "lat": 57.4006163, "lon": 14.6280483, "tags": {"name": "Enhult", "place": "hamlet"}}, {"type": "node", "id": 1944476627, "lat": 57.4077312, "lon": 14.6423928, "tags": {"name": "Norrag\u00e5rden", "place": "hamlet"}}, {"type": "node", "id": 1945967262, "lat": 57.3763643, "lon": 14.6947853, "tags": {"name": "Sj\u00f6berg", "place": "hamlet"}}, {"type": "node", "id": 2236207107, "lat": 57.6535457, "lon": 14.0688219, "tags": {"name": "M\u00e5nsarp", "place": "village", "ref:se:pts:postort": "M\u00c5NSARP"}}, {"type": "node", "id": 2291156737, "lat": 57.7076329, "lon": 14.1757875, "tags": {"name": "Odensj\u00f6", "place": "village", "population": "2495", "ref:se:scb": "1612", "wikidata": "Q2161782"}}, {"type": "node", "id": 2716168640, "lat": 57.4886758, "lon": 14.7147104, "tags": {"name": "Nyholm", "place": "hamlet"}}, {"type": "node", "id": 2975334344, "lat": 57.4668616, "lon": 14.7592335, "tags": {"name": "Norra Sandsj\u00f6n", "place": "hamlet"}}, {"type": "node", "id": 3026175353, "lat": 57.6938217, "lon": 14.763118, "tags": {"name": "Danstorp", "place": "hamlet"}}, {"type": "node", "id": 3026175359, "lat": 57.6705338, "lon": 14.7411631, "tags": {"name": "Hunseberg", "place": "hamlet"}}, {"type": "node", "id": 3026175360, "lat": 57.6861416, "lon": 14.7319329, "tags": {"name": "Fagertofta", "place": "hamlet"}}, {"type": "node", "id": 3067232451, "lat": 57.4739382, "lon": 14.5466917, "tags": {"name": "Hylte", "place": "hamlet"}}, {"type": "node", "id": 3687863267, "lat": 57.5339641, "lon": 14.3073059, "tags": {"name": "H\u00f6gahylte", "place": "hamlet"}}, {"type": "node", "id": 3687863299, "lat": 57.5317295, "lon": 14.2953325, "tags": {"name": "\u00d6sterskog", "place": "hamlet"}}, {"type": "node", "id": 3687863300, "lat": 57.53674, "lon": 14.2952467, "tags": {"name": "Krokek", "place": "hamlet"}}, {"type": "node", "id": 4311827614, "lat": 57.4671796, "lon": 14.6219905, "tags": {"name": "Drageryd", "place": "hamlet"}}, {"type": "node", "id": 4311827615, "lat": 57.5162821, "lon": 14.5382197, "tags": {"name": "Ekelsj\u00f6", "place": "hamlet"}}, {"type": "node", "id": 4311827616, "lat": 57.4308177, "lon": 14.6319683, "tags": {"name": "Femtinge", "place": "hamlet"}}, {"type": "node", "id": 4311827617, "lat": 57.4524464, "lon": 14.6524175, "tags": {"name": "Forsa", "place": "hamlet"}}, {"type": "node", "id": 4311827618, "lat": 57.5063816, "lon": 14.5497425, "tags": {"name": "F\u00e4gerhult", "place": "hamlet"}}, {"type": "node", "id": 4311827620, "lat": 57.4993205, "lon": 14.5794614, "tags": {"name": "G\u00e5deberg", "place": "hamlet"}}, {"type": "node", "id": 4311827623, "lat": 57.5050213, "lon": 14.6408518, "tags": {"name": "Havsj\u00f6", "place": "hamlet"}}, {"type": "node", "id": 4311827624, "lat": 57.4624366, "lon": 14.6424826, "tags": {"name": "Hj\u00e4lmseryd", "place": "hamlet"}}, {"type": "node", "id": 4311827625, "lat": 57.5313236, "lon": 14.6337064, "tags": {"name": "Hj\u00e4rts\u00f6la", "place": "hamlet"}}, {"type": "node", "id": 4311827627, "lat": 57.4925117, "lon": 14.505883, "tags": {"name": "Kalvs\u00e5s", "place": "hamlet"}}, {"type": "node", "id": 4311827630, "lat": 57.4488675, "lon": 14.5540126, "tags": {"name": "L\u00e4mmarp", "place": "hamlet"}}, {"type": "node", "id": 4311827631, "lat": 57.4926732, "lon": 14.6195443, "tags": {"name": "Mattarp", "place": "hamlet"}}, {"type": "node", "id": 4311827633, "lat": 57.4229737, "lon": 14.5977219, "tags": {"name": "Rickelstorp", "place": "hamlet"}}, {"type": "node", "id": 4311827634, "lat": 57.4787866, "lon": 14.6497782, "tags": {"name": "Skaftarp", "place": "hamlet"}}, {"type": "node", "id": 4311827637, "lat": 57.4642138, "lon": 14.5704599, "tags": {"name": "Strete", "place": "hamlet"}}, {"type": "node", "id": 4311827640, "lat": 57.5110555, "lon": 14.5884522, "tags": {"name": "Ulvahult", "place": "hamlet"}}, {"type": "node", "id": 4457135689, "lat": 57.7201818, "lon": 14.2330833, "tags": {"name": "Bashult", "place": "village"}}, {"type": "node", "id": 4462117283, "lat": 57.3830468, "lon": 13.9966779, "tags": {"name": "\u00c5ker", "place": "hamlet"}}, {"type": "node", "id": 4557096336, "lat": 57.4998598, "lon": 14.4424295, "tags": {"name": "Grimstorp", "place": "hamlet"}}, {"type": "node", "id": 4557096337, "lat": 57.4950549, "lon": 14.4410032, "tags": {"name": "Hallen", "place": "hamlet"}}, {"type": "node", "id": 4557096600, "lat": 57.5091485, "lon": 14.4532645, "tags": {"name": "S\u00f6dra M\u00f6rekull", "place": "hamlet"}}, {"type": "node", "id": 4557104616, "lat": 57.4913689, "lon": 14.4270763, "tags": {"name": "Holgersbygget", "place": "hamlet"}}, {"type": "node", "id": 5137103907, "lat": 57.4805825, "lon": 14.1650915, "tags": {"name": "Taglarp", "place": "hamlet"}}, {"type": "node", "id": 5137239868, "lat": 57.6258588, "lon": 14.1231653, "tags": {"name": "Sj\u00f6hult", "place": "hamlet"}}, {"type": "node", "id": 7454994004, "lat": 57.7100113, "lon": 14.0862165, "tags": {"name": "Stora \u00c5sa", "place": "hamlet"}}, {"type": "node", "id": 7454994563, "lat": 57.5950143, "lon": 14.0912436, "tags": {"name": "Norra Kulhult", "place": "hamlet"}}, {"type": "node", "id": 7454994890, "lat": 57.754484, "lon": 14.4574864, "tags": {"name": "V\u00e4stra H\u00f6rreda", "place": "hamlet"}}, {"type": "node", "id": 7455027591, "lat": 57.3782076, "lon": 14.3771145, "tags": {"name": "L\u00f6nshult", "place": "hamlet"}}, {"type": "node", "id": 7455042288, "lat": 57.7716843, "lon": 14.6963928, "tags": {"name": "V\u00e4stra Fagerhult", "place": "hamlet"}}, {"type": "node", "id": 7455044556, "lat": 57.4569511, "lon": 14.5080593, "tags": {"name": "S\u00f6dra Vak\u00e5s", "place": "hamlet"}}, {"type": "node", "id": 7455074347, "lat": 57.6200127, "lon": 14.5168393, "tags": {"name": "Norra Hiarum", "place": "hamlet"}}, {"type": "node", "id": 7455136666, "lat": 57.4272837, "lon": 14.6398696, "tags": {"name": "S\u00f6drag\u00e5rden", "place": "hamlet"}}, {"type": "node", "id": 7455140330, "lat": 57.3473203, "lon": 14.0489684, "tags": {"name": "V\u00e4stra N\u00e4ssja", "place": "hamlet"}}, {"type": "node", "id": 7455144653, "lat": 57.4039472, "lon": 14.1434116, "tags": {"name": "Linneryd", "place": "hamlet"}}, {"type": "node", "id": 7455146383, "lat": 57.5797537, "lon": 14.0830704, "tags": {"name": "S\u00f6dra Kulhult", "place": "hamlet"}}, {"type": "node", "id": 7455229199, "lat": 57.605811, "lon": 14.5145348, "tags": {"name": "S\u00f6dra Hiarum", "place": "hamlet"}}, {"type": "node", "id": 7455240928, "lat": 57.4264435, "lon": 14.0569724, "tags": {"name": "Sl\u00e4tthultet", "place": "hamlet"}}, {"type": "node", "id": 7455263651, "lat": 57.6922011, "lon": 14.2292184, "tags": {"name": "\u00d6stra Ubbarp", "place": "hamlet"}}, {"type": "node", "id": 7455268526, "lat": 57.6975166, "lon": 14.2215885, "tags": {"name": "V\u00e4stra Ubbarp", "place": "hamlet"}}, {"type": "node", "id": 7455269584, "lat": 57.6145731, "lon": 14.7376763, "tags": {"name": "S\u00f6dra M\u00e5len", "place": "hamlet"}}, {"type": "node", "id": 7455271260, "lat": 57.3857635, "lon": 14.1846341, "tags": {"name": "Norra Grohult", "place": "hamlet"}}, {"type": "node", "id": 7455278503, "lat": 57.4967339, "lon": 14.3510538, "tags": {"name": "S\u00f6dra Hult", "place": "hamlet"}}, {"type": "node", "id": 7455289019, "lat": 57.4962061, "lon": 14.4666035, "tags": {"name": "Stora \u00c5kerhult", "place": "hamlet"}}, {"type": "node", "id": 7455294840, "lat": 57.7014315, "lon": 13.9845648, "tags": {"name": "Norra H\u00f6khult", "place": "hamlet"}}, {"type": "node", "id": 7455296235, "lat": 57.6395401, "lon": 14.1999824, "tags": {"name": "S\u00f6dra Stigamo", "place": "hamlet"}}, {"type": "node", "id": 7455298061, "lat": 57.6075935, "lon": 14.6840571, "tags": {"name": "Solbacka", "place": "hamlet"}}, {"type": "node", "id": 7455317688, "lat": 57.5353916, "lon": 14.6694317, "tags": {"name": "\u00d6stra Hult", "place": "hamlet"}}, {"type": "node", "id": 7455338087, "lat": 57.5458446, "lon": 14.6580773, "tags": {"name": "V\u00e4stra Hult", "place": "hamlet"}}, {"type": "node", "id": 7455340883, "lat": 57.5716846, "lon": 14.6283096, "tags": {"name": "V\u00e4stra G\u00f6deberg", "place": "hamlet"}}, {"type": "node", "id": 7455346177, "lat": 57.464759, "lon": 14.2464638, "tags": {"name": "Stora Ekes\u00e5s", "place": "hamlet"}}, {"type": "node", "id": 7455396331, "lat": 57.7267796, "lon": 14.2508444, "tags": {"name": "Lilla V\u00e4stansj\u00f6", "place": "hamlet"}}, {"type": "node", "id": 7461601368, "lat": 57.6389517, "lon": 13.9751198, "tags": {"name": "Ekornahult", "place": "hamlet"}}, {"type": "node", "id": 7461604194, "lat": 57.6542347, "lon": 13.9989878, "tags": {"name": "Hestra", "place": "hamlet"}}, {"type": "node", "id": 7461646057, "lat": 57.670695, "lon": 13.9680549, "tags": {"name": "Sevdabo", "place": "hamlet"}}, {"type": "node", "id": 7461653629, "lat": 57.7179409, "lon": 13.9740462, "tags": {"name": "Gagnaryd", "place": "hamlet"}}, {"type": "node", "id": 7461661542, "lat": 57.6999567, "lon": 14.0263846, "tags": {"name": "Mj\u00e4llbo", "place": "hamlet"}}, {"type": "node", "id": 7461676505, "lat": 57.6890315, "lon": 14.0462194, "tags": {"name": "Boeryd", "place": "hamlet"}}, {"type": "node", "id": 7461679238, "lat": 57.7143268, "lon": 14.0306319, "tags": {"name": "Hyltan", "place": "hamlet"}}, {"type": "node", "id": 7461682132, "lat": 57.6948852, "lon": 14.0164382, "tags": {"name": "Jordshult", "place": "hamlet"}}, {"type": "node", "id": 7461683202, "lat": 57.6718597, "lon": 14.0671081, "tags": {"name": "K\u00e5peryd", "place": "hamlet"}}, {"type": "node", "id": 7461684375, "lat": 57.6794833, "lon": 14.0367623, "tags": {"name": "M\u00e5lskog", "place": "hamlet"}}, {"type": "node", "id": 7461685632, "lat": 57.6900639, "lon": 14.031576, "tags": {"name": "Karshult", "place": "hamlet"}}, {"type": "node", "id": 7461685634, "lat": 57.6734797, "lon": 13.9981722, "tags": {"name": "Hacklarsbo", "place": "hamlet"}}, {"type": "node", "id": 7461686135, "lat": 57.6992603, "lon": 14.0505651, "tags": {"name": "G\u00f6ljhult", "place": "hamlet"}}, {"type": "node", "id": 7461700010, "lat": 57.7220227, "lon": 14.025041, "tags": {"name": "J\u00e4bo", "place": "hamlet"}}, {"type": "node", "id": 7461714517, "lat": 57.7343745, "lon": 14.0933777, "tags": {"name": "Lidstorp", "place": "hamlet"}}, {"type": "node", "id": 7461730755, "lat": 57.7257254, "lon": 14.0860722, "tags": {"name": "M\u00e5nstorp", "place": "hamlet"}}, {"type": "node", "id": 7461743948, "lat": 57.7351333, "lon": 13.9683368, "tags": {"name": "Svinhult", "place": "hamlet"}}, {"type": "node", "id": 7461780847, "lat": 57.762407, "lon": 14.1082347, "tags": {"name": "\u00d6vrabo", "place": "hamlet"}}, {"type": "node", "id": 7462246452, "lat": 57.34762, "lon": 14.1852207, "tags": {"name": "Torp", "place": "hamlet"}}, {"type": "node", "id": 7462257552, "lat": 57.3413785, "lon": 14.1608358, "tags": {"name": "M\u00e5len", "place": "hamlet"}}, {"type": "node", "id": 7462268365, "lat": 57.3637096, "lon": 14.0434282, "tags": {"name": "Galt\u00e5s", "place": "hamlet"}}, {"type": "node", "id": 7462281861, "lat": 57.3383285, "lon": 13.9959012, "tags": {"name": "Str\u00e5keved", "place": "hamlet"}}, {"type": "node", "id": 7462312848, "lat": 57.3635947, "lon": 14.1342307, "tags": {"name": "Kushult", "place": "hamlet"}}, {"type": "node", "id": 7462322298, "lat": 57.3487302, "lon": 14.1492853, "tags": {"name": "Boda", "place": "hamlet"}}, {"type": "node", "id": 7462332141, "lat": 57.3379629, "lon": 14.1472407, "tags": {"name": "Packebo", "place": "hamlet"}}, {"type": "node", "id": 7462333798, "lat": 57.365436, "lon": 14.0897607, "tags": {"name": "Fryebo", "place": "hamlet"}}, {"type": "node", "id": 7462335533, "lat": 57.3993884, "lon": 14.1696449, "tags": {"name": "Sj\u00f6eryd", "place": "hamlet"}}, {"type": "node", "id": 7462338755, "lat": 57.3460399, "lon": 14.1250533, "tags": {"name": "R\u00f6sberga", "place": "hamlet"}}, {"type": "node", "id": 7462339061, "lat": 57.3598773, "lon": 14.1762057, "tags": {"name": "Starkeryd", "place": "hamlet"}}, {"type": "node", "id": 7462353432, "lat": 57.3978013, "lon": 14.1880184, "tags": {"name": "Klockareg\u00e5rden", "place": "hamlet"}}, {"type": "node", "id": 7462363414, "lat": 57.390738, "lon": 14.1509407, "tags": {"name": "M\u00f6lnarp", "place": "hamlet"}}, {"type": "node", "id": 7462395023, "lat": 57.4114093, "lon": 13.9824492, "tags": {"name": "Ryd", "place": "hamlet"}}, {"type": "node", "id": 7462407787, "lat": 57.4089257, "lon": 13.9975983, "tags": {"name": "F\u00f6reberg", "place": "hamlet"}}, {"type": "node", "id": 7462412717, "lat": 57.3925119, "lon": 14.0261316, "tags": {"name": "\u00c4lgebo", "place": "hamlet"}}, {"type": "node", "id": 7462417027, "lat": 57.4053388, "lon": 14.0858589, "tags": {"name": "H\u00f6gabr\u00e5ten", "place": "hamlet"}}, {"type": "node", "id": 7462417596, "lat": 57.3771447, "lon": 14.045299, "tags": {"name": "Broddarp", "place": "hamlet"}}, {"type": "node", "id": 7462417879, "lat": 57.3765986, "lon": 14.0279336, "tags": {"name": "Bockebo", "place": "hamlet"}}, {"type": "node", "id": 7462422735, "lat": 57.3863201, "lon": 14.0648734, "tags": {"name": "Harfall", "place": "hamlet"}}, {"type": "node", "id": 7462424036, "lat": 57.4025802, "lon": 14.0851897, "tags": {"name": "Gryt\u00e5s", "place": "hamlet"}}, {"type": "node", "id": 7462436044, "lat": 57.4165417, "lon": 14.173069, "tags": {"name": "N\u00e5thult", "place": "hamlet"}}, {"type": "node", "id": 7462436825, "lat": 57.4009328, "lon": 14.0571787, "tags": {"name": "H\u00e4radsk\u00f6p", "place": "hamlet"}}, {"type": "node", "id": 7462442187, "lat": 57.3691797, "lon": 14.0552493, "tags": {"name": "Mo", "place": "hamlet"}}, {"type": "node", "id": 7462444444, "lat": 57.4160534, "lon": 14.2075087, "tags": {"name": "Torp", "place": "hamlet"}}, {"type": "node", "id": 7462447524, "lat": 57.4326473, "lon": 14.1879961, "tags": {"name": "Gimmarp", "place": "hamlet"}}, {"type": "node", "id": 7462448384, "lat": 57.4436575, "lon": 14.0607778, "tags": {"name": "M\u00f6rkebo", "place": "hamlet"}}, {"type": "node", "id": 7462449445, "lat": 57.4188248, "lon": 14.1884023, "tags": {"name": "Ekhult", "place": "hamlet"}}, {"type": "node", "id": 7462452747, "lat": 57.4406199, "lon": 14.1763243, "tags": {"name": "Boarp", "place": "hamlet"}}, {"type": "node", "id": 7462457451, "lat": 57.4464072, "lon": 14.1905238, "tags": {"name": "Henriksbo", "place": "hamlet"}}, {"type": "node", "id": 7462460648, "lat": 57.4240125, "lon": 14.1670721, "tags": {"name": "Ryd", "place": "hamlet"}}, {"type": "node", "id": 7462465184, "lat": 57.4313623, "lon": 14.1714024, "tags": {"name": "Fastorp", "place": "hamlet"}}, {"type": "node", "id": 7462483412, "lat": 57.4334297, "lon": 13.9844626, "tags": {"name": "Hagstad", "place": "hamlet"}}, {"type": "node", "id": 7462499336, "lat": 57.4271903, "lon": 14.0300027, "tags": {"name": "Starrike", "place": "hamlet"}}, {"type": "node", "id": 7462499553, "lat": 57.4197519, "lon": 14.0171696, "tags": {"name": "\u00c4ddebo", "place": "hamlet"}}, {"type": "node", "id": 7462500928, "lat": 57.4398216, "lon": 14.038663, "tags": {"name": "Stenshestra", "place": "hamlet"}}, {"type": "node", "id": 7462516742, "lat": 57.4935886, "lon": 14.0116463, "tags": {"name": "Ovdaskog", "place": "hamlet"}}, {"type": "node", "id": 7462516769, "lat": 57.4628622, "lon": 13.996406, "tags": {"name": "P\u00e5lskog", "place": "hamlet"}}, {"type": "node", "id": 7462517532, "lat": 57.4313592, "lon": 13.9966527, "tags": {"name": "Ljungberg", "place": "hamlet"}}, {"type": "node", "id": 7462524201, "lat": 57.4868455, "lon": 14.0883945, "tags": {"name": "Skogshyltan", "place": "hamlet"}}, {"type": "node", "id": 7462528247, "lat": 57.4846844, "lon": 14.0228676, "tags": {"name": "Gryt\u00e5s", "place": "hamlet"}}, {"type": "node", "id": 7462528281, "lat": 57.4605014, "lon": 14.0500116, "tags": {"name": "Pukarp", "place": "hamlet"}}, {"type": "node", "id": 7462565487, "lat": 57.4566478, "lon": 14.0184437, "tags": {"name": "Uljeshult", "place": "hamlet"}}, {"type": "node", "id": 7462571405, "lat": 57.4530205, "lon": 13.9980756, "tags": {"name": "Linn\u00e5s", "place": "hamlet"}}, {"type": "node", "id": 7462575670, "lat": 57.5435488, "lon": 14.1900419, "tags": {"name": "Grimsj\u00f6", "place": "hamlet"}}, {"type": "node", "id": 7462575879, "lat": 57.570816, "lon": 14.1168584, "tags": {"name": "Ammelund", "place": "hamlet"}}, {"type": "node", "id": 7462580369, "lat": 57.5539251, "lon": 14.0738681, "tags": {"name": "Smedjebo", "place": "hamlet"}}, {"type": "node", "id": 7462586189, "lat": 57.5379562, "lon": 14.1787398, "tags": {"name": "M\u00e5len", "place": "hamlet"}}, {"type": "node", "id": 7462591894, "lat": 57.5053708, "lon": 14.1929741, "tags": {"name": "N\u00f6thult", "place": "hamlet"}}, {"type": "node", "id": 7462595554, "lat": 57.4996225, "lon": 14.0204277, "tags": {"name": "Uddebo", "place": "hamlet"}}, {"type": "node", "id": 7462603148, "lat": 57.5168215, "lon": 14.0698832, "tags": {"name": "Boarp", "place": "hamlet"}}, {"type": "node", "id": 7462605071, "lat": 57.5452429, "lon": 14.0881054, "tags": {"name": "B\u00f6ssjarp", "place": "hamlet"}}, {"type": "node", "id": 7462607314, "lat": 57.5295228, "lon": 14.0708794, "tags": {"name": "Kvarnaberg", "place": "hamlet"}}, {"type": "node", "id": 7462607352, "lat": 57.5686407, "lon": 14.0813848, "tags": {"name": "Bratteborgs g\u00e5rd", "place": "hamlet"}}, {"type": "node", "id": 7462609253, "lat": 57.5775945, "lon": 14.1241029, "tags": {"name": "Bratteborg", "place": "hamlet"}}, {"type": "node", "id": 7462621114, "lat": 57.5273003, "lon": 14.0193852, "tags": {"name": "\u00c5sthult", "place": "hamlet"}}, {"type": "node", "id": 7462627502, "lat": 57.5580809, "lon": 14.1212452, "tags": {"name": "Lunden", "place": "hamlet"}}, {"type": "node", "id": 7462639537, "lat": 57.5955972, "lon": 14.133598, "tags": {"name": "Jorarp", "place": "hamlet"}}, {"type": "node", "id": 7462647135, "lat": 57.5739181, "lon": 14.2010711, "tags": {"name": "Rastad", "place": "hamlet"}}, {"type": "node", "id": 7462651414, "lat": 57.5579392, "lon": 14.0121997, "tags": {"name": "Horsarp", "place": "hamlet"}}, {"type": "node", "id": 7462662726, "lat": 57.5559405, "lon": 14.1851541, "tags": {"name": "Kr\u00e4ngshult", "place": "hamlet"}}, {"type": "node", "id": 7462666333, "lat": 57.5716314, "lon": 14.165526, "tags": {"name": "Kr\u00e4ngsberg", "place": "hamlet"}}, {"type": "node", "id": 7462691368, "lat": 57.612883, "lon": 14.0740756, "tags": {"name": "Skjutebo", "place": "hamlet"}}, {"type": "node", "id": 7462695294, "lat": 57.6078659, "lon": 14.1409478, "tags": {"name": "L\u00f6veryd", "place": "hamlet"}}, {"type": "node", "id": 7462695548, "lat": 57.6011462, "lon": 14.0966399, "tags": {"name": "Ekeryd", "place": "hamlet"}}, {"type": "node", "id": 7462702451, "lat": 57.5829211, "lon": 14.092281, "tags": {"name": "Tr\u00f6jebo", "place": "hamlet"}}, {"type": "node", "id": 7462706897, "lat": 57.6195752, "lon": 13.9806211, "tags": {"name": "Gettrabo", "place": "hamlet"}}, {"type": "node", "id": 7462708059, "lat": 57.6444382, "lon": 14.0762547, "tags": {"name": "Hustomten", "place": "hamlet"}}, {"type": "node", "id": 7462709806, "lat": 57.6139237, "lon": 14.0145089, "tags": {"name": "Gr\u00e4lebo", "place": "hamlet"}}, {"type": "node", "id": 7462711538, "lat": 57.5831256, "lon": 13.9811727, "tags": {"name": "Str\u00e4ngsbo", "place": "hamlet"}}, {"type": "node", "id": 7462712016, "lat": 57.6014086, "lon": 14.1749007, "tags": {"name": "Torestorp", "place": "hamlet"}}, {"type": "node", "id": 7462714943, "lat": 57.6006112, "lon": 13.9929177, "tags": {"name": "Buddebo", "place": "hamlet"}}, {"type": "node", "id": 7462716064, "lat": 57.6588118, "lon": 14.2263905, "tags": {"name": "Konungs\u00f6", "place": "hamlet"}}, {"type": "node", "id": 7462722624, "lat": 57.6642164, "lon": 14.0290529, "tags": {"name": "Sm\u00f6rvik", "place": "hamlet"}}, {"type": "node", "id": 7462726449, "lat": 57.6581432, "lon": 14.1635913, "tags": {"name": "Hyltena", "place": "hamlet"}}, {"type": "node", "id": 7462730908, "lat": 57.6501857, "lon": 14.0481095, "tags": {"name": "Renstorp", "place": "hamlet"}}, {"type": "node", "id": 7462732368, "lat": 57.6677797, "lon": 14.2008194, "tags": {"name": "Konungs\u00f6 kvarn", "place": "hamlet"}}, {"type": "node", "id": 7462732431, "lat": 57.6371742, "lon": 14.0322531, "tags": {"name": "Tranhult", "place": "hamlet"}}, {"type": "node", "id": 7462739889, "lat": 57.6312023, "lon": 14.0856508, "tags": {"name": "R\u00f6shult", "place": "hamlet"}}, {"type": "node", "id": 7462745672, "lat": 57.6475316, "lon": 14.2958753, "tags": {"name": "Spexeryd", "place": "hamlet"}}, {"type": "node", "id": 7462748267, "lat": 57.6477663, "lon": 14.179847, "tags": {"name": "Stigamo", "place": "hamlet"}}, {"type": "node", "id": 7462751681, "lat": 57.6613587, "lon": 14.3926054, "tags": {"name": "Esbj\u00f6rnabo", "place": "hamlet"}}, {"type": "node", "id": 7462769413, "lat": 57.6431317, "lon": 14.3366675, "tags": {"name": "Hestra", "place": "hamlet"}}, {"type": "node", "id": 7462771943, "lat": 57.6463865, "lon": 14.3505465, "tags": {"name": "H\u00f6gahyltan", "place": "hamlet"}}, {"type": "node", "id": 7462772509, "lat": 57.6674934, "lon": 14.2978687, "tags": {"name": "Gren\u00e5sa", "place": "hamlet"}}, {"type": "node", "id": 7462772640, "lat": 57.6565463, "lon": 14.319832, "tags": {"name": "\u00c4lmvik", "place": "hamlet"}}, {"type": "node", "id": 7462781633, "lat": 57.6696942, "lon": 14.2616152, "tags": {"name": "V\u00e4straby", "place": "hamlet"}}, {"type": "node", "id": 7462786099, "lat": 57.6598307, "lon": 14.2755413, "tags": {"name": "V\u00e5eryd", "place": "hamlet"}}, {"type": "node", "id": 7462810548, "lat": 57.6528514, "lon": 14.0997528, "tags": {"name": "Porteshult", "place": "hamlet"}}, {"type": "node", "id": 7462837810, "lat": 57.6960498, "lon": 14.3605461, "tags": {"name": "M\u00e5len", "place": "hamlet"}}, {"type": "node", "id": 7462846947, "lat": 57.7011567, "lon": 14.2960275, "tags": {"name": "\u00c5kerby", "place": "hamlet"}}, {"type": "node", "id": 7462847898, "lat": 57.6748665, "lon": 14.2863096, "tags": {"name": "Hundshult", "place": "hamlet"}}, {"type": "node", "id": 7462849918, "lat": 57.6758417, "lon": 14.3178115, "tags": {"name": "Fagersl\u00e4tt", "place": "hamlet"}}, {"type": "node", "id": 7462855724, "lat": 57.6861389, "lon": 14.2861027, "tags": {"name": "Hult", "place": "hamlet"}}, {"type": "node", "id": 7462878043, "lat": 57.7134747, "lon": 14.2650745, "tags": {"name": "Knivshult", "place": "hamlet"}}, {"type": "node", "id": 7462893900, "lat": 57.6740491, "lon": 14.1829184, "tags": {"name": "Moliden", "place": "hamlet"}}, {"type": "node", "id": 7462908828, "lat": 57.6919562, "lon": 14.4635796, "tags": {"name": "Tryggarp", "place": "hamlet"}}, {"type": "node", "id": 7462920792, "lat": 57.7079752, "lon": 14.4373718, "tags": {"name": "Kanarp", "place": "hamlet"}}, {"type": "node", "id": 7462938610, "lat": 57.7483097, "lon": 14.3895288, "tags": {"name": "Tovrida udde", "place": "hamlet"}}, {"type": "node", "id": 7462948664, "lat": 57.6983704, "lon": 14.1706334, "tags": {"name": "Torsvik", "place": "hamlet"}}, {"type": "node", "id": 7462950148, "lat": 57.7266714, "lon": 14.356934, "tags": {"name": "K\u00e5veryd", "place": "hamlet"}}, {"type": "node", "id": 7462967396, "lat": 57.7131296, "lon": 14.3721286, "tags": {"name": "Rommelsj\u00f6", "place": "hamlet"}}, {"type": "node", "id": 7462975795, "lat": 57.6994025, "lon": 14.3610406, "tags": {"name": "Stenbo", "place": "hamlet"}}, {"type": "node", "id": 7462976051, "lat": 57.7378524, "lon": 14.2979271, "tags": {"name": "Bogla", "place": "hamlet"}}, {"type": "node", "id": 7462976206, "lat": 57.7420432, "lon": 14.3071723, "tags": {"name": "Klevarp", "place": "hamlet"}}, {"type": "node", "id": 7463001617, "lat": 57.7491517, "lon": 14.2927275, "tags": {"name": "Hyltan", "place": "hamlet"}}, {"type": "node", "id": 7463009289, "lat": 57.7369051, "lon": 14.2653141, "tags": {"name": "Riddersberg", "place": "hamlet"}}, {"type": "node", "id": 7463028983, "lat": 57.7330489, "lon": 14.2239159, "tags": {"name": "M\u00e5len", "place": "hamlet"}}, {"type": "node", "id": 7463055376, "lat": 57.7286609, "lon": 14.4351467, "tags": {"name": "Tornarp", "place": "hamlet"}}, {"type": "node", "id": 7463064426, "lat": 57.7679897, "lon": 14.4036292, "tags": {"name": "Rammbron", "place": "hamlet"}}, {"type": "node", "id": 7463068549, "lat": 57.7581168, "lon": 14.4255618, "tags": {"name": "Uddebo", "place": "hamlet"}}, {"type": "node", "id": 7463072346, "lat": 57.7363757, "lon": 14.4511826, "tags": {"name": "Klackarp", "place": "hamlet"}}, {"type": "node", "id": 7463073333, "lat": 57.7543893, "lon": 14.2775471, "tags": {"name": "\u00c5karp", "place": "hamlet"}}, {"type": "node", "id": 7463074052, "lat": 57.7501367, "lon": 14.414902, "tags": {"name": "Vik", "place": "hamlet"}}, {"type": "node", "id": 7463075230, "lat": 57.7507321, "lon": 14.4374062, "tags": {"name": "Ebbarp", "place": "hamlet"}}, {"type": "node", "id": 7463076295, "lat": 57.7445521, "lon": 14.433404, "tags": {"name": "Munkebo", "place": "hamlet"}}, {"type": "node", "id": 7463107321, "lat": 57.7617488, "lon": 14.3241423, "tags": {"name": "Carlfors", "place": "hamlet"}}, {"type": "node", "id": 7463121863, "lat": 57.7615668, "lon": 14.3966666, "tags": {"name": "Tovrida", "place": "hamlet"}}, {"type": "node", "id": 7463123601, "lat": 57.7730323, "lon": 14.3715434, "tags": {"name": "Vireda", "place": "hamlet"}}, {"type": "node", "id": 7463131632, "lat": 57.76655, "lon": 14.3613853, "tags": {"name": "Brunnstorp", "place": "hamlet"}}, {"type": "node", "id": 7464939283, "lat": 57.4939988, "lon": 14.1887695, "tags": {"name": "B\u00e4ck", "place": "hamlet"}}, {"type": "node", "id": 7465020028, "lat": 57.4706514, "lon": 14.1902545, "tags": {"name": "Skog", "place": "hamlet"}}, {"type": "node", "id": 7465025462, "lat": 57.4570808, "lon": 14.1712536, "tags": {"name": "Hallafors", "place": "hamlet"}}, {"type": "node", "id": 7465035984, "lat": 57.4491146, "lon": 14.3236871, "tags": {"name": "Morlida", "place": "hamlet"}}, {"type": "node", "id": 7465036838, "lat": 57.4921118, "lon": 14.233339, "tags": {"name": "M\u00f6rhult", "place": "hamlet"}}, {"type": "node", "id": 7465039806, "lat": 57.479979, "lon": 14.2005045, "tags": {"name": "Snuddebo", "place": "hamlet"}}, {"type": "node", "id": 7465040907, "lat": 57.4602467, "lon": 14.1898676, "tags": {"name": "Hult", "place": "hamlet"}}, {"type": "node", "id": 7465064866, "lat": 57.3892041, "lon": 14.3487959, "tags": {"name": "Spinkam\u00e5len", "place": "hamlet"}}, {"type": "node", "id": 7465068773, "lat": 57.3545896, "lon": 14.2683185, "tags": {"name": "S\u00f6rg\u00e5rden", "place": "hamlet"}}, {"type": "node", "id": 7465069913, "lat": 57.4430559, "lon": 14.2823477, "tags": {"name": "Brofors", "place": "hamlet"}}, {"type": "node", "id": 7465075635, "lat": 57.3650459, "lon": 14.3536297, "tags": {"name": "Norrag\u00e5rden", "place": "hamlet"}}, {"type": "node", "id": 7465077787, "lat": 57.4373208, "lon": 14.3106451, "tags": {"name": "Fiskaby", "place": "hamlet"}}, {"type": "node", "id": 7465080046, "lat": 57.3409909, "lon": 14.3385512, "tags": {"name": "Valk\u00f6", "place": "hamlet"}}, {"type": "node", "id": 7465083539, "lat": 57.3806716, "lon": 14.3375413, "tags": {"name": "Hemmingsm\u00e5len", "place": "hamlet"}}, {"type": "node", "id": 7465083625, "lat": 57.3364524, "lon": 14.3660537, "tags": {"name": "Boestad", "place": "hamlet"}}, {"type": "node", "id": 7465085313, "lat": 57.4525777, "lon": 14.3812069, "tags": {"name": "Storeskog", "place": "hamlet"}}, {"type": "node", "id": 7465090744, "lat": 57.4107803, "lon": 14.3451345, "tags": {"name": "Kohult", "place": "hamlet"}}, {"type": "node", "id": 7465094645, "lat": 57.4209206, "lon": 14.3362122, "tags": {"name": "Kvighult", "place": "hamlet"}}, {"type": "node", "id": 7465097399, "lat": 57.4522018, "lon": 14.4956404, "tags": {"name": "Hemmersryd", "place": "hamlet"}}, {"type": "node", "id": 7465104463, "lat": 57.4492969, "lon": 14.4356269, "tags": {"name": "Id", "place": "hamlet"}}, {"type": "node", "id": 7465104937, "lat": 57.4278462, "lon": 14.3362033, "tags": {"name": "H\u00e4ssel\u00e5s", "place": "hamlet"}}, {"type": "node", "id": 7465109755, "lat": 57.3601117, "lon": 14.3398428, "tags": {"name": "Siggaskog", "place": "hamlet"}}, {"type": "node", "id": 7465110216, "lat": 57.3634968, "lon": 14.3563999, "tags": {"name": "R\u00f6ssved", "place": "hamlet"}}, {"type": "node", "id": 7465120252, "lat": 57.4613015, "lon": 14.6032775, "tags": {"name": "T\u00e4pperyd", "place": "hamlet"}}, {"type": "node", "id": 7465120284, "lat": 57.3645515, "lon": 14.6818924, "tags": {"name": "Hj\u00e4rtn\u00e4s", "place": "hamlet"}}, {"type": "node", "id": 7465127738, "lat": 57.3510478, "lon": 14.5910059, "tags": {"name": "Stocken", "place": "hamlet"}}, {"type": "node", "id": 7465131560, "lat": 57.4705412, "lon": 14.7117495, "tags": {"name": "Nyaby", "place": "hamlet"}}, {"type": "node", "id": 7465140003, "lat": 57.3571003, "lon": 14.6044854, "tags": {"name": "\u00d6rsby", "place": "hamlet"}}, {"type": "node", "id": 7465150949, "lat": 57.4599097, "lon": 14.6871477, "tags": {"name": "Bj\u00e4nnesby", "place": "hamlet"}}, {"type": "node", "id": 7465153937, "lat": 57.3406819, "lon": 14.6996923, "tags": {"name": "Hjul\u00e5s", "place": "hamlet"}}, {"type": "node", "id": 7465153938, "lat": 57.3686814, "lon": 14.6775834, "tags": {"name": "Mellang\u00e5rden", "place": "hamlet"}}, {"type": "node", "id": 7465161209, "lat": 57.4434313, "lon": 14.6956042, "tags": {"name": "R\u00f6d", "place": "hamlet"}}, {"type": "node", "id": 7465161958, "lat": 57.3412964, "lon": 14.6721084, "tags": {"name": "Brunseryd", "place": "hamlet"}}, {"type": "node", "id": 7465163722, "lat": 57.4844324, "lon": 14.694194, "tags": {"name": "Ulvstorp", "place": "hamlet"}}, {"type": "node", "id": 7465165942, "lat": 57.5672192, "lon": 14.2466887, "tags": {"name": "Sonarp", "place": "hamlet"}}, {"type": "node", "id": 7465167627, "lat": 57.3622899, "lon": 14.6898077, "tags": {"name": "\u00d6strag\u00e5rden", "place": "hamlet"}}, {"type": "node", "id": 7465167709, "lat": 57.4635983, "lon": 14.6613789, "tags": {"name": "\u00c5sbyholm", "place": "hamlet"}}, {"type": "node", "id": 7465178019, "lat": 57.6178852, "lon": 14.2241963, "tags": {"name": "F\u00e4grida", "place": "hamlet"}}, {"type": "node", "id": 7465178562, "lat": 57.4666433, "lon": 14.3515709, "tags": {"name": "Harkeryd", "place": "hamlet"}}, {"type": "node", "id": 7465182508, "lat": 57.6425245, "lon": 14.2655402, "tags": {"name": "Gull\u00e5kra", "place": "hamlet"}}, {"type": "node", "id": 7465186421, "lat": 57.5572974, "lon": 14.2049615, "tags": {"name": "Flahult", "place": "hamlet"}}, {"type": "node", "id": 7465189603, "lat": 57.5492472, "lon": 14.2294326, "tags": {"name": "\u00c5hult", "place": "hamlet"}}, {"type": "node", "id": 7465191010, "lat": 57.5066159, "lon": 14.2297638, "tags": {"name": "M\u00f6rhultam\u00e5len", "place": "hamlet"}}, {"type": "node", "id": 7465191040, "lat": 57.6558188, "lon": 14.3605107, "tags": {"name": "Hieg\u00f6l", "place": "hamlet"}}, {"type": "node", "id": 7465194352, "lat": 57.5406582, "lon": 14.3920857, "tags": {"name": "Fallnafors", "place": "hamlet"}}, {"type": "node", "id": 7465196527, "lat": 57.5280905, "lon": 14.393815, "tags": {"name": "Tohult", "place": "hamlet"}}, {"type": "node", "id": 7465196656, "lat": 57.5042266, "lon": 14.3565113, "tags": {"name": "Norrhult", "place": "hamlet"}}, {"type": "node", "id": 7465198041, "lat": 57.5934185, "lon": 14.5086787, "tags": {"name": "\u00c5sen", "place": "hamlet"}}, {"type": "node", "id": 7465198468, "lat": 57.5709285, "lon": 14.4028505, "tags": {"name": "Gummestorp", "place": "hamlet"}}, {"type": "node", "id": 7465198507, "lat": 57.4669801, "lon": 14.297016, "tags": {"name": "Norrhyltan", "place": "hamlet"}}, {"type": "node", "id": 7465198766, "lat": 57.6374711, "lon": 14.2942774, "tags": {"name": "Hohult", "place": "hamlet"}}, {"type": "node", "id": 7465203788, "lat": 57.6338966, "lon": 14.3987688, "tags": {"name": "Bretoft", "place": "hamlet"}}, {"type": "node", "id": 7465207551, "lat": 57.6346978, "lon": 14.3312273, "tags": {"name": "\u00c4lgab\u00e4cksryd", "place": "hamlet"}}, {"type": "node", "id": 7465208702, "lat": 57.5746473, "lon": 14.3625263, "tags": {"name": "Erlandstorp", "place": "hamlet"}}, {"type": "node", "id": 7465211539, "lat": 57.5716411, "lon": 14.2762749, "tags": {"name": "Ulvstorp", "place": "hamlet"}}, {"type": "node", "id": 7465211686, "lat": 57.5152522, "lon": 14.3328803, "tags": {"name": "Stoarp", "place": "hamlet"}}, {"type": "node", "id": 7465211706, "lat": 57.5614293, "lon": 14.4332422, "tags": {"name": "H\u00e4steryd", "place": "hamlet"}}, {"type": "node", "id": 7465214696, "lat": 57.6207569, "lon": 14.3484598, "tags": {"name": "Sl\u00e4tteryd", "place": "hamlet"}}, {"type": "node", "id": 7465214746, "lat": 57.6580213, "lon": 14.4924866, "tags": {"name": "Sj\u00f6storp", "place": "hamlet"}}, {"type": "node", "id": 7465216279, "lat": 57.5510564, "lon": 14.3567896, "tags": {"name": "V\u00e4stg\u00f6tatorp", "place": "hamlet"}}, {"type": "node", "id": 7465216547, "lat": 57.5237953, "lon": 14.3433101, "tags": {"name": "Linneryd", "place": "hamlet"}}, {"type": "node", "id": 7465217301, "lat": 57.6057021, "lon": 14.3502348, "tags": {"name": "Falla", "place": "hamlet"}}, {"type": "node", "id": 7465218029, "lat": 57.5846116, "lon": 14.3647605, "tags": {"name": "Rommen\u00e5s", "place": "hamlet"}}, {"type": "node", "id": 7465218938, "lat": 57.5291808, "lon": 14.3337949, "tags": {"name": "Gunnarsryd", "place": "hamlet"}}, {"type": "node", "id": 7465219720, "lat": 57.5944883, "lon": 14.4796536, "tags": {"name": "Hudaryd", "place": "hamlet"}}, {"type": "node", "id": 7465220561, "lat": 57.5291199, "lon": 14.3675124, "tags": {"name": "S\u00f6r\u00e4ng", "place": "hamlet"}}, {"type": "node", "id": 7465228731, "lat": 57.5835169, "lon": 14.4152035, "tags": {"name": "Korpebo", "place": "hamlet"}}, {"type": "node", "id": 7465234435, "lat": 57.565646, "lon": 14.4201872, "tags": {"name": "Fagerberg", "place": "hamlet"}}, {"type": "node", "id": 7465236822, "lat": 57.5368481, "lon": 14.4546023, "tags": {"name": "Brunseryd", "place": "hamlet"}}, {"type": "node", "id": 7465239801, "lat": 57.6523637, "lon": 14.4414767, "tags": {"name": "Finntorp", "place": "hamlet"}}, {"type": "node", "id": 7465240346, "lat": 57.5600165, "lon": 14.4737073, "tags": {"name": "F\u00e4llsbo", "place": "hamlet"}}, {"type": "node", "id": 7465240378, "lat": 57.6440456, "lon": 14.5121836, "tags": {"name": "Sl\u00e4tteryd", "place": "hamlet"}}, {"type": "node", "id": 7465240957, "lat": 57.591423, "lon": 14.4557262, "tags": {"name": "Ormestorp", "place": "hamlet"}}, {"type": "node", "id": 7465246853, "lat": 57.6437851, "lon": 14.4560992, "tags": {"name": "Sniparp", "place": "hamlet"}}, {"type": "node", "id": 7465249238, "lat": 57.5436592, "lon": 14.4296079, "tags": {"name": "F\u00f6lhult", "place": "hamlet"}}, {"type": "node", "id": 7465249631, "lat": 57.613611, "lon": 14.4412338, "tags": {"name": "Viresj\u00f6", "place": "hamlet"}}, {"type": "node", "id": 7465250631, "lat": 57.5865349, "lon": 14.4831124, "tags": {"name": "Bredstorp", "place": "hamlet"}}, {"type": "node", "id": 7465257420, "lat": 57.6151887, "lon": 14.52154, "tags": {"name": "Berg", "place": "hamlet"}}, {"type": "node", "id": 7465258972, "lat": 57.6301942, "lon": 14.5389128, "tags": {"name": "G\u00f6storp", "place": "hamlet"}}, {"type": "node", "id": 7465259250, "lat": 57.6135092, "lon": 14.4741594, "tags": {"name": "R\u00f6sum", "place": "hamlet"}}, {"type": "node", "id": 7465261765, "lat": 57.5793602, "lon": 14.5274972, "tags": {"name": "Pustan\u00e4s", "place": "hamlet"}}, {"type": "node", "id": 7465261797, "lat": 57.5933937, "lon": 14.4240452, "tags": {"name": "Packebo", "place": "hamlet"}}, {"type": "node", "id": 7465262742, "lat": 57.6168773, "lon": 14.4306049, "tags": {"name": "K\u00e5lkulla", "place": "hamlet"}}, {"type": "node", "id": 7465262878, "lat": 57.6331904, "lon": 14.6108504, "tags": {"name": "Havrida", "place": "hamlet"}}, {"type": "node", "id": 7465263364, "lat": 57.5154399, "lon": 14.4634314, "tags": {"name": "Estenstorp", "place": "hamlet"}}, {"type": "node", "id": 7465263466, "lat": 57.6532573, "lon": 14.4054685, "tags": {"name": "Skallarp", "place": "hamlet"}}, {"type": "node", "id": 7465266063, "lat": 57.6044405, "lon": 14.4333758, "tags": {"name": "S\u00f6ndrarp", "place": "hamlet"}}, {"type": "node", "id": 7465269003, "lat": 57.524016, "lon": 14.490142, "tags": {"name": "Falla", "place": "hamlet"}}, {"type": "node", "id": 7465270019, "lat": 57.6298993, "lon": 14.5113827, "tags": {"name": "Floryd", "place": "hamlet"}}, {"type": "node", "id": 7465271372, "lat": 57.5995509, "lon": 14.5329539, "tags": {"name": "\u00c4lgaryd", "place": "hamlet"}}, {"type": "node", "id": 7465271708, "lat": 57.6523212, "lon": 14.4888636, "tags": {"name": "S\u00f6rg\u00e5rden", "place": "hamlet"}}, {"type": "node", "id": 7465272170, "lat": 57.5759239, "lon": 14.5712813, "tags": {"name": "Vieb\u00e4ck", "place": "hamlet"}}, {"type": "node", "id": 7465274586, "lat": 57.6454291, "lon": 14.5202877, "tags": {"name": "Bj\u00f6rkelund", "place": "hamlet"}}, {"type": "node", "id": 7465274594, "lat": 57.469123, "lon": 14.4994256, "tags": {"name": "Nordanskog", "place": "hamlet"}}, {"type": "node", "id": 7465282443, "lat": 57.5363803, "lon": 14.5981328, "tags": {"name": "Rya", "place": "hamlet"}}, {"type": "node", "id": 7465282835, "lat": 57.6307177, "lon": 14.5955375, "tags": {"name": "Sp\u00e5narp", "place": "hamlet"}}, {"type": "node", "id": 7465286076, "lat": 57.5435466, "lon": 14.5156464, "tags": {"name": "Klappa", "place": "hamlet"}}, {"type": "node", "id": 7465287057, "lat": 57.64577, "lon": 14.5757355, "tags": {"name": "Lunnestorp", "place": "hamlet"}}, {"type": "node", "id": 7465288962, "lat": 57.56225, "lon": 14.7253328, "tags": {"name": "Norrg\u00e5rden", "place": "hamlet"}}, {"type": "node", "id": 7465291795, "lat": 57.489081, "lon": 14.5938681, "tags": {"name": "G\u00f6testorp", "place": "hamlet"}}, {"type": "node", "id": 7465292402, "lat": 57.6503583, "lon": 14.6026245, "tags": {"name": "Ekefall", "place": "hamlet"}}, {"type": "node", "id": 7465293386, "lat": 57.6470555, "lon": 14.540002, "tags": {"name": "Kansj\u00f6", "place": "hamlet"}}, {"type": "node", "id": 7465293865, "lat": 57.6227144, "lon": 14.581814, "tags": {"name": "Hallhult", "place": "hamlet"}}, {"type": "node", "id": 7465294719, "lat": 57.6012973, "lon": 14.5920994, "tags": {"name": "Ekesj\u00f6", "place": "hamlet"}}, {"type": "node", "id": 7465295384, "lat": 57.5941619, "lon": 14.6230448, "tags": {"name": "Fredriksdal", "place": "hamlet"}}, {"type": "node", "id": 7465296183, "lat": 57.6413276, "lon": 14.7623998, "tags": {"name": "Stackeryd", "place": "hamlet"}}, {"type": "node", "id": 7465299999, "lat": 57.5933138, "lon": 14.5791902, "tags": {"name": "Lannafall", "place": "hamlet"}}, {"type": "node", "id": 7465303488, "lat": 57.5346212, "lon": 14.7021074, "tags": {"name": "Sj\u00f6arp", "place": "hamlet"}}, {"type": "node", "id": 7465309917, "lat": 57.5778485, "lon": 14.609519, "tags": {"name": "Packebo", "place": "hamlet"}}, {"type": "node", "id": 7465313528, "lat": 57.5620563, "lon": 14.6474116, "tags": {"name": "\u00c4lskebo", "place": "hamlet"}}, {"type": "node", "id": 7465313918, "lat": 57.5743214, "lon": 14.6455545, "tags": {"name": "Hulu", "place": "hamlet"}}, {"type": "node", "id": 7465315189, "lat": 57.5104094, "lon": 14.6179668, "tags": {"name": "F\u00e4llhemmet", "place": "hamlet"}}, {"type": "node", "id": 7465316187, "lat": 57.5586021, "lon": 14.6862858, "tags": {"name": "Sj\u00f6mils\u00e5s", "place": "hamlet"}}, {"type": "node", "id": 7465316628, "lat": 57.5791251, "lon": 14.7004232, "tags": {"name": "F\u00e5gelleken", "place": "hamlet"}}, {"type": "node", "id": 7465320316, "lat": 57.6012894, "lon": 14.6561347, "tags": {"name": "Skieryd", "place": "hamlet"}}, {"type": "node", "id": 7465320414, "lat": 57.5074901, "lon": 14.6758594, "tags": {"name": "Vare", "place": "hamlet"}}, {"type": "node", "id": 7465320425, "lat": 57.5724422, "lon": 14.6712865, "tags": {"name": "Holma", "place": "hamlet"}}, {"type": "node", "id": 7465320840, "lat": 57.5980136, "lon": 14.7230052, "tags": {"name": "Mosseryd", "place": "hamlet"}}, {"type": "node", "id": 7465326181, "lat": 57.6406477, "lon": 14.6512066, "tags": {"name": "Boda", "place": "hamlet"}}, {"type": "node", "id": 7465332017, "lat": 57.6146422, "lon": 14.6477398, "tags": {"name": "B\u00e4ckafall", "place": "hamlet"}}, {"type": "node", "id": 7465333220, "lat": 57.6169486, "lon": 14.6843428, "tags": {"name": "Spexhult", "place": "hamlet"}}, {"type": "node", "id": 7465334161, "lat": 57.5953952, "lon": 14.6555036, "tags": {"name": "Dynefall", "place": "hamlet"}}, {"type": "node", "id": 7465567278, "lat": 57.6592309, "lon": 14.5934267, "tags": {"name": "Svenstorp", "place": "hamlet"}}, {"type": "node", "id": 7465570549, "lat": 57.6812241, "lon": 14.5701065, "tags": {"name": "L\u00e5ng\u00e5sa", "place": "hamlet"}}, {"type": "node", "id": 7465571866, "lat": 57.6588426, "lon": 14.6402385, "tags": {"name": "Stuntam\u00e5len", "place": "hamlet"}}, {"type": "node", "id": 7465577900, "lat": 57.6649761, "lon": 14.6122863, "tags": {"name": "Grans\u00e4ng", "place": "hamlet"}}, {"type": "node", "id": 7465579100, "lat": 57.6744712, "lon": 14.5902382, "tags": {"name": "R\u00f6dja", "place": "hamlet"}}, {"type": "node", "id": 7465587301, "lat": 57.6516982, "lon": 14.6269224, "tags": {"name": "Rya", "place": "hamlet"}}, {"type": "node", "id": 7465595254, "lat": 57.6578108, "lon": 14.5457647, "tags": {"name": "Topperyd", "place": "hamlet"}}, {"type": "node", "id": 7465598501, "lat": 57.6843539, "lon": 14.5430853, "tags": {"name": "M\u00e5llebo", "place": "hamlet"}}, {"type": "node", "id": 7465600035, "lat": 57.6642325, "lon": 14.5686814, "tags": {"name": "T\u00f6rsbo", "place": "hamlet"}}, {"type": "node", "id": 7465611879, "lat": 57.6804856, "lon": 14.4810548, "tags": {"name": "Horshaga", "place": "hamlet"}}, {"type": "node", "id": 7465612148, "lat": 57.6834811, "lon": 14.6663406, "tags": {"name": "N\u00e4ssj\u00f6byn", "place": "hamlet"}}, {"type": "node", "id": 7465614836, "lat": 57.6979757, "lon": 14.486488, "tags": {"name": "Runseryd", "place": "hamlet"}}, {"type": "node", "id": 7465616249, "lat": 57.7090308, "lon": 14.7406853, "tags": {"name": "Buckhult", "place": "hamlet"}}, {"type": "node", "id": 7465628587, "lat": 57.6846926, "lon": 14.5121419, "tags": {"name": "Karsbo", "place": "hamlet"}}, {"type": "node", "id": 7465632454, "lat": 57.6905028, "lon": 14.6155915, "tags": {"name": "\u00c4speryd", "place": "hamlet"}}, {"type": "node", "id": 7465634702, "lat": 57.6678322, "lon": 14.5063975, "tags": {"name": "Axlarp", "place": "hamlet"}}, {"type": "node", "id": 7465640636, "lat": 57.7032241, "lon": 14.680002, "tags": {"name": "Kvistorp", "place": "hamlet"}}, {"type": "node", "id": 7465644958, "lat": 57.6829219, "lon": 14.4577768, "tags": {"name": "Stenseryd", "place": "hamlet"}}, {"type": "node", "id": 7465650166, "lat": 57.6899133, "lon": 14.5305689, "tags": {"name": "Skogs\u00e5kra", "place": "hamlet"}}, {"type": "node", "id": 7465653805, "lat": 57.7124548, "lon": 14.7551448, "tags": {"name": "M\u00e5len", "place": "hamlet"}}, {"type": "node", "id": 7465661978, "lat": 57.714278, "lon": 14.6512035, "tags": {"name": "Ryssby", "place": "hamlet"}}, {"type": "node", "id": 7465663841, "lat": 57.7048369, "lon": 14.5954142, "tags": {"name": "Kulebo", "place": "hamlet"}}, {"type": "node", "id": 7465664205, "lat": 57.7071165, "lon": 14.6912608, "tags": {"name": "Vimnarp", "place": "hamlet"}}, {"type": "node", "id": 7465664216, "lat": 57.6901261, "lon": 14.5976602, "tags": {"name": "Vallstorp", "place": "hamlet"}}, {"type": "node", "id": 7465668495, "lat": 57.7130185, "lon": 14.4634795, "tags": {"name": "Gunnestorp", "place": "hamlet"}}, {"type": "node", "id": 7465674483, "lat": 57.7162894, "lon": 14.5574695, "tags": {"name": "Brittebo", "place": "hamlet"}}, {"type": "node", "id": 7465675392, "lat": 57.7020438, "lon": 14.5883834, "tags": {"name": "B\u00e4sthult", "place": "hamlet"}}, {"type": "node", "id": 7465677821, "lat": 57.7017138, "lon": 14.5178162, "tags": {"name": "F\u00e5glarp", "place": "hamlet"}}, {"type": "node", "id": 7465677986, "lat": 57.7056815, "lon": 14.5286373, "tags": {"name": "Broddarp", "place": "hamlet"}}, {"type": "node", "id": 7465678602, "lat": 57.7165185, "lon": 14.5302751, "tags": {"name": "Alarp", "place": "hamlet"}}, {"type": "node", "id": 7465680982, "lat": 57.719437, "lon": 14.4729101, "tags": {"name": "Aplakulla", "place": "hamlet"}}, {"type": "node", "id": 7465681414, "lat": 57.7248246, "lon": 14.518486, "tags": {"name": "Boarp", "place": "hamlet"}}, {"type": "node", "id": 7465684275, "lat": 57.7323651, "lon": 14.598602, "tags": {"name": "Kynholmen", "place": "hamlet"}}, {"type": "node", "id": 7465695564, "lat": 57.7209017, "lon": 14.6840813, "tags": {"name": "H\u00e4sterum", "place": "hamlet"}}, {"type": "node", "id": 7465700200, "lat": 57.7355196, "lon": 14.6680686, "tags": {"name": "Krams\u00e4ng", "place": "hamlet"}}, {"type": "node", "id": 7465701932, "lat": 57.7287347, "lon": 14.7075308, "tags": {"name": "Gummarp", "place": "hamlet"}}, {"type": "node", "id": 7465707227, "lat": 57.7393421, "lon": 14.6210312, "tags": {"name": "Hulu", "place": "hamlet"}}, {"type": "node", "id": 7465708637, "lat": 57.7554898, "lon": 14.5967658, "tags": {"name": "Falln\u00e4s", "place": "hamlet"}}, {"type": "node", "id": 7465710039, "lat": 57.7465409, "lon": 14.5906668, "tags": {"name": "Fr\u00f6vik", "place": "hamlet"}}, {"type": "node", "id": 7465710104, "lat": 57.7517975, "lon": 14.536219, "tags": {"name": "Finneryd", "place": "hamlet"}}, {"type": "node", "id": 7465714480, "lat": 57.7280193, "lon": 14.5560008, "tags": {"name": "K\u00e4lleryd", "place": "hamlet"}}, {"type": "node", "id": 7465717768, "lat": 57.7406039, "lon": 14.5509757, "tags": {"name": "Backen", "place": "hamlet"}}, {"type": "node", "id": 7465729437, "lat": 57.7587082, "lon": 14.6393647, "tags": {"name": "Gransefall", "place": "hamlet"}}, {"type": "node", "id": 7465731741, "lat": 57.7488894, "lon": 14.484561, "tags": {"name": "H\u00f6reda", "place": "hamlet"}}, {"type": "node", "id": 7465737797, "lat": 57.7548272, "lon": 14.620836, "tags": {"name": "Olseryd", "place": "hamlet"}}, {"type": "node", "id": 7465741957, "lat": 57.7671629, "lon": 14.5089938, "tags": {"name": "H\u00e4gghult", "place": "hamlet"}}, {"type": "node", "id": 7465747647, "lat": 57.7713304, "lon": 14.4996908, "tags": {"name": "Grevby", "place": "hamlet"}}, {"type": "node", "id": 7465750028, "lat": 57.7568132, "lon": 14.6982152, "tags": {"name": "Steng\u00e5rd", "place": "hamlet"}}, {"type": "node", "id": 7465761548, "lat": 57.7702834, "lon": 14.5799924, "tags": {"name": "Sundsholm", "place": "hamlet"}}, {"type": "node", "id": 7465764114, "lat": 57.7342469, "lon": 14.4323557, "tags": {"name": "Eskilstorp", "place": "hamlet"}}, {"type": "node", "id": 7465766144, "lat": 57.7699429, "lon": 14.4660768, "tags": {"name": "\u00c5by", "place": "hamlet"}}, {"type": "node", "id": 7465766145, "lat": 57.7409368, "lon": 14.478291, "tags": {"name": "Kviarp", "place": "hamlet"}}, {"type": "node", "id": 7465768395, "lat": 57.7655302, "lon": 14.4736849, "tags": {"name": "Krusestorp", "place": "hamlet"}}, {"type": "node", "id": 7465771686, "lat": 57.7600614, "lon": 14.452456, "tags": {"name": "B\u00e5rarp", "place": "hamlet"}}, {"type": "node", "id": 7465777790, "lat": 57.7314202, "lon": 14.4751539, "tags": {"name": "Byhult", "place": "hamlet"}}, {"type": "node", "id": 7465779738, "lat": 57.7550973, "lon": 14.7550613, "tags": {"name": "F\u00f6r\u00e5s", "place": "hamlet"}}, {"type": "node", "id": 7465785323, "lat": 57.7614419, "lon": 14.6634719, "tags": {"name": "Vitarp", "place": "hamlet"}}, {"type": "node", "id": 7465788542, "lat": 57.7525155, "lon": 14.6686162, "tags": {"name": "Stenkar", "place": "hamlet"}}, {"type": "node", "id": 7465789702, "lat": 57.7595517, "lon": 14.5621184, "tags": {"name": "L\u00e5ngsbo", "place": "hamlet"}}, {"type": "node", "id": 7465803819, "lat": 57.7648392, "lon": 14.5348527, "tags": {"name": "Nybrohult", "place": "hamlet"}}, {"type": "node", "id": 7466373052, "lat": 57.4034742, "lon": 14.7434072, "tags": {"name": "Vallsj\u00f6baden", "place": "hamlet"}}, {"type": "node", "id": 7466384616, "lat": 57.4080494, "lon": 14.7248064, "tags": {"name": "Sibbarp", "place": "hamlet"}}, {"type": "node", "id": 7466384742, "lat": 57.3987245, "lon": 14.7371401, "tags": {"name": "Torset", "place": "hamlet"}}, {"type": "node", "id": 7466385841, "lat": 57.4024354, "lon": 14.7347346, "tags": {"name": "G\u00e5van", "place": "hamlet"}}, {"type": "node", "id": 7466543395, "lat": 57.4826666, "lon": 14.7400227, "tags": {"name": "Ryd", "place": "hamlet"}}, {"type": "node", "id": 7466548831, "lat": 57.4511366, "lon": 14.719201, "tags": {"name": "R\u00f6ssby", "place": "hamlet"}}, {"type": "node", "id": 7466554591, "lat": 57.4810246, "lon": 14.7591803, "tags": {"name": "Horsn\u00e4s", "place": "hamlet"}}, {"type": "node", "id": 7466678444, "lat": 57.5384193, "lon": 14.7709958, "tags": {"name": "H\u00f6gag\u00e4rde", "place": "hamlet"}}, {"type": "node", "id": 7466728176, "lat": 57.5172462, "lon": 14.7468218, "tags": {"name": "Guthult", "place": "hamlet"}}, {"type": "node", "id": 7466733253, "lat": 57.5598189, "lon": 14.7270891, "tags": {"name": "Hattsj\u00f6hult", "place": "hamlet"}}, {"type": "node", "id": 7466755353, "lat": 57.5188188, "lon": 14.7214022, "tags": {"name": "L\u00e5ngaholmen", "place": "hamlet"}}, {"type": "node", "id": 7466763073, "lat": 57.5167184, "lon": 14.6985811, "tags": {"name": "Kars\u00e5s", "place": "hamlet"}}, {"type": "node", "id": 7466880595, "lat": 57.5817596, "lon": 14.7653384, "tags": {"name": "\u00c5nhult", "place": "hamlet"}}, {"type": "node", "id": 7466884848, "lat": 57.5684624, "lon": 14.7746665, "tags": {"name": "Kroks\u00e5s", "place": "hamlet"}}, {"type": "node", "id": 7466900142, "lat": 57.5637094, "lon": 14.7583677, "tags": {"name": "Lilla Hult", "place": "hamlet"}}, {"type": "node", "id": 7466909989, "lat": 57.5498132, "lon": 14.7679327, "tags": {"name": "Halla", "place": "hamlet"}}, {"type": "node", "id": 7466911839, "lat": 57.5425715, "lon": 14.7482171, "tags": {"name": "H\u00f6gaholmen", "place": "hamlet"}}, {"type": "node", "id": 7467026091, "lat": 57.6327876, "lon": 14.7588469, "tags": {"name": "Skallarp", "place": "hamlet"}}, {"type": "node", "id": 7467123653, "lat": 57.6410982, "lon": 14.7507177, "tags": {"name": "Br\u00e5na", "place": "hamlet"}}, {"type": "node", "id": 7467137449, "lat": 57.6531688, "lon": 14.7639062, "tags": {"name": "L\u00f6vhult", "place": "hamlet"}}, {"type": "node", "id": 7467153381, "lat": 57.6359133, "lon": 14.7498653, "tags": {"name": "Dostarp", "place": "hamlet"}}, {"type": "node", "id": 7468443829, "lat": 57.7469999, "lon": 14.7078057, "tags": {"name": "Olarp", "place": "hamlet"}}, {"type": "node", "id": 7468460395, "lat": 57.7610195, "lon": 14.7674991, "tags": {"name": "Skog", "place": "hamlet"}}, {"type": "node", "id": 7468466393, "lat": 57.7696132, "lon": 14.7471263, "tags": {"name": "Lidhult", "place": "hamlet"}}, {"type": "node", "id": 7468474731, "lat": 57.7315219, "lon": 14.7629257, "tags": {"name": "P\u00e5skarp", "place": "hamlet"}}]}