{"version": 0.6, "generator": "Overpass API 0.7.61.5 4133829e", "osm3s": {"timestamp_osm_base": "2024-03-06T11:01:15Z", "copyright": "The data included in this document is from www.openstreetmap.org. The data is made available under ODbL."}, "elements": [{"type": "node", "id": 5197358322, "lat": -1.951805, "lon": 40.14274, "tags": {"addr:street": "Kitere Village", "amenity": "school", "name": "Kitere Primary School"}}, {"type": "node", "id": 11645301795, "lat": -1.9588389, "lon": 40.1503949, "tags": {"amenity": "school", "capacity": "232", "evacuation_centre": "yes", "flood_prone": "no", "isced:level": "3", "name": "Minhaj School", "source": "KRCS2023", "staff_count": "17", "storage_area": "yes"}}, {"type": "node", "id": 11645301798, "lat": -2.0649662, "lon": 40.1769109, "tags": {"amenity": "school", "capacity": "3000", "evacuation_centre": "no", "flood_prone": "no", "isced:level": "1", "name": "Hossana Gardens Academy", "source": "KRCS2023", "staff_count": "15", "storage_area": "yes"}}, {"type": "node", "id": 11645301801, "lat": -2.2326332, "lon": 40.1810683, "tags": {"amenity": "school", "capacity": "320", "evacuation_centre": "no", "flood_prone": "yes", "isced:level": "3", "name": "Gadeni Secretary School", "source": "KRCS2023", "staff_count": "25", "storage_area": "yes"}}, {"type": "node", "id": 11645301805, "lat": -1.9697125, "lon": 40.1632598, "tags": {"amenity": "school", "capacity": "144", "evacuation_centre": "yes", "flood_prone": "yes", "isced:level": "3", "name": "Kitere School", "source": "KRCS2023", "staff_count": "13", "storage_area": "yes"}}, {"type": "node", "id": 11645301808, "lat": -2.1137766, "lon": 40.1839078, "tags": {"amenity": "school", "capacity": "98", "evacuation_centre": "no", "flood_prone": "no", "isced:level": "1", "name": "Lazima Primary school", "source": "KRCS2023", "staff_count": "6", "storage_area": "yes"}}, {"type": "node", "id": 11645301810, "lat": -2.1262828, "lon": 40.1836448, "tags": {"amenity": "school", "capacity": "177", "evacuation_centre": "no", "flood_prone": "yes", "isced:level": "1", "name": "Ngumu Primary school", "source": "KRCS2023", "staff_count": "8", "storage_area": "no"}}, {"type": "node", "id": 11645301812, "lat": -2.0179073, "lon": 40.152374, "tags": {"amenity": "school", "capacity": "200", "evacuation_centre": "yes", "flood_prone": "yes", "isced:level": "1", "name": "Kinyadu Primary School", "source": "KRCS2023", "staff_count": "7", "storage_area": "yes"}}, {"type": "node", "id": 11645301820, "lat": -2.0862422, "lon": 40.1634394, "tags": {"amenity": "school", "capacity": "100", "evacuation_centre": "no", "flood_prone": "yes", "isced:level": "1", "name": "Peponi Primary School", "source": "KRCS2023", "staff_count": "8", "storage_area": "no"}}, {"type": "node", "id": 11645301822, "lat": -2.1492154, "lon": 40.1840016, "tags": {"amenity": "school", "capacity": "139", "evacuation_centre": "yes", "flood_prone": "no", "isced:level": "1", "name": "Marembo Primary", "source": "KRCS2023", "staff_count": "11", "storage_area": "yes"}}, {"type": "node", "id": 11645301823, "lat": -2.1268289, "lon": 40.1246749, "tags": {"amenity": "school", "capacity": "240", "evacuation_centre": "yes", "flood_prone": "yes", "isced:level": "1", "name": "Sera Primary School", "source": "KRCS2023", "staff_count": "10", "storage_area": "yes"}}, {"type": "node", "id": 11645301825, "lat": -1.9569211, "lon": 40.1472474, "tags": {"amenity": "school", "capacity": "454", "evacuation_centre": "yes", "flood_prone": "no", "isced:level": "1", "name": "Kitere Primary School", "source": "KRCS2023", "staff_count": "10", "storage_area": "yes"}}, {"type": "node", "id": 11645301827, "lat": -2.2928764, "lon": 40.2298299, "tags": {"amenity": "school", "capacity": "200", "evacuation_centre": "yes", "flood_prone": "yes", "isced:level": "1", "name": "Bula Rahma Primary School", "source": "KRCS2023", "staff_count": "2", "storage_area": "yes"}}, {"type": "node", "id": 11645301831, "lat": -2.1852728, "lon": 40.1337353, "tags": {"amenity": "school", "capacity": "500", "evacuation_centre": "yes", "flood_prone": "no", "isced:level": "1", "name": "Maziwa Primary", "source": "KRCS2023", "staff_count": "9", "storage_area": "yes"}}, {"type": "node", "id": 11645301837, "lat": -2.2344515, "lon": 40.1801781, "tags": {"amenity": "school", "capacity": "550", "evacuation_centre": "no", "flood_prone": "no", "isced:level": "1", "name": "Gadeni Primary School", "source": "KRCS2023", "staff_count": "8", "storage_area": "yes"}}, {"type": "node", "id": 11645301844, "lat": -2.2436862, "lon": 40.1669986, "tags": {"amenity": "school", "capacity": "200", "evacuation_centre": "no", "flood_prone": "yes", "isced:level": "1", "name": "Imani Primary School", "source": "KRCS2023", "staff_count": "8", "storage_area": "yes"}}, {"type": "node", "id": 11645301861, "lat": -2.0414594, "lon": 40.1592572, "tags": {"amenity": "school", "capacity": "1500", "evacuation_centre": "no", "flood_prone": "yes", "isced:level": "1", "name": "Bubesa Primary School", "source": "KRCS2023", "staff_count": "10", "storage_area": "yes"}}, {"type": "node", "id": 11645348171, "lat": -2.062916, "lon": 40.1769214, "tags": {"amenity": "school", "capacity": "2500", "evacuation_centre": "yes", "flood_prone": "no", "isced:level": "1", "name": "Mwina Primary School", "source": "KRCS2023", "staff_count": "14", "storage_area": "yes"}}, {"type": "node", "id": 11645348175, "lat": -2.211919, "lon": 40.1819908, "tags": {"amenity": "school", "capacity": "550", "evacuation_centre": "no", "flood_prone": "no", "isced:level": "1", "name": "Reuben Mwewe Primary School", "source": "KRCS2023", "staff_count": "13", "storage_area": "yes"}}, {"type": "node", "id": 11645348176, "lat": -2.2701005, "lon": 40.1788702, "tags": {"amenity": "school", "capacity": "600", "evacuation_centre": "yes", "flood_prone": "yes", "isced:level": "1", "name": "Gamba Primary School", "source": "KRCS2023", "staff_count": "8", "storage_area": "yes"}}, {"type": "node", "id": 11645348179, "lat": -2.2822001, "lon": 40.1371503, "tags": {"amenity": "school", "capacity": "700", "evacuation_centre": "no", "flood_prone": "yes", "isced:level": "1", "name": "Danisa Primary School", "source": "KRCS2023", "staff_count": "10", "storage_area": "no"}}, {"type": "node", "id": 11645348180, "lat": -2.1807622, "lon": 40.1754075, "tags": {"amenity": "school", "capacity": "500", "evacuation_centre": "yes", "flood_prone": "no", "isced:level": "1", "name": "Kulesa Primary School", "source": "KRCS2023", "staff_count": "14", "storage_area": "yes"}}]}