{"version": 0.6, "generator": "Overpass API 0.7.61.5 4133829e", "osm3s": {"timestamp_osm_base": "2024-03-06T11:35:00Z", "copyright": "The data included in this document is from www.openstreetmap.org. The data is made available under ODbL."}, "elements": [{"type": "node", "id": 1329652002, "lat": -3.2263818, "lon": 40.1246315}, {"type": "node", "id": 1747678874, "lat": -3.5423814, "lon": 39.6918766}, {"type": "node", "id": 1747678876, "lat": -3.5424215, "lon": 39.6922779}, {"type": "node", "id": 1747678880, "lat": -3.5427508, "lon": 39.6918543}, {"type": "node", "id": 1747678881, "lat": -3.5427775, "lon": 39.6922646}, {"type": "node", "id": 4707793171, "lat": -3.5494075, "lon": 39.6878234, "tags": {"amenity": "hospital", "building:material": "concreate", "building:roof": "ironsheets", "electricity:operational_status": "often", "health:government_registered": "yes", "health:laboratory_present": "yes", "health:management_commitee": "yes", "health:martenity_present": "yes", "health:pharmacy_present": "yes", "health:program_HIV_clinic": "yes", "health:program_PMTCT": "yes", "health:program_VCT": "yes", "health:program_counselling": "yes", "health:program_general_treatment": "yes", "health:program_handwashing": "yes", "health:program_laboratory_testing": "yes", "health:program_malaria": "yes", "health:program_maternity": "yes", "health:program_rain": "yes", "health:program_tuberclosis_clinic": "yes", "health:staff_receptionist": "yes", "health:water_present": "yes", "name": "ganze health", "operator:type": "government", "place:ADP_area": "ganze", "status:operational_status": "operational", "toilet:present": "yes"}}, {"type": "node", "id": 4707793172, "lat": -3.5446246, "lon": 39.6888301}, {"type": "node", "id": 4707793173, "lat": -3.4754826, "lon": 39.7474738, "tags": {"amenity": "hospital", "building:material": "cement_block", "building:roof": "ironsheets", "electricity:operational_status": "sometimes", "health:accessibility": "big_vehicles", "health:government_registered": "yes", "health:management_commitee": "yes", "health:program_counselling": "yes", "health:program_general_treatment": "yes", "health:program_handwashing": "yes", "health:program_laboratory_testing": "yes", "health:program_malaria": "yes", "health:program_rain": "yes", "health:program_tuberclosis_clinic": "yes", "name": "kachororoni health centre", "place:ADP_area": "ganze", "status:operational_status": "operational", "toilet:present": "yes"}}, {"type": "node", "id": 5735880000, "lat": -3.3895791, "lon": 39.9289767}, {"type": "node", "id": 7410724696, "lat": -3.2246036, "lon": 40.1246369}, {"type": "node", "id": 7410724697, "lat": -3.2245742, "lon": 40.124897}, {"type": "node", "id": 7410724698, "lat": -3.2266067, "lon": 40.1258385}, {"type": "node", "id": 7410724699, "lat": -3.2266067, "lon": 40.1246369}, {"type": "node", "id": 7457949992, "lat": -3.5446272, "lon": 39.688968}, {"type": "node", "id": 7457949993, "lat": -3.5447008, "lon": 39.6889666}, {"type": "node", "id": 7457949994, "lat": -3.5446982, "lon": 39.6888287}, {"type": "node", "id": 7462929247, "lat": -3.3896252, "lon": 39.9291502}, {"type": "node", "id": 7462929248, "lat": -3.3899045, "lon": 39.9290757}, {"type": "node", "id": 7462929249, "lat": -3.3898584, "lon": 39.9289022}, {"type": "node", "id": 11290358726, "lat": -3.1796306, "lon": 39.7858198, "tags": {"amenity": "hospital", "evacuation_center": "no", "flood_prone": "no", "name": "Baolala dispensary", "opening_hours": "24/7", "operational_status": "operational", "operator": "Ministry of Health", "operator:type": "public", "phone": "+254 714 513 109", "source": "KRCS2023", "storage_area": "yes"}}, {"type": "way", "id": 162982309, "nodes": [1747678874, 1747678876, 1747678881, 1747678880, 1747678874], "tags": {"amenity": "hospital", "name": "Ganze Medical Clinic"}}, {"type": "way", "id": 792512194, "nodes": [1329652002, 7410724696, 7410724697, 7410724698, 7410724699, 1329652002], "tags": {"amenity": "hospital", "healthcare": "hospital", "name": "Malindi Sub-County Hospital", "name:it": "Ospedale"}}, {"type": "way", "id": 797418525, "nodes": [4707793172, 7457949992, 7457949993, 7457949994, 4707793172], "tags": {"amenity": "hospital", "building:material": "concreate", "building:roof": "ironsheets", "electricity:operational_status": "sometimes", "health:government_registered": "yes", "health:laboratory_present": "yes", "health:pharmacy_present": "yes", "health:program_counselling": "yes", "health:program_general_treatment": "yes", "health:program_laboratory_testing": "yes", "health:program_malaria": "yes", "health:water_present": "yes", "healthcare": "hospital", "name": "chamalo health centre", "place:ADP_area": "ganze", "status:operational_status": "operational", "toilet:present": "yes"}}, {"type": "way", "id": 797904721, "nodes": [5735880000, 7462929247, 7462929248, 7462929249, 5735880000], "tags": {"addr:city": "Kilifi", "amenity": "hospital", "emergency": "yes", "healthcare": "hospital", "healthcare:speciality": "general", "name": "Matsangoni Health Centre", "operator": "Government"}}]}