{"version": 0.6, "generator": "Overpass API 0.7.61.5 4133829e", "osm3s": {"timestamp_osm_base": "2024-03-06T11:43:14Z", "copyright": "The data included in this document is from www.openstreetmap.org. The data is made available under ODbL."}, "elements": [{"type": "node", "id": 1404221505, "lat": 3.4971, "lon": 41.751202, "tags": {"name": "Dermo", "pcode": "NA-3704-N28-001", "place": "village", "source": "UNDP - 1997"}}, {"type": "node", "id": 1404221681, "lat": 3.61271, "lon": 41.87632, "tags": {"name": "El-Ma'An", "pcode": "NA-3704-K31-001", "place": "village", "source": "UNDP - 2006"}}, {"type": "node", "id": 1404221868, "lat": 3.58059, "lon": 41.84246, "tags": {"name": "Gomor Cad 1", "pcode": "NA-3704-L30-003", "place": "village", "source": "UNDP - 2006"}}, {"type": "node", "id": 1404221994, "lat": 3.71242, "lon": 41.72423, "tags": {"name": "Hareri Hosle 1", "pcode": "NA-3704-G27-001", "place": "village", "source": "UNDP - 2006"}}, {"type": "node", "id": 1404222031, "lat": 3.71478, "lon": 41.83544, "tags": {"name": "Dhufees", "pcode": "NA-3704-G30-001", "place": "village", "source": "UNDP - 2006"}}, {"type": "node", "id": 1404223181, "lat": 3.67474, "lon": 41.71094, "tags": {"name": "Dhusuqle", "pcode": "NA-3704-H27-001", "place": "village", "source": "UNDP - 2006"}}, {"type": "node", "id": 1404223458, "lat": 3.60061, "lon": 41.73687, "tags": {"name": "Bilcille", "pcode": "NA-3704-K28-001", "place": "village", "source": "UNDP - 2006"}}, {"type": "node", "id": 1404223466, "lat": 3.56869, "lon": 41.80668, "tags": {"name": "Tuulo Barako", "pcode": "NA-3704-L29-001", "place": "village", "source": "UNDP - 2006"}}, {"type": "node", "id": 1404223474, "lat": 3.50101, "lon": 41.79055, "tags": {"name": "Qooriyow", "pcode": "NA-3704-M29-001", "place": "village", "source": "UNDP - 2006"}}, {"type": "node", "id": 1404223491, "lat": 3.60633, "lon": 41.86361, "tags": {"name": "Tido", "pcode": "NA-3704-K30-001", "place": "village", "source": "UNDP - 2006"}}, {"type": "node", "id": 1404223566, "lat": 3.62506, "lon": 41.88793, "tags": {"alt_name": "Baqtile", "name": "Bakhtiley", "pcode": "NA-3704-J31-001", "place": "village", "source": "UNDP - 2006, UNDP - 1997"}}, {"type": "node", "id": 1404224449, "lat": 3.60228, "lon": 41.73424, "tags": {"name": "Hareri Dulal", "pcode": "NA-3704-K28-002", "place": "village", "source": "UNDP - 2006"}}, {"type": "node", "id": 1404224798, "lat": 3.70002, "lon": 41.83071, "tags": {"name": "Haad Fuul", "pcode": "NA-3704-H30-002", "place": "village", "source": "UNDP - 2006"}}, {"type": "node", "id": 1404225041, "lat": 3.64437, "lon": 41.76244, "tags": {"name": "Cag Wilif", "pcode": "NA-3704-J28-001", "place": "village", "source": "UNDP - 2006"}}, {"type": "node", "id": 1404225064, "lat": 3.42047, "lon": 41.88554, "tags": {"name": "Salahlo", "pcode": "NA-3704-P31-001", "place": "hamlet", "source": "UNDP - 2006"}}, {"type": "node", "id": 1404225111, "lat": 3.57102, "lon": 41.8515, "tags": {"name": "Qaraarow", "pcode": "NA-3704-L30-004", "place": "village", "source": "UNDP - 2006"}}, {"type": "node", "id": 1404225629, "lat": 3.5711, "lon": 41.649502, "tags": {"name": "El Uaro", "pcode": "NA-3704-L26-001", "place": "village", "source": "UNDP - 1997"}}, {"type": "node", "id": 1404226093, "lat": 3.6869, "lon": 41.72064, "tags": {"name": "Hareri Hoosle 2", "pcode": "NA-3704-H27-002", "place": "village", "source": "UNDP - 2006"}}, {"type": "node", "id": 1404226281, "lat": 3.4993, "lon": 41.87573, "tags": {"name": "Hagar", "pcode": "NA-3704-N31-001", "place": "village", "source": "UNDP - 2006"}}, {"type": "node", "id": 1404226299, "lat": 3.3719, "lon": 41.8493, "tags": {"name": "El Geldes", "pcode": "NA-3704-R30-001", "place": "hamlet", "source": "UNDP - 1997"}}, {"type": "node", "id": 1404226452, "lat": 3.65819, "lon": 41.80588, "tags": {"name": "Hareriga Ali Ato", "pcode": "NA-3704-J29-001", "place": "village", "source": "UNDP - 2006"}}, {"type": "node", "id": 1404226583, "lat": 3.65832, "lon": 41.88852, "tags": {"name": "Irridda", "pcode": "NA-3704-J31-002", "place": "village", "source": "UNDP - 2006"}}, {"type": "node", "id": 1404227486, "lat": 3.4528, "lon": 41.628399, "tags": {"name": "Gubbet Uasasa", "pcode": "NA-3704-P25-001", "place": "village", "source": "UNDP - 1997"}}, {"type": "node", "id": 1404228886, "lat": 3.56079, "lon": 41.77965, "tags": {"name": "Waro-Cadcad", "pcode": "NA-3704-L29-002", "place": "village", "source": "UNDP - 2006"}}, {"type": "node", "id": 1404230260, "lat": 3.5444, "lon": 41.85122, "tags": {"name": "Buniyo", "pcode": "NA-3704-L30-001", "place": "village", "source": "UNDP - 2006"}}, {"type": "node", "id": 1404230409, "lat": 3.62898, "lon": 41.69468, "tags": {"name": "Bulo Haji", "pcode": "NA-3704-J27-002", "place": "village", "source": "UNDP - 2006"}}, {"type": "node", "id": 1404230903, "lat": 3.6022, "lon": 41.85287, "tags": {"name": "Hareriley", "pcode": "NA-3704-K30-002", "place": "village", "source": "UNDP - 2006"}}, {"type": "node", "id": 1404231113, "lat": 3.46289, "lon": 41.7186, "tags": {"name": "Tooblow", "pcode": "NA-3704-N27-001", "place": "village", "source": "UNDP - 2006"}}, {"type": "node", "id": 1404231204, "lat": 3.5687, "lon": 41.82114, "tags": {"alt_name": "Gadoon Dhowe; Gadoon Dhawe", "name": "Gaddoondhowe", "pcode": "NA-3704-L30-002", "place": "village", "source": "UNDP - 2006, FSAU"}}, {"type": "node", "id": 1404231519, "lat": 3.61511, "lon": 41.74846, "tags": {"name": "Ciiraaley", "pcode": "NA-3704-K28-003", "place": "village", "source": "UNDP - 2006"}}, {"type": "node", "id": 1404231743, "lat": 3.63088, "lon": 41.71228, "tags": {"name": "Hananley", "pcode": "NA-3704-J27-001", "place": "village", "source": "UNDP - 2006"}}, {"type": "node", "id": 1404233115, "lat": 3.72859, "lon": 41.74322, "tags": {"name": "Dhabaney", "pcode": "NA-3704-G28-001", "place": "village", "source": "UNDP - 2006"}}, {"type": "node", "id": 1404233195, "lat": 3.3696, "lon": 41.728401, "tags": {"name": "Hara Fara", "pcode": "NA-3704-R28-001", "place": "village", "source": "UNDP - 1997"}}, {"type": "node", "id": 1404233267, "lat": 3.68174, "lon": 41.82231, "tags": {"name": "Xaydibi", "pcode": "NA-3704-H30-001", "place": "village", "source": "UNDP - 2006"}}, {"type": "node", "id": 2485483692, "lat": 3.525411, "lon": 41.499079, "tags": {"fixme": "Location approximate.", "name": "Arabia", "nga:ufi": "9098377", "place": "hamlet", "source": "Bing; USGS 2013-07-16; NGA"}}, {"type": "node", "id": 2485483694, "lat": 3.558293, "lon": 41.50725, "tags": {"name": "Koridzhub", "nga:ufi": "10171959", "place": "hamlet", "source": "Bing;USGS 2013-07-16;NGA"}}, {"type": "node", "id": 3199991184, "lat": 3.7525154, "lon": 41.6610288}, {"type": "node", "id": 3199991185, "lat": 3.7510462, "lon": 41.6627418}, {"type": "node", "id": 3199991186, "lat": 3.7555102, "lon": 41.6694238}, {"type": "node", "id": 3199991187, "lat": 3.7585474, "lon": 41.6698485}, {"type": "node", "id": 3199991188, "lat": 3.758731, "lon": 41.6682488}, {"type": "node", "id": 3199991189, "lat": 3.7538715, "lon": 41.661864}, {"type": "node", "id": 3199991200, "lat": 3.5623846, "lon": 41.5021201}, {"type": "node", "id": 3199991201, "lat": 3.5618814, "lon": 41.5052749}, {"type": "node", "id": 3199991202, "lat": 3.5635694, "lon": 41.5087549}, {"type": "node", "id": 3199991203, "lat": 3.564884, "lon": 41.5114707}, {"type": "node", "id": 3199991204, "lat": 3.5622547, "lon": 41.5132269}, {"type": "node", "id": 3199991205, "lat": 3.5549347, "lon": 41.5107064}, {"type": "node", "id": 3199991206, "lat": 3.5509582, "lon": 41.5071938}, {"type": "node", "id": 3199991207, "lat": 3.5478257, "lon": 41.509568}, {"type": "node", "id": 3199991208, "lat": 3.547631, "lon": 41.510869}, {"type": "node", "id": 3199991209, "lat": 3.5452775, "lon": 41.5043642}, {"type": "node", "id": 3199991210, "lat": 3.5459754, "lon": 41.4957617}, {"type": "node", "id": 3199991211, "lat": 3.5507635, "lon": 41.4938103}, {"type": "node", "id": 3199991212, "lat": 3.557418, "lon": 41.4950136}, {"type": "node", "id": 3199991213, "lat": 3.561784, "lon": 41.4963471}, {"type": "node", "id": 3199991214, "lat": 3.561849, "lon": 41.4993718}, {"type": "node", "id": 10109104431, "lat": 3.7549477, "lon": 41.6656632, "tags": {"name": "Omar Jillow", "place": "village"}}, {"type": "way", "id": 313956187, "nodes": [3199991184, 3199991185, 3199991186, 3199991187, 3199991188, 3199991189, 3199991184], "tags": {"place": "village"}}, {"type": "way", "id": 313956188, "nodes": [3199991200, 3199991201, 3199991202, 3199991203, 3199991204, 3199991205, 3199991206, 3199991207, 3199991208, 3199991209, 3199991210, 3199991211, 3199991212, 3199991213, 3199991214, 3199991200], "tags": {"name": "Koridzhub", "place": "village"}}]}