{"version": 0.6, "generator": "Overpass API 0.7.61.5 4133829e", "osm3s": {"timestamp_osm_base": "2024-03-06T11:42:15Z", "copyright": "The data included in this document is from www.openstreetmap.org. The data is made available under ODbL."}, "elements": [{"type": "node", "id": 44911225, "lat": -0.9996644, "lon": 39.9003679, "tags": {"is_in": "Tana river,Kenya", "name": "Tuni", "place": "village"}}, {"type": "node", "id": 44911256, "lat": -0.8333, "lon": 39.7, "tags": {"created_by": "JOSM", "is_in": "Tana river,Kenya", "name": "Tula", "place": "village"}}, {"type": "node", "id": 44922490, "lat": -0.65, "lon": 39.7833, "tags": {"created_by": "JOSM", "is_in": "Tana river,Kenya", "name": "Orbu", "place": "village"}}, {"type": "node", "id": 44925434, "lat": -0.85, "lon": 39.8333, "tags": {"created_by": "JOSM", "is_in": "Tana river,Kenya", "name": "Nanigi West", "place": "village"}}, {"type": "node", "id": 44925439, "lat": -0.852848, "lon": 39.8700417, "tags": {"name": "Nanighi East", "place": "village"}}, {"type": "node", "id": 44931272, "lat": -0.6, "lon": 39.7833, "tags": {"created_by": "JOSM", "is_in": "Tana river,Kenya", "name": "Korokora", "place": "village"}}, {"type": "node", "id": 44997347, "lat": -0.6428692, "lon": 39.7987438, "tags": {"is_in": "Tana river,Kenya", "name": "Kamudi", "place": "village", "wikidata": "Q6359784"}}, {"type": "node", "id": 44998843, "lat": -0.7001141, "lon": 39.8000046, "tags": {"alt_name:2": "Jara", "alt_name_3": "Malka Jara", "is_in": "Tana river,Kenya", "name": "Jara Malka", "place": "village"}}, {"type": "node", "id": 45004577, "lat": -0.9996321, "lon": 39.8997095, "tags": {"is_in": "Tana river,Kenya", "name": "Funi", "place": "village"}}, {"type": "node", "id": 45004583, "lat": -1.0000839, "lon": 39.8998386, "tags": {"is_in": "Tana river,Kenya", "name": "Funi Dela", "place": "village"}}, {"type": "node", "id": 45006155, "lat": -0.7666, "lon": 39.8, "tags": {"is_in": "Tana river,Kenya", "name": "Bongonoko", "place": "village", "wikidata": "Q4941910"}}, {"type": "node", "id": 45006957, "lat": -0.5953139, "lon": 39.6963694, "tags": {"is_in:county": "Tana River", "name": "Bilbil", "place": "village"}}, {"type": "node", "id": 10657216097, "lat": -0.7888199, "lon": 39.8487616, "tags": {"name": "Abagdera", "place": "village"}}, {"type": "node", "id": 10681423847, "lat": -0.9379342, "lon": 39.8923959, "tags": {"name": "Guyo", "place": "village"}}, {"type": "node", "id": 11219211026, "lat": -0.9500229, "lon": 39.8966299, "tags": {"is_in:county": "Tana River", "name": "Jembe", "place": "village"}}, {"type": "node", "id": 11219229778, "lat": -0.9555082, "lon": 39.8989976, "tags": {"is_in:county": "Tana River", "name": "Shabaha", "place": "village"}}, {"type": "node", "id": 11219758596, "lat": -0.5805614, "lon": 39.6830192, "tags": {"is_in:county": "Tana River", "name": "Dukanotu", "place": "village"}}, {"type": "node", "id": 11219828943, "lat": -0.6018533, "lon": 39.7074154, "tags": {"is_in:county": "Tana River", "name": "Subu", "place": "village"}}, {"type": "node", "id": 11371598520, "lat": -0.7345064, "lon": 39.8355512, "tags": {"name": "Kamuthe", "place": "village"}}, {"type": "node", "id": 11371598550, "lat": -0.7030364, "lon": 39.8313099, "tags": {"name": "Nadir", "place": "hamlet"}}, {"type": "node", "id": 11371598566, "lat": -0.6695539, "lon": 39.8229225, "tags": {"name": "Warable", "place": "hamlet"}}, {"type": "node", "id": 11371654203, "lat": -0.6119946, "lon": 39.7859365, "tags": {"name": "KoraKora Health Center", "place": "village"}}, {"type": "node", "id": 11648827322, "lat": -0.8629536, "lon": 39.8634117, "tags": {"evacuation_centre": "yes", "name": "Jaribu", "place": "village", "source": "KRCS2023"}}, {"type": "node", "id": 11648827323, "lat": -0.9273031, "lon": 39.8404552, "tags": {"evacuation_centre": "yes", "name": "Matagala", "place": "village", "source": "KRCS2023"}}, {"type": "node", "id": 11648827333, "lat": -0.9205843, "lon": 39.8868449, "tags": {"evacuation_centre": "yes", "name": "Munyichi", "place": "village", "source": "KRCS2023"}}, {"type": "node", "id": 11648827339, "lat": -0.9556982, "lon": 39.8987806, "tags": {"evacuation_centre": "yes", "name": "Shakaloni", "place": "village", "source": "KRCS2023"}}, {"type": "node", "id": 11648827340, "lat": -0.9263252, "lon": 39.8452171, "tags": {"evacuation_centre": "yes", "name": "Kimilo", "place": "village", "source": "KRCS2023"}}, {"type": "node", "id": 11648827345, "lat": -0.8964439, "lon": 39.8502239, "tags": {"evacuation_centre": "no", "name": "Batini", "place": "village", "source": "KRCS2023"}}, {"type": "node", "id": 11648827349, "lat": -0.890973, "lon": 39.8812414, "tags": {"evacuation_centre": "yes", "name": "Diram", "place": "village", "source": "KRCS2023"}}, {"type": "node", "id": 11648827353, "lat": -0.9363072, "lon": 39.8908982, "tags": {"evacuation_centre": "yes", "name": "Guyo", "place": "village", "source": "KRCS2023"}}]}