{"version": 0.6, "generator": "Overpass API 0.7.61.5 4133829e", "osm3s": {"timestamp_osm_base": "2024-03-05T15:10:59Z", "copyright": "The data included in this document is from www.openstreetmap.org. The data is made available under ODbL."}, "elements": [{"type": "node", "id": 268092126, "lat": 61.4828877, "lon": 11.9317966, "tags": {"name": "Eltdalen", "place": "hamlet", "ssr:stedsnr": "251814"}}, {"type": "node", "id": 321022109, "lat": 61.372157, "lon": 11.9536162, "tags": {"name": "Slett\u00e5s", "place": "village", "ssr:stedsnr": "1083731"}}, {"type": "node", "id": 321032168, "lat": 61.3013878, "lon": 11.7635269, "tags": {"alt_name": "Nordre Osen", "name": "Osen", "place": "village", "ssr:stedsnr": "516128"}}, {"type": "node", "id": 808426933, "lat": 61.249195, "lon": 12.0358317, "tags": {"name": "Vestby", "place": "hamlet", "ssr:stedsnr": "797549"}}, {"type": "node", "id": 1064257162, "lat": 61.6766177, "lon": 12.0060783, "tags": {"name": "Heggeriset", "place": "village", "ssr:stedsnr": "313728"}}, {"type": "node", "id": 3675753939, "lat": 61.4960141, "lon": 11.6792918, "tags": {"name": "Bekken", "place": "hamlet", "ssr:stedsnr": "736213"}}, {"type": "node", "id": 9738189341, "lat": 61.384875, "lon": 11.4510417, "tags": {"alt_name": "L\u00f8sset-Nords\u00e6tra", "name": "Nords\u00e6tra", "place": "hamlet", "ssr:stedsnr": "736051"}}, {"type": "node", "id": 9738189362, "lat": 61.2483053, "lon": 11.492306, "tags": {"name": "R\u00f8dsbakken", "place": "hamlet", "ssr:stedsnr": "1080597"}}, {"type": "node", "id": 9738189570, "lat": 61.4254761, "lon": 11.7085214, "tags": {"alt_name": "Jota", "name": "Gjota", "place": "hamlet", "ssr:stedsnr": "251203"}}, {"type": "node", "id": 9738189770, "lat": 61.2790696, "lon": 11.8144438, "tags": {"name": "Skavaren", "old_name": "Skavarn", "place": "hamlet", "ssr:stedsnr": "735748"}}, {"type": "node", "id": 9738189790, "lat": 61.3672922, "lon": 11.8017861, "tags": {"name": "Furutangen", "place": "village", "ssr:stedsnr": "371147"}}, {"type": "node", "id": 9738189843, "lat": 61.3096021, "lon": 11.7265502, "tags": {"name": "Osvoll", "place": "hamlet", "ssr:stedsnr": "7834"}}, {"type": "node", "id": 9738189874, "lat": 61.3558578, "lon": 11.7742446, "tags": {"name": "Berge", "place": "hamlet", "ssr:stedsnr": "311860"}}, {"type": "node", "id": 9738189888, "lat": 61.4831362, "lon": 11.6977639, "tags": {"name": "Stor\u00e5sen", "place": "hamlet", "ssr:stedsnr": "359138"}}, {"type": "node", "id": 9738189953, "lat": 61.3920298, "lon": 11.3685895, "tags": {"name": "L\u00f8set", "place": "hamlet", "ssr:stedsnr": "1076521"}}, {"type": "node", "id": 9738189971, "lat": 61.33687, "lon": 11.7986637, "tags": {"alt_name": "Nordre Storholm", "name": "Storholm", "place": "hamlet", "ssr:stedsnr": "735872"}}, {"type": "node", "id": 9738189980, "lat": 61.2397313, "lon": 11.81394, "tags": {"name": "S\u00f8rli", "place": "hamlet", "ssr:stedsnr": "858329"}}, {"type": "node", "id": 9738189986, "lat": 61.3397528, "lon": 11.8632862, "tags": {"name": "Nys\u00e6tergrenda", "place": "hamlet", "ssr:stedsnr": "831424"}}, {"type": "node", "id": 10102767905, "lat": 61.4974459, "lon": 11.9028573, "tags": {"alt_name": "Trysil-Knuts fjellsenter", "name": "Trysilknuts fjellverden", "place": "village", "ssr:stedsnr": "809269"}}, {"type": "node", "id": 10102767920, "lat": 61.5261972, "lon": 11.8619528, "tags": {"historic": "shieling", "name": "Leirs\u00e6tra", "place": "hamlet", "ssr:stedsnr": "859586"}}, {"type": "node", "id": 10102768301, "lat": 61.2511972, "lon": 11.99065, "tags": {"name": "Tall\u00e5ss\u00e6tra", "place": "hamlet", "ssr:stedsnr": "919540"}}, {"type": "node", "id": 10102768356, "lat": 61.3595722, "lon": 11.9418444, "tags": {"name": "Br\u00f8grenda", "place": "hamlet", "ssr:stedsnr": "53664"}}, {"type": "node", "id": 10102768358, "lat": 61.4323957, "lon": 12.0120352, "tags": {"name": "Vols\u00e6tra", "place": "hamlet", "ssr:stedsnr": "9990"}}, {"type": "node", "id": 10123849803, "lat": 61.6688508, "lon": 11.7841692, "tags": {"name": "Nymoen", "place": "hamlet", "ssr:stedsnr": "637143"}}, {"type": "node", "id": 10123849858, "lat": 61.6550389, "lon": 11.8238083, "tags": {"name": "Husfloen", "place": "hamlet", "ssr:stedsnr": "1076680"}}]}