{"version": 0.6, "generator": "Overpass API 0.7.61.5 4133829e", "osm3s": {"timestamp_osm_base": "2024-03-06T11:03:20Z", "copyright": "The data included in this document is from www.openstreetmap.org. The data is made available under ODbL."}, "elements": [{"type": "node", "id": 3003029851, "lat": 0.4355124, "lon": 37.5731186, "tags": {"amenity": "school", "name": "ariemet primary", "place:district": "isiolo", "place:division": "west", "place:location": "central", "place:sub_location": "shambani", "place:village": "ariemet", "school:operator": "public"}}, {"type": "node", "id": 3003029852, "lat": 0.4927926, "lon": 37.6127996, "tags": {"amenity": "school", "contact:postal": "box 56 isiolo", "name": "attan primary", "place:district": "isiolo", "place:division": "east", "place:location": "ngaremara", "place:sub_location": "ngaremara", "place:village": "attan", "project:description": "toilets-danida,complete,class-world vision,not complete", "project:fund_source": "cdf", "project:number": "3", "school:operator": "public", "school:project_quality": "good", "school:project_status": "not_complete", "school:project_type": "classroom"}}, {"type": "node", "id": 3003029886, "lat": 0.3499602, "lon": 37.5905379, "tags": {"amenity": "school", "contact:postal": "box 259 isiolo", "name": "hidaya shade academy", "place:district": "isiolo", "place:division": "east", "place:location": "kiwanjani", "place:sub_location": "kiwanjani", "place:village": "kiwanjani", "school:operator": "private"}}, {"type": "node", "id": 3003029894, "lat": 0.3695514, "lon": 37.5899232, "tags": {"amenity": "school", "contact:postal": "box 562 isiolo", "name": "isiolo school of deaf", "place:district": "isiolo", "place:division": "east", "place:location": "kambi garba", "place:sub_location": "kambi garba", "place:village": "kambi garba", "school:operator": "public"}}, {"type": "node", "id": 3003029896, "lat": 0.6198969, "lon": 37.6893475, "tags": {"amenity": "school", "contact:mobile": "0720257661", "contact:postal": "box 6030 isiolo", "name": "isiolo/samburu complex primary", "place:district": "isiolo", "place:division": "garmala", "place:location": "east", "place:sub_location": "garmala", "place:village": "complex", "project:fund_source": "ngo", "project:number": "1", "school:operator": "public", "school:project_quality": "very_good", "school:project_status": "complete", "school:project_type": "toilets"}}, {"type": "node", "id": 3003029899, "lat": 0.3934386, "lon": 37.5964641, "tags": {"amenity": "school", "name": "kambi garba primary", "place:district": "isiolo", "place:division": "central", "place:location": "kambi garba", "place:sub_location": "kambi garba", "place:village": "kambi garba", "project:fund_source": "catholic mission", "school:operator": "private"}}, {"type": "node", "id": 3003029930, "lat": 0.5000905, "lon": 37.6230465, "tags": {"amenity": "school", "name": "ngaremara secondary", "place:district": "isiolo", "place:division": "east", "place:location": "ngaremara", "place:sub_location": "ngaremara", "place:village": "ngaremara", "project:description": "the whole school is a project", "project:fund_source": "cdf", "school:operator": "public", "school:project_quality": "good", "school:project_status": "complete"}}, {"type": "node", "id": 3283811137, "lat": 0.3799549, "lon": 37.5942362, "tags": {"amenity": "school", "name": "anno school", "place:district": "isiolo", "place:division": "east", "place:location": "kambi garba", "place:sub_location": "kambi garba", "place:village": "kambi garba", "project:fund_source": "ngo-catholic mission", "school:operator": "private"}}, {"type": "node", "id": 3283811145, "lat": 0.3654327, "lon": 37.6061315, "tags": {"amenity": "school", "name": "baracks primary", "place:district": "isiolo", "place:division": "east", "place:location": "tuluroba", "place:sub_location": "tuluroba", "place:village": "checheles", "school:operator": "public"}}, {"type": "node", "id": 3283811146, "lat": 0.3655229, "lon": 37.6088736, "tags": {"amenity": "school", "name": "baracks secondary", "place:district": "isiolo", "place:division": "east", "place:location": "tuluroba", "place:sub_location": "tuluroba", "place:village": "checheles", "school:operator": "public"}}, {"type": "node", "id": 3283811159, "lat": 0.3509423, "lon": 37.5730075, "tags": {"amenity": "school", "name": "bula mpya primary", "place:district": "isiolo", "place:division": "central", "place:location": "bula pesa", "place:sub_location": "bula pesa", "place:village": "bula pesa", "project:fund_source": "cdf", "project:number": "1", "school:operator": "public", "school:project_quality": "good", "school:project_status": "complete", "school:project_type": "classroom"}}, {"type": "node", "id": 3283811160, "lat": 0.3419954, "lon": 37.5744396, "tags": {"amenity": "school", "name": "bula waso sunshine academy", "place:district": "isiolo", "place:division": "central", "place:location": "bula pesa", "place:sub_location": "bula pesa", "place:village": "bula pesa", "school:operator": "private"}}, {"type": "node", "id": 3283811966, "lat": 0.3564237, "lon": 37.5701827, "tags": {"amenity": "school", "contact:mobile": "0707458815", "contact:postal": "box 52 isiolo", "name": "child welfare primary", "place:district": "isiolo", "place:division": "central", "place:location": "bula pesa", "place:sub_location": "bula pesa", "place:village": "lmd"}}, {"type": "node", "id": 3283811969, "lat": 0.4456531, "lon": 37.6753321, "tags": {"amenity": "school", "name": "chumvyere primary", "place:district": "isiolo", "place:division": "east", "place:location": "ngaremara", "place:sub_location": "ngaremara", "place:village": "chumvyere", "project:fund_source": "ngo-danida", "project:number": "1", "school:operator": "public", "school:project_quality": "good", "school:project_status": "complete", "school:project_type": "toilets"}}, {"type": "node", "id": 3283811971, "lat": 0.5538988, "lon": 37.7597314, "tags": {"amenity": "school", "contact:postal": "box 56 isiolo", "name": "daaba primary school", "place:district": "isiolo", "place:division": "east", "place:location": "ngaremara", "place:sub_location": "daaba", "place:village": "daaba", "project:description": "toilets-danida,classroom-world vission", "project:fund_source": "action_aid", "project:number": "3", "school:operator": "public", "school:project_quality": "good", "school:project_status": "complete", "school:project_type": "classroom,watertank,toilets"}}, {"type": "node", "id": 3283811974, "lat": 0.3661986, "lon": 37.5632769, "tags": {"amenity": "school", "name": "emenyen primary", "place:district": "isiolo", "place:division": "west", "place:location": "burat", "place:sub_location": "burat", "place:village": "game", "project:description": "borehole-caritas,complete", "project:fund_source": "action_aid", "project:number": "2", "school:operator": "public", "school:project_quality": "good", "school:project_status": "complete", "school:project_type": "toilets"}}, {"type": "node", "id": 3283811976, "lat": 0.4065633, "lon": 37.6838433, "tags": {"amenity": "school", "contact:postal": "box 56 isiolo", "name": "gambela primary", "place:district": "isiolo", "place:division": "east", "place:location": "gambela", "place:sub_location": "gambela", "place:village": "gambela", "school:operator": "public"}}, {"type": "node", "id": 3283811988, "lat": 0.3046532, "lon": 37.5455765, "tags": {"amenity": "school", "name": "kakili primary", "place:district": "isiolo", "place:division": "west", "place:location": "burat", "place:sub_location": "burat", "place:village": "kakili", "school:operator": "public"}}, {"type": "node", "id": 3283811990, "lat": 0.3952655, "lon": 37.5941894, "tags": {"amenity": "school", "name": "kambi garba primary", "place:district": "isiolo", "place:division": "central", "place:location": "kambi garba", "place:sub_location": "kambi garba", "place:village": "kambi garba", "project:fund_source": "catholic mission", "school:operator": "private"}}, {"type": "node", "id": 3283811994, "lat": 0.3340558, "lon": 37.5529683, "tags": {"amenity": "school", "name": "kambi ya juu primary", "place:district": "isiolo", "place:division": "west", "place:location": "burat", "place:sub_location": "kambi sheik", "place:village": "kambi sheik", "school:operator": "public"}}, {"type": "node", "id": 3283811997, "lat": 0.3545776, "lon": 37.5610479, "tags": {"amenity": "school", "name": "kilimani primary", "place:district": "isiolo", "place:division": "west", "place:location": "burat", "place:sub_location": "burat", "place:village": "kilimani", "project:fund_source": "ngo,world vision", "project:number": "1", "school:operator": "public", "school:project_quality": "good", "school:project_status": "complete", "school:project_type": "watertank"}}, {"type": "node", "id": 3283811999, "lat": 0.3495769, "lon": 37.5962727, "tags": {"amenity": "school", "name": "kiwanjani primary", "place:district": "isiolo", "place:division": "east", "place:location": "kiwanjani", "place:sub_location": "kiwanjani", "place:village": "kiwanjani", "project:fund_source": "cdf", "project:number": "1", "school:operator": "public", "school:project_quality": "good", "school:project_status": "complete", "school:project_type": "classroom"}}, {"type": "node", "id": 3283812000, "lat": 0.3505254, "lon": 37.5958256, "tags": {"amenity": "school", "name": "kiwanjani secondary", "place:district": "isiolo", "place:division": "east", "place:location": "kiwanjani", "place:sub_location": "kiwanjani", "place:village": "kiwanjani", "school:operator": "public"}}, {"type": "node", "id": 3283812006, "lat": 0.3389677, "lon": 37.5859584, "tags": {"amenity": "school", "name": "little angels academy", "place:district": "isiolo", "place:division": "east", "place:location": "kiwanja", "place:sub_location": "kiwanjani", "place:village": "kiwanjani", "school:operator": "private"}}, {"type": "node", "id": 3283812007, "lat": 0.4634362, "lon": 37.6091154, "tags": {"amenity": "school", "name": "lowangila primary", "place:district": "isiolo", "place:division": "east", "place:location": "ngaremara", "place:sub_location": "ngaremara", "place:village": "lowangila", "school:operator": "public"}}, {"type": "node", "id": 3283812011, "lat": 0.5279644, "lon": 37.6644832, "tags": {"amenity": "school", "name": "manyatta zebra primary", "place:constituency": "isiolo north", "place:county": "isiolo", "place:subcounty": "isiolo", "place:village": "manyatta zebra", "place:ward": "ngaremara", "project:description": "school funded by cdf", "project:fund_source": "cdf", "school:operator": "public"}}, {"type": "node", "id": 3283812012, "lat": 0.3504214, "lon": 37.584842, "tags": {"amenity": "school", "name": "mck highway primary", "place:district": "isiolo", "place:division": "central", "place:location": "central", "place:sub_location": "central", "place:village": "town", "school:operator": "private"}}, {"type": "node", "id": 3283812013, "lat": 0.32299, "lon": 37.5799715, "tags": {"amenity": "school", "contact:mobile": "0727570554", "contact:postal": "box 39-60300 isiolo", "name": "milimani high school", "place:district": "isiolo", "place:division": "east", "place:location": "mwangaza", "place:sub_location": "mwangaza", "place:village": "mwangaza", "school:operator": "private"}}, {"type": "node", "id": 3283812014, "lat": 0.5565796, "lon": 37.5151252, "tags": {"amenity": "school", "contact:postal": "box 125 isiolo", "name": "mugurnanyore primary", "place:district": "isiolo", "place:division": "west", "place:location": "burat", "place:sub_location": "burat", "place:village": "lomko", "school:operator": "public"}}, {"type": "node", "id": 3283812018, "lat": 0.3751336, "lon": 37.5877719, "tags": {"amenity": "school", "name": "new life mc primary school", "place:district": "isiolo", "place:division": "central", "place:location": "kambi garba", "place:sub_location": "kambi garba", "place:village": "kambi garba", "school:operator": "private"}}, {"type": "node", "id": 3283812020, "lat": 0.5070485, "lon": 37.6477906, "tags": {"amenity": "school", "contact:postal": "box 465 isiolo", "name": "ngaremara primary", "place:district": "isiolo", "place:division": "east", "place:location": "ngaremara", "place:sub_location": "ngaremara", "place:village": "ngaremara", "project:fund_source": "ngo-danida", "project:number": "1", "school:operator": "public", "school:project_quality": "good", "school:project_status": "complete", "school:project_type": "toilets"}}, {"type": "node", "id": 3283812028, "lat": 0.3399119, "lon": 37.5737333, "tags": {"amenity": "school", "name": "pepo la tumaini primary", "place:district": "isiolo", "place:division": "central", "place:location": "bula pesa", "place:sub_location": "bula pesa", "place:village": "bula pesa", "school:operator": "public"}}, {"type": "node", "id": 3283812032, "lat": 0.3627289, "lon": 37.6024819, "tags": {"amenity": "school", "name": "ramadhan primary", "place:district": "isiolo", "place:division": "east", "place:location": "checheles", "place:sub_location": "checheles", "place:village": "checheles", "school:operator": "public"}}, {"type": "node", "id": 3283812033, "lat": 0.3273249, "lon": 37.5712456, "tags": {"addr:city": "Isiolo", "addr:street": "Isiolo-Marsabit Road", "amenity": "school", "name": "reach international school", "place:district": "isiolo", "place:division": "central", "place:location": "kambi ya juu", "place:sub_location": "kambi ya juu", "place:village": "kambi ya juu", "school:operator": "private"}}, {"type": "node", "id": 3283812034, "lat": 0.3334674, "lon": 37.5704985, "tags": {"amenity": "school", "contact:mobile": "064-52029", "contact:postal": "159", "name": "sacred of heart seminary secondary", "place:district": "isiolo", "place:division": "central", "place:location": "bula pesa", "place:sub_location": "bula pesa", "place:village": "kambi ya juu", "school:operator": "public"}}, {"type": "node", "id": 3283812035, "lat": 0.4224832, "lon": 37.6230896, "tags": {"amenity": "school", "name": "school of artillery", "place:district": "isiolo", "place:division": "east", "place:location": "ngaremara", "place:sub_location": "ngaremara", "place:village": "chumvi", "school:operator": "public"}}, {"type": "node", "id": 3283812036, "lat": 0.6038893, "lon": 37.6823194, "tags": {"amenity": "school", "governance:operator": "govt", "name": "school of combat", "place:district": "isiolo", "place:division": "east", "place:location": "ngaremara", "place:sub_location": "ngaremara", "place:village": "chokaa", "school:operator": "public"}}, {"type": "node", "id": 3283812039, "lat": 0.3808369, "lon": 37.573029, "tags": {"amenity": "school", "name": "shambani primary", "place:district": "isiolo", "place:division": "west", "place:location": "burat", "place:sub_location": "burat", "place:village": "shambani", "project:fund_source": "ngo", "project:number": "1", "school:operator": "public", "school:project_quality": "good", "school:project_status": "complete", "school:project_type": "borehole"}}, {"type": "node", "id": 3283812040, "lat": 0.3593546, "lon": 37.584569, "tags": {"amenity": "school", "name": "st.kizito primary", "place:district": "isiolo", "place:division": "east", "place:location": "tuluroba", "place:sub_location": "tuluroba", "place:village": "tuluroba", "project:fund_source": "ngo-danida", "project:number": "1", "school:operator": "public", "school:project_quality": "good", "school:project_status": "complete", "school:project_type": "toilets"}}, {"type": "node", "id": 3283812041, "lat": 0.3684432, "lon": 37.5945855, "tags": {"amenity": "school", "name": "st.marys of loreto primary", "place:district": "isiolo", "place:division": "east", "place:location": "checheles", "place:sub_location": "checheles", "place:village": "checheles", "project:fund_source": "ngo-catholic mission", "school:operator": "private"}}, {"type": "node", "id": 3283812044, "lat": 0.3560547, "lon": 37.573174, "tags": {"amenity": "school", "name": "uhuru polytechnic", "place:district": "isiolo", "place:division": "central", "place:location": "bula pesa", "place:sub_location": "bula pesa", "place:village": "lmd", "school:operator": "public"}}, {"type": "node", "id": 3283812045, "lat": 0.3572968, "lon": 37.5713642, "tags": {"amenity": "school", "name": "uhuru primary", "place:district": "isiolo", "place:division": "central", "place:location": "bula pesa", "place:sub_location": "bula pesa", "place:village": "lmd", "school:operator": "public"}}, {"type": "node", "id": 3283812050, "lat": 0.3349722, "lon": 37.574874, "tags": {"amenity": "school", "name": "waso secondary", "place:district": "isiolo", "place:division": "central", "place:location": "bula pesa", "place:sub_location": "bula pesa", "place:village": "waso", "school:operator": "public"}}, {"type": "node", "id": 4054171793, "lat": 0.6417143, "lon": 37.6526144}, {"type": "node", "id": 4054171794, "lat": 0.6408924, "lon": 37.6562897}, {"type": "node", "id": 4054171795, "lat": 0.6385669, "lon": 37.6560935}, {"type": "node", "id": 4054171796, "lat": 0.6388844, "lon": 37.6539687}, {"type": "node", "id": 4054171797, "lat": 0.6390665, "lon": 37.6519933}, {"type": "node", "id": 4054220368, "lat": 0.6457668, "lon": 37.6639391}, {"type": "node", "id": 4054220369, "lat": 0.646232, "lon": 37.6652239}, {"type": "node", "id": 4054220370, "lat": 0.6444636, "lon": 37.6655874}, {"type": "node", "id": 4054220371, "lat": 0.6443064, "lon": 37.664241}, {"type": "node", "id": 4054220380, "lat": 0.6422923, "lon": 37.669698}, {"type": "node", "id": 4054220381, "lat": 0.6421046, "lon": 37.6722783}, {"type": "node", "id": 4054220382, "lat": 0.6396371, "lon": 37.6721871}, {"type": "node", "id": 4054220383, "lat": 0.6398368, "lon": 37.6694928}, {"type": "node", "id": 6249159808, "lat": 0.3441097, "lon": 37.582625, "tags": {"addr:city": "Isiolo", "addr:street": "Isiolo-Marsabit Road", "amenity": "school", "name": "Isiolo Boys High School"}}, {"type": "node", "id": 6249159821, "lat": 0.3491083, "lon": 37.5844217, "tags": {"addr:city": "Isiolo", "addr:street": "Isiolo-Marsabit Road", "amenity": "school", "name": "Wabera Primary School"}}, {"type": "node", "id": 6249159857, "lat": 0.3592682, "lon": 37.6122755, "tags": {"addr:city": "Isiolo", "addr:street": "Isiolo-Mandera Road", "amenity": "school", "name": "Isiolo Barracks Primary School"}}, {"type": "node", "id": 6882011870, "lat": 0.3447754, "lon": 37.5853606, "tags": {"addr:city": "Isiolo", "amenity": "school", "name": "Isiolo Girls High School"}}, {"type": "node", "id": 9274974035, "lat": 0.3498733, "lon": 37.5944918}, {"type": "node", "id": 9274974036, "lat": 0.3484707, "lon": 37.5944552}, {"type": "node", "id": 9274974037, "lat": 0.3484463, "lon": 37.5956505}, {"type": "node", "id": 9274974038, "lat": 0.3484951, "lon": 37.5956911}, {"type": "node", "id": 9274974039, "lat": 0.3485032, "lon": 37.595748}, {"type": "node", "id": 9274974040, "lat": 0.3484545, "lon": 37.5958131}, {"type": "node", "id": 9274974041, "lat": 0.3483772, "lon": 37.5958863}, {"type": "node", "id": 9274974042, "lat": 0.3483488, "lon": 37.5960123}, {"type": "node", "id": 9274974043, "lat": 0.3482959, "lon": 37.5963009}, {"type": "node", "id": 9274974044, "lat": 0.348174, "lon": 37.5972848}, {"type": "node", "id": 9274974045, "lat": 0.3495603, "lon": 37.597358}, {"type": "way", "id": 403031012, "nodes": [4054171793, 4054171794, 4054171795, 4054171796, 4054171797, 4054171793], "tags": {"amenity": "school", "name": "Waso Boys Secondary"}}, {"type": "way", "id": 403037844, "nodes": [4054220368, 4054220369, 4054220370, 4054220371, 4054220368], "tags": {"amenity": "school", "name": "Girgir Primary"}}, {"type": "way", "id": 403037848, "nodes": [4054220380, 4054220381, 4054220382, 4054220383, 4054220380], "tags": {"amenity": "school", "name": "Archer's Muslim Primary"}}, {"type": "way", "id": 1005262819, "nodes": [9274974035, 9274974036, 9274974037, 9274974038, 9274974039, 9274974040, 9274974041, 9274974042, 9274974043, 9274974044, 9274974045, 9274974035], "tags": {"amenity": "school", "name": "Kiwanjani Primary School"}}]}