{"version": 0.6, "generator": "Overpass API 0.7.61.5 4133829e", "osm3s": {"timestamp_osm_base": "2024-03-05T11:24:46Z", "copyright": "The data included in this document is from www.openstreetmap.org. The data is made available under ODbL."}, "elements": [{"type": "node", "id": 2162648419, "lat": 6.6100441, "lon": 0.4690218}, {"type": "node", "id": 2319464976, "lat": 6.6200096, "lon": 0.4712475, "tags": {"amenity": "pharmacy", "dispensing": "no", "healthcare": "pharmacy", "name": "Ryt Pharmacy Ho"}}, {"type": "node", "id": 2582939946, "lat": 6.603142, "lon": 0.4833689}, {"type": "node", "id": 2582939949, "lat": 6.6027303, "lon": 0.486204}, {"type": "node", "id": 2582939951, "lat": 6.5992919, "lon": 0.4847878}, {"type": "node", "id": 2582939953, "lat": 6.5997448, "lon": 0.4828218}, {"type": "node", "id": 5739266521, "lat": 6.6157403, "lon": 0.4680192, "tags": {"addr:street": "Togbe Tawiah", "amenity": "pharmacy", "healthcare": "pharmacy", "name": "Gabriel k Adom", "phone": "+233208214140"}}, {"type": "node", "id": 6016629738, "lat": 6.5942676, "lon": 0.471896, "tags": {"amenity": "pharmacy", "name": "Yomefa Pharmacy"}}, {"type": "node", "id": 6549350138, "lat": 6.6169434, "lon": 0.4635366, "tags": {"addr:housenumber": "18", "amenity": "clinic", "name": "Foresight Medical Center"}}, {"type": "node", "id": 6549372324, "lat": 6.6102479, "lon": 0.4749558, "tags": {"amenity": "pharmacy", "healthcare": "pharmacy", "name": "Citi Pharmacy"}}, {"type": "node", "id": 6553299076, "lat": 6.6037836, "lon": 0.4832234, "tags": {"amenity": "pharmacy", "healthcare": "pharmacy", "name": "Trafalgar Gate Pharmacy", "opening_hours": "24/7", "phone": "+233 208506844"}}, {"type": "node", "id": 6554697749, "lat": 6.6314864, "lon": 0.4773244}, {"type": "node", "id": 6561361846, "lat": 6.6022801, "lon": 0.463824, "tags": {"amenity": "pharmacy", "name": "Lena Pharmacy"}}, {"type": "node", "id": 6581869697, "lat": 6.5984126, "lon": 0.4647933}, {"type": "node", "id": 6581869698, "lat": 6.5985564, "lon": 0.4650641}, {"type": "node", "id": 6581869699, "lat": 6.5982688, "lon": 0.4652369}, {"type": "node", "id": 6581869700, "lat": 6.5981064, "lon": 0.4650127}, {"type": "node", "id": 6581869944, "lat": 6.6097876, "lon": 0.4674306}, {"type": "node", "id": 6581869945, "lat": 6.6095126, "lon": 0.4693423}, {"type": "node", "id": 6581869946, "lat": 6.6108474, "lon": 0.4689655}, {"type": "node", "id": 6581869947, "lat": 6.6098836, "lon": 0.4674185}, {"type": "node", "id": 7368538528, "lat": 6.6312986, "lon": 0.4771454}, {"type": "node", "id": 7368538529, "lat": 6.6308669, "lon": 0.4775675}, {"type": "node", "id": 7368538530, "lat": 6.6311087, "lon": 0.4777868}, {"type": "node", "id": 7574692591, "lat": 6.5178085, "lon": 0.4976908, "tags": {"amenity": "hospital"}}, {"type": "node", "id": 7574692594, "lat": 6.6068841, "lon": 0.4726636, "tags": {"amenity": "pharmacy", "healthcare": "pharmacy", "name": "Deladem Pharmacy"}}, {"type": "node", "id": 7574692595, "lat": 6.6042279, "lon": 0.4752645, "tags": {"amenity": "pharmacy", "healthcare": "pharmacy"}}, {"type": "node", "id": 8201473920, "lat": 6.5465359, "lon": 0.6953913, "tags": {"amenity": "pharmacy"}}, {"type": "node", "id": 8201474520, "lat": 6.5527816, "lon": 0.6581066, "tags": {"amenity": "clinic"}}, {"type": "node", "id": 8202129317, "lat": 6.5837947, "lon": 0.457606, "tags": {"addr:street": "SSNIT Road voradep Road", "amenity": "clinic", "healthcare": "clinic", "name": "HOPE Health Center"}}, {"type": "node", "id": 8542710917, "lat": 6.584648, "lon": 0.4623838, "tags": {"amenity": "pharmacy", "healthcare": "pharmacy", "name": "Stramark Pharmacy"}}, {"type": "node", "id": 8564403659, "lat": 6.695584, "lon": 0.5214396, "tags": {"amenity": "clinic", "healthcare": "yes", "name": "Tanyigbe CHPS Compound", "operator": "Ghana Health Service", "operator:wikidata": "Q5555350"}}, {"type": "node", "id": 8960809477, "lat": 6.4899944, "lon": 0.5044587, "tags": {"amenity": "health_post", "healthcare": "yes", "name": "Kodiabe Chps Compound"}}, {"type": "node", "id": 8960832179, "lat": 6.4264214, "lon": 0.5145353, "tags": {"amenity": "health_post", "healthcare": "yes", "name": "Kpetsu Chps Compound"}}, {"type": "node", "id": 8960871219, "lat": 6.4977621, "lon": 0.5132416, "tags": {"amenity": "health_post", "healthcare": "yes", "name": "Nurifafa Health Centre"}}, {"type": "node", "id": 8960872725, "lat": 6.489972, "lon": 0.4875221, "tags": {"amenity": "health_post", "healthcare": "yes", "name": "Hasu Community Polyclinic"}}, {"type": "node", "id": 8960874552, "lat": 6.5154303, "lon": 0.4978602, "tags": {"amenity": "health_post", "healthcare": "yes", "name": "Tsrefe Chps Compound"}}, {"type": "node", "id": 8969014586, "lat": 6.30689, "lon": 0.6466089, "tags": {"amenity": "health_post", "healthcare": "yes", "name": "Mafi Gidikpoe Chps"}}, {"type": "node", "id": 9257885177, "lat": 6.628161, "lon": 0.4756567, "tags": {"addr:city": "Ho", "addr:street": "Asorgli Street", "amenity": "pharmacy", "contact:email": "xornam360pharmacy@gmail.com", "contact:phone": "+233 55 229 5210", "dispensing": "yes", "healthcare": "pharmacy", "level": "1", "name": "Xornam 360 Pharmacy LTD", "opening_hours": "Mo-Sa 08:00-22:00; Su 09:00-21:00", "operator": "Xornam 360 Pharmacy", "payment:electronic_purses": "no", "payment:notes": "yes", "wheelchair": "designated"}}, {"type": "node", "id": 10560036367, "lat": 6.6256336, "lon": 0.4848699, "tags": {"amenity": "pharmacy", "dispensing": "yes", "healthcare": "pharmacy", "level": "0", "name": "Jodael Pharmacy", "wheelchair": "yes"}}, {"type": "node", "id": 10564939822, "lat": 6.6603381, "lon": 0.650374, "tags": {"amenity": "hospital", "name": "Dispensaire de Nyitoe"}}, {"type": "node", "id": 10567694868, "lat": 6.6579332, "lon": 0.6629, "tags": {"amenity": "hospital", "name": "USP Nyitoe"}}, {"type": "node", "id": 10769332809, "lat": 6.6005348, "lon": 0.4849957}, {"type": "node", "id": 10769332810, "lat": 6.6004123, "lon": 0.4858097}, {"type": "node", "id": 10788099749, "lat": 6.608747, "lon": 0.4680915}, {"type": "node", "id": 10858147085, "lat": 6.6291953, "lon": 0.4823899}, {"type": "node", "id": 10858147086, "lat": 6.6291487, "lon": 0.482343}, {"type": "node", "id": 10858147087, "lat": 6.629122, "lon": 0.4823443}, {"type": "node", "id": 10858147088, "lat": 6.6289808, "lon": 0.4824194}, {"type": "node", "id": 10858147089, "lat": 6.6287996, "lon": 0.4821646}, {"type": "node", "id": 10858147090, "lat": 6.6290154, "lon": 0.4819876}, {"type": "node", "id": 10858147091, "lat": 6.6293072, "lon": 0.4823095}, {"type": "node", "id": 10935359280, "lat": 6.6109979, "lon": 0.4708175, "tags": {"amenity": "pharmacy", "healthcare": "pharmacy"}}, {"type": "node", "id": 10935406186, "lat": 6.6012129, "lon": 0.4963294, "tags": {"amenity": "pharmacy", "name": "First Family Pharmacy", "opening_hours": "Mo-Sa 06:00-22:00; Su 07:00-22:00"}}, {"type": "node", "id": 11246707167, "lat": 6.5959653, "lon": 0.5180955, "tags": {"addr:region": "Volta", "amenity": "hospital", "name": "Fountain Medical Services"}}, {"type": "way", "id": 252198855, "nodes": [2582939946, 2582939949, 10769332810, 10769332809, 2582939951, 2582939953, 2582939946], "tags": {"addr:street": "Denu - Ho Road", "alt_name": "Trafalgar", "amenity": "hospital", "emergency": "yes", "healthcare": "hospital", "name": "Ho Teaching Hospital", "old_name": "Volta Regional Hospital", "wheelchair": "limited", "wikidata": "Q7309069", "wikipedia": "en:Ho Teaching Hospital"}}, {"type": "way", "id": 700860025, "nodes": [6581869697, 6581869698, 6581869699, 6581869700, 6581869697], "tags": {"amenity": "hospital", "healthcare": "hospital"}}, {"type": "way", "id": 700860068, "nodes": [10788099749, 6581869945, 2162648419, 6581869946, 6581869947, 6581869944, 10788099749], "tags": {"amenity": "hospital", "healthcare": "hospital", "name": "Ho Municipal Hospital", "wheelchair": "limited"}}, {"type": "way", "id": 788120792, "nodes": [6554697749, 7368538528, 7368538529, 7368538530, 6554697749], "tags": {"amenity": "hospital", "healthcare": "hospital", "name": "Ho Royal Hospital"}}, {"type": "way", "id": 1167556952, "nodes": [10858147091, 10858147090, 10858147089, 10858147088, 10858147087, 10858147086, 10858147085, 10858147091], "tags": {"addr:street": "Hofedo Steet", "amenity": "hospital", "emergency": "yes", "healthcare": "hospital", "name": "Emmanuel Med Hospital"}}]}