{"version": 0.6, "generator": "Overpass API 0.7.61.5 4133829e", "osm3s": {"timestamp_osm_base": "2024-03-05T13:37:45Z", "copyright": "The data included in this document is from www.openstreetmap.org. The data is made available under ODbL."}, "elements": [{"type": "node", "id": 4376976383, "lat": 33.339121, "lon": 65.5087015, "tags": {"name": "\u06af\u0631\u062f\u06a9", "name:en": "Gardak", "name:ps": "\u06af\u0631\u062f\u06a9", "place": "village", "source:name": "GNS"}}, {"type": "node", "id": 4376976385, "lat": 33.329193, "lon": 65.493997, "tags": {"alt_name": "Gerdak;Gordak;\u0413\u0443\u0440\u0434\u0430\u043a;\u06af\u0648\u0631\u062f\u0643", "name": "\u06af\u0631\u062f\u06a9", "name:en": "Gurdak", "name:ps": "\u06af\u0631\u062f\u06a9", "place": "village", "source:name": "GNS"}}, {"type": "node", "id": 4376976386, "lat": 33.351693, "lon": 65.508505, "tags": {"name": "\u0632\u0631\u0633\u0646\u06af", "name:en": "Zarsang", "name:ps": "\u0632\u0631\u0633\u0646\u06af", "place": "village", "source:name": "GNS"}}, {"type": "node", "id": 4380849847, "lat": 33.649913, "lon": 65.512288, "tags": {"name": "\u062f\u0647\u0627\u0646 \u0646\u0648\u0644\u0648\u0631", "name:en": "Dahane Nulur;Dahan-e Nulur", "name:ps": "\u062f\u0647\u0627\u0646 \u0646\u0648\u0644\u0648\u0631", "place": "village", "source:name": "GNS"}}, {"type": "node", "id": 4380849848, "lat": 33.3933194, "lon": 65.7577211, "tags": {"alt_name": "Day Malik", "name": "\u062f\u06cc \u0645\u0644\u06a9", "name:en": "Daymalek", "name:ps": "\u062f\u06cc \u0645\u0644\u06a9", "place": "village", "source:name": "GNS"}}, {"type": "node", "id": 4380849849, "lat": 33.4435633, "lon": 65.6911851, "tags": {"alt_name": "Gharinj", "name": "\u063a\u0631\u0646\u062c", "name:en": "Gharenj", "name:ps": "\u063a\u0631\u0646\u062c", "place": "village", "source:name": "GNS"}}, {"type": "node", "id": 4380849850, "lat": 33.476531, "lon": 65.698175, "tags": {"alt_name": "Hezar Derakht;Hazar Darakht", "name": "\u0647\u0632\u0627\u0631 \u062f\u0631\u062e\u062a", "name:en": "Hazardarakht", "name:ps": "\u0647\u0632\u0627\u0631 \u062f\u0631\u062e\u062a", "place": "village", "source:name": "GNS"}}, {"type": "node", "id": 4380849851, "lat": 33.657366, "lon": 65.531198, "tags": {"name": "\u0645\u06cc\u062f\u0627\u0646 \u0645\u0627\u0644", "name:en": "Meydan-e Mal;Maidan-e Mal", "name:ps": "\u0645\u06cc\u062f\u0627\u0646 \u0645\u0627\u0644", "place": "village", "source:name": "GNS"}}, {"type": "node", "id": 4380849852, "lat": 33.5127627, "lon": 65.6839122, "tags": {"alt_name": "Pinman", "name": "\u067e\u0646\u0645\u0627\u0646", "name:en": "Penman", "name:ps": "\u067e\u0646\u0645\u0627\u0646", "place": "village", "source:name": "GNS"}}, {"type": "node", "id": 4380849853, "lat": 33.699129, "lon": 65.451035, "tags": {"name": "\u0631\u0648\u0641", "name:en": "Ruf", "name:ps": "\u0631\u0648\u0641", "place": "village", "source:name": "GNS"}}, {"type": "node", "id": 4380849854, "lat": 33.513581, "lon": 65.6770008, "tags": {"alt_name": "Sar Teghan", "name": "\u0633\u0631 \u062a\u06cc\u063a\u0627\u0646", "name:en": "Sar-e Tayghan", "name:ps": "\u0633\u0631 \u062a\u06cc\u063a\u0627\u0646", "place": "village", "source:name": "GNS"}}, {"type": "node", "id": 4380849855, "lat": 33.483875, "lon": 65.694757, "tags": {"name": "\u062a\u0627\u062c\u0631\u06cc\u0628", "name:en": "Tajarib", "name:ps": "\u062a\u0627\u062c\u0631\u06cc\u0628", "place": "village", "source:name": "GNS"}}, {"type": "node", "id": 4380937437, "lat": 33.6398168, "lon": 65.7012799, "tags": {"alt_name": "Karwansaraye Pa'in;Karwan Saray-e Pa'in", "name": "\u06a9\u0627\u0631\u0648\u0627\u0646 \u0633\u0631\u0627\u06cc \u067e\u0627\u0626\u06cc\u0646", "name:en": "Karvansara-ye Pa'in", "name:ps": "\u06a9\u0627\u0631\u0648\u0627\u0646 \u0633\u0631\u0627\u06cc \u067e\u0627\u0626\u06cc\u0646", "place": "village", "source:name": "GNS"}}, {"type": "node", "id": 4380937438, "lat": 33.5420674, "lon": 65.6600519, "tags": {"name": "\u0645\u0632\u0648\u0631\u0645\u06cc", "name:en": "Muzurmay", "name:ps": "\u0645\u0632\u0648\u0631\u0645\u06cc", "place": "village", "source:name": "GNS"}}, {"type": "node", "id": 4380937439, "lat": 33.5853804, "lon": 65.6524268, "tags": {"alt_name": "Sahtut", "name": "\u0634\u0627\u0647\u062a\u0648\u062a", "name:en": "Shahtut", "name:ps": "\u0634\u0627\u0647\u062a\u0648\u062a", "place": "village", "source:name": "GNS"}}, {"type": "node", "id": 6042648078, "lat": 33.6820552, "lon": 65.5511154}, {"type": "node", "id": 6042648079, "lat": 33.6823661, "lon": 65.551056}, {"type": "node", "id": 6042648080, "lat": 33.6825568, "lon": 65.5514381}, {"type": "node", "id": 6042648081, "lat": 33.6828324, "lon": 65.5527712}, {"type": "node", "id": 6042648082, "lat": 33.6828465, "lon": 65.5531193}, {"type": "node", "id": 6042648083, "lat": 33.6819916, "lon": 65.5537901}, {"type": "node", "id": 6042648084, "lat": 33.6817655, "lon": 65.5535184}, {"type": "node", "id": 7801417432, "lat": 33.7132891, "lon": 65.3739195, "tags": {"place": "hamlet"}}, {"type": "node", "id": 7801417449, "lat": 33.7133851, "lon": 65.331888, "tags": {"place": "hamlet"}}, {"type": "node", "id": 7801417477, "lat": 33.7186372, "lon": 65.3244833, "tags": {"place": "hamlet"}}, {"type": "node", "id": 7801423089, "lat": 33.7181057, "lon": 65.3215138, "tags": {"place": "hamlet"}}, {"type": "node", "id": 7801423130, "lat": 33.7107876, "lon": 65.3166338, "tags": {"place": "hamlet"}}, {"type": "node", "id": 7801423152, "lat": 33.6847401, "lon": 65.3255551, "tags": {"place": "hamlet"}}, {"type": "node", "id": 7801423169, "lat": 33.676394, "lon": 65.3248158, "tags": {"place": "hamlet"}}, {"type": "node", "id": 7801423213, "lat": 33.6736319, "lon": 65.3674243, "tags": {"place": "hamlet"}}, {"type": "node", "id": 7801423220, "lat": 33.6722355, "lon": 65.372077, "tags": {"place": "hamlet"}}, {"type": "node", "id": 7801423248, "lat": 33.674328, "lon": 65.3796993, "tags": {"place": "hamlet"}}, {"type": "node", "id": 7801423268, "lat": 33.6746589, "lon": 65.3838877, "tags": {"place": "hamlet"}}, {"type": "node", "id": 7801423294, "lat": 33.673721, "lon": 65.3887629, "tags": {"place": "hamlet"}}, {"type": "node", "id": 7801423301, "lat": 33.6721854, "lon": 65.3817812, "tags": {"place": "hamlet"}}, {"type": "node", "id": 7802533225, "lat": 33.4472208, "lon": 65.6923896, "tags": {"place": "hamlet"}}, {"type": "node", "id": 8285445538, "lat": 33.5617489, "lon": 65.6496968, "tags": {"place": "hamlet"}}, {"type": "node", "id": 8839325314, "lat": 33.6389389, "lon": 65.7462109, "tags": {"place": "hamlet"}}, {"type": "node", "id": 8942896563, "lat": 33.5406209, "lon": 65.631665, "tags": {"place": "hamlet"}}, {"type": "way", "id": 641684911, "nodes": [6042648078, 6042648079, 6042648080, 6042648081, 6042648082, 6042648083, 6042648084, 6042648078], "tags": {"place": "hamlet"}}]}