{"version": 0.6, "generator": "Overpass API 0.7.61.5 4133829e", "osm3s": {"timestamp_osm_base": "2024-03-05T15:10:59Z", "copyright": "The data included in this document is from www.openstreetmap.org. The data is made available under ODbL."}, "elements": [{"type": "node", "id": 32575797, "lat": 62.1634325, "lon": 11.9446075, "tags": {"loc_name:sma": "Svahke", "name": "Elg\u00e5", "name:no": "Elg\u00e5", "place": "village", "ssr:stedsnr": "814189"}}, {"type": "node", "id": 297814673, "lat": 62.4334013, "lon": 11.852038, "tags": {"name": "Langen", "place": "hamlet"}}, {"type": "node", "id": 320975490, "lat": 62.3035017, "lon": 11.7176935, "tags": {"name": "Tufsingdal", "place": "hamlet"}}, {"type": "node", "id": 1296155086, "lat": 62.3118305, "lon": 11.9150555, "tags": {"name": "Femundshytta", "place": "hamlet", "ssr:stedsnr": "72546"}}, {"type": "node", "id": 7416293229, "lat": 62.1563056, "lon": 11.9041123, "tags": {"name": "Elvodden", "place": "hamlet"}}, {"type": "node", "id": 10109016276, "lat": 62.158928, "lon": 11.6141707, "tags": {"name": "Langsj\u00f8vollen", "place": "hamlet", "ssr:stedsnr": "739366"}}, {"type": "node", "id": 10119103386, "lat": 62.3099759, "lon": 11.7209788, "tags": {"name": "Bakken", "place": "hamlet", "ssr:stedsnr": "679529"}}, {"type": "node", "id": 10119103445, "lat": 62.225601, "lon": 11.795718, "tags": {"name": "Straumen", "place": "hamlet", "ssr:stedsnr": "496338"}}, {"type": "node", "id": 10119103508, "lat": 62.3039193, "lon": 11.7245619, "tags": {"name": "Moen", "place": "hamlet", "ssr:stedsnr": "436574"}}, {"type": "node", "id": 10119103517, "lat": 62.3201528, "lon": 11.7316889, "tags": {"name": "\u00d8ya", "place": "hamlet", "ssr:stedsnr": "922534"}}, {"type": "node", "id": 10119103570, "lat": 62.2465709, "lon": 11.7609399, "tags": {"alt_name": "S\u00f8ndre S\u00e6ter", "name": "S\u00e6ter", "place": "hamlet", "ssr:stedsnr": "193327"}}, {"type": "node", "id": 10123841296, "lat": 62.13055, "lon": 11.6386277, "tags": {"name": "Langsj\u00f8en", "place": "hamlet", "ssr:stedsnr": "254360"}}, {"type": "node", "id": 10123849905, "lat": 62.1274957, "lon": 11.7096036, "tags": {"name": "Buvika", "place": "hamlet", "ssr:stedsnr": "800381"}}, {"type": "node", "id": 10123849950, "lat": 62.2320305, "lon": 11.8735431, "tags": {"name": "Jonasvollen", "place": "hamlet", "ssr:stedsnr": "678341"}}, {"type": "node", "id": 10140169224, "lat": 62.4091863, "lon": 11.9221288, "tags": {"name": "Neset", "place": "hamlet", "ssr:stedsnr": "831484"}}]}