{"version": 0.6, "generator": "Overpass API 0.7.61.5 4133829e", "osm3s": {"timestamp_osm_base": "2024-03-05T15:06:00Z", "copyright": "The data included in this document is from www.openstreetmap.org. The data is made available under ODbL."}, "elements": [{"type": "node", "id": 25869336, "lat": 60.0320521, "lon": 13.7002392, "tags": {"name": "Hagfors", "name:ru": "\u0425\u0430\u0433\u0444\u043e\u0440\u0441", "name:sv": "Hagfors", "place": "town", "population": "4896", "population:date": "2018-03-28", "population:source": "SCB", "ref:se:pts:postort": "HAGFORS", "ref:se:scb": "5688"}}, {"type": "node", "id": 27150719, "lat": 60.0405628, "lon": 13.5004113, "tags": {"name": "S\u00f6dra Skoga", "place": "hamlet"}}, {"type": "node", "id": 27150721, "lat": 60.0669147, "lon": 13.4812403, "tags": {"name": "Norra Skoga", "place": "hamlet"}}, {"type": "node", "id": 27150722, "lat": 59.9699683, "lon": 13.4888212, "tags": {"name": "S\u00f6rby", "place": "hamlet"}}, {"type": "node", "id": 29530761, "lat": 60.0658107, "lon": 13.5471431, "tags": {"name": "Gunnerud", "name:de": "Flo\u00dfpunkt", "place": "hamlet"}}, {"type": "node", "id": 29530762, "lat": 60.0643919, "lon": 13.5655227, "tags": {"name": "Edeb\u00e4ck", "place": "village", "population": "214", "population:date": "2005-12-31"}}, {"type": "node", "id": 29530763, "lat": 60.1118421, "lon": 13.5674421, "tags": {"name": "Bergs\u00e4ng", "place": "village", "population": "193", "population:date": "2018-03-28", "population:source": "SCB"}}, {"type": "node", "id": 29530764, "lat": 60.1696444, "lon": 13.5058575, "tags": {"name": "Eksh\u00e4rad", "place": "village", "population": "978", "population:date": "2018-03-28", "population:source": "SCB", "ref:se:pts:postort": "EKSH\u00c4RAD", "ref:se:scb": "5724", "wikidata": "Q2651809", "wikipedia": "sv:Eksh\u00e4rad"}}, {"type": "node", "id": 29530772, "lat": 60.0677337, "lon": 13.7299453, "tags": {"is_in:commune": "Hagfors kommun, V\u00e4rmland, V\u00e4rmlands l\u00e4n, Sweden", "name": "Geijersholm", "place": "village", "population": "243", "population:date": "2005-12-31", "ref:se:scb": "5668"}}, {"type": "node", "id": 29530773, "lat": 60.1550182, "lon": 13.8054979, "tags": {"name": "Gustavsfors", "place": "village"}}, {"type": "node", "id": 29530931, "lat": 60.0247668, "lon": 13.6190078, "tags": {"name": "Uddeholm", "place": "village", "population": "601", "population:date": "2018-03-28", "population:source": "SCB", "ref:se:pts:postort": "UDDEHOLM", "ref:se:scb": "5852"}}, {"type": "node", "id": 29530932, "lat": 60.0350029, "lon": 13.6299326, "tags": {"name": "Stj\u00e4rnsfors", "place": "village"}}, {"type": "node", "id": 29530933, "lat": 60.115035, "lon": 13.4953952, "tags": {"name": "Basterud", "place": "hamlet"}}, {"type": "node", "id": 29530934, "lat": 60.1497322, "lon": 13.4426152, "tags": {"name": "R\u00e5da V\u00e4stanberg", "place": "hamlet"}}, {"type": "node", "id": 29530935, "lat": 60.1713949, "lon": 13.4100572, "tags": {"created_by": "JOSM", "name": "Solberg", "place": "hamlet"}}, {"type": "node", "id": 29531038, "lat": 60.1420903, "lon": 13.1209758, "tags": {"name": "Rinn", "place": "hamlet"}}, {"type": "node", "id": 29531039, "lat": 60.1357057, "lon": 13.036516, "tags": {"name": "Oleby", "place": "village", "population": "359", "population:date": "2018-03-28", "population:source": "SCB", "ref:se:scb": "5780", "wikidata": "Q3352821"}}, {"type": "node", "id": 29531040, "lat": 60.0152729, "lon": 13.132996, "tags": {"name": "Lysvik", "place": "village", "population": "355", "population:date": "2018-03-28", "population:source": "SCB", "ref:se:pts:postort": "LYSVIK", "ref:se:scb": "5744"}}, {"type": "node", "id": 29531082, "lat": 59.980902, "lon": 13.4261938, "tags": {"name": "\u00c5leby", "place": "hamlet"}}, {"type": "node", "id": 29531370, "lat": 59.9893486, "lon": 13.2166998, "tags": {"name": "Mallbacken", "place": "hamlet"}}, {"type": "node", "id": 29563072, "lat": 60.1787972, "lon": 13.5229795, "tags": {"name": "Byn", "place": "hamlet"}}, {"type": "node", "id": 30674249, "lat": 60.0053678, "lon": 13.5973937, "tags": {"name": "R\u00e5da", "place": "village", "population": "452", "population:date": "2018-03-28", "population:source": "SCB", "ref:se:pts:postort": "R\u00c5DA", "ref:se:scb": "5792", "wikidata": "Q2195018", "wikipedia": "sv:R\u00e5da, Hagfors kommun"}}, {"type": "node", "id": 31416698, "lat": 59.9809091, "lon": 13.4907395, "tags": {"name": "Lakene", "place": "hamlet", "ref:se:pts:postort": "LAKENE"}}, {"type": "node", "id": 429236925, "lat": 59.9733568, "lon": 13.6546426, "tags": {"name": "Lakheden", "place": "hamlet"}}, {"type": "node", "id": 430095303, "lat": 60.2873768, "lon": 13.7830444, "tags": {"name": "Uvan\u00e5", "place": "hamlet", "wikidata": "Q10711632", "wikipedia": "sv:Uvan\u00e5"}}, {"type": "node", "id": 430539468, "lat": 60.0657875, "lon": 13.6460737, "tags": {"name": "Sk\u00e5lviken", "place": "village"}}, {"type": "node", "id": 611303742, "lat": 60.0691057, "lon": 13.8632367, "tags": {"name": "Gustav Adolf", "place": "hamlet"}}, {"type": "node", "id": 611304001, "lat": 60.291946, "lon": 13.868987, "tags": {"name": "Tyngsj\u00f6", "place": "hamlet", "wikidata": "Q10707223"}}, {"type": "node", "id": 611304002, "lat": 60.3726792, "lon": 13.8726435, "tags": {"name": "Andersviksberg", "place": "hamlet"}}, {"type": "node", "id": 774095253, "lat": 60.0366715, "lon": 13.2406624, "tags": {"name": "Ransbys\u00e4tter", "place": "hamlet"}}, {"type": "node", "id": 774095281, "lat": 59.9943834, "lon": 13.2905087, "tags": {"name": "L\u00f6vstaholm", "place": "hamlet"}}, {"type": "node", "id": 875893937, "lat": 60.1444319, "lon": 13.4270055, "tags": {"name": "F\u00f6skefors", "place": "hamlet"}}, {"type": "node", "id": 1185628040, "lat": 60.3381088, "lon": 13.7526256, "tags": {"name": "Avradstj\u00e4rn", "place": "hamlet"}}, {"type": "node", "id": 1185628042, "lat": 60.3629996, "lon": 13.7417868, "tags": {"name": "Barktorp", "place": "hamlet"}}, {"type": "node", "id": 1185628044, "lat": 60.3138851, "lon": 13.7675547, "tags": {"name": "Baggfall", "place": "hamlet"}}, {"type": "node", "id": 1370573626, "lat": 60.1128945, "lon": 13.446256, "tags": {"name": "Hole", "place": "hamlet"}}, {"type": "node", "id": 1542944068, "lat": 60.05817, "lon": 13.6448, "tags": {"name": "Fridhem", "place": "hamlet"}}, {"type": "node", "id": 1705622273, "lat": 60.1740043, "lon": 13.0308791, "tags": {"name": "Utterbyn", "place": "hamlet", "population": "150", "website": "https://www.utterbyn.se/", "wikidata": "Q10711589"}}, {"type": "node", "id": 2378318677, "lat": 59.9673029, "lon": 13.566504, "tags": {"name": "Myra", "place": "village"}}, {"type": "node", "id": 2385193144, "lat": 60.0490206, "lon": 13.5930104, "tags": {"name": "Tj\u00e4rntorp", "place": "hamlet"}}, {"type": "node", "id": 2531629735, "lat": 60.3049224, "lon": 13.7124547, "tags": {"name": "L\u00f6vsj\u00f6\u00e5sen", "place": "hamlet"}}, {"type": "node", "id": 2717392316, "lat": 60.3072665, "lon": 13.3687251, "tags": {"name": "Ennarbol", "place": "hamlet"}}, {"type": "node", "id": 2717392317, "lat": 60.2869069, "lon": 13.3952194, "tags": {"name": "Fastn\u00e4s", "place": "hamlet"}}, {"type": "node", "id": 2717392319, "lat": 60.3542755, "lon": 13.3277923, "tags": {"name": "Gravol", "place": "hamlet"}}, {"type": "node", "id": 2717392320, "lat": 60.2103233, "lon": 13.4897403, "tags": {"name": "Hara", "place": "hamlet"}}, {"type": "node", "id": 2717392321, "lat": 60.2341983, "lon": 13.4688523, "tags": {"name": "V\u00e4stra T\u00f6nnet", "place": "hamlet"}}, {"type": "node", "id": 2717420685, "lat": 60.0782381, "lon": 13.5548509, "tags": {"name": "Berga", "place": "hamlet"}}, {"type": "node", "id": 3010344120, "lat": 60.066788, "lon": 13.5861362, "tags": {"name": "L\u00e4mm\u00e5s", "place": "hamlet"}}, {"type": "node", "id": 3841980590, "lat": 60.2416802, "lon": 13.4628475, "tags": {"name": "Hornn\u00e4s", "place": "hamlet"}}, {"type": "node", "id": 3993621582, "lat": 60.1602203, "lon": 13.4517623, "tags": {"name": "V\u00e5le", "old_name": "W\u00e4hle", "place": "hamlet"}}, {"type": "node", "id": 3995009119, "lat": 60.1899591, "lon": 13.5056067, "tags": {"name": "N\u00e4s", "place": "hamlet"}}, {"type": "node", "id": 3995080997, "lat": 60.0808694, "lon": 13.5683051, "tags": {"name": "N\u00e4storp", "place": "hamlet"}}, {"type": "node", "id": 3995500880, "lat": 60.1541515, "lon": 13.4742798, "tags": {"name": "S\u00f6dra Mossberg", "place": "hamlet"}}, {"type": "node", "id": 3995500881, "lat": 60.1752379, "lon": 13.4031645, "tags": {"name": "Solberg", "place": "hamlet"}}, {"type": "node", "id": 3995500882, "lat": 60.2263688, "lon": 13.4946919, "tags": {"name": "\u00d6stra T\u00f6nnet", "place": "hamlet"}}, {"type": "node", "id": 4029937719, "lat": 59.9638798, "lon": 13.3214691, "tags": {"name": "Arnstorp", "place": "hamlet"}}, {"type": "node", "id": 4049987098, "lat": 59.9831486, "lon": 13.5051403, "tags": {"name": "V\u00e4stra Hedetorp", "place": "hamlet"}}, {"type": "node", "id": 4509754759, "lat": 60.034321, "lon": 13.6743959, "tags": {"name": "Bankenberg", "place": "hamlet"}}, {"type": "node", "id": 4934076376, "lat": 60.1909081, "lon": 13.1011962, "tags": {"name": "Utterbys\u00e4ter", "place": "hamlet"}}, {"type": "node", "id": 5303088196, "lat": 60.0839017, "lon": 13.4979004, "tags": {"name": "Rotviken", "place": "hamlet"}}, {"type": "node", "id": 6016349740, "lat": 60.0506266, "lon": 13.5093392, "tags": {"name": "Hejserud", "place": "hamlet"}}, {"type": "node", "id": 6164071661, "lat": 60.1190864, "lon": 13.422194, "tags": {"name": "Fall", "place": "hamlet"}}, {"type": "node", "id": 6164205506, "lat": 60.136014, "lon": 13.456167, "tags": {"name": "Hamra", "place": "hamlet"}}, {"type": "node", "id": 6164205508, "lat": 60.1293559, "lon": 13.4622089, "tags": {"name": "K\u00e4rren", "place": "hamlet"}}, {"type": "node", "id": 6166297884, "lat": 60.1334445, "lon": 13.4272639, "tags": {"name": "Stensby", "place": "hamlet"}}, {"type": "node", "id": 6166298601, "lat": 60.1137076, "lon": 13.4411102, "tags": {"name": "Myr\u00e5s", "place": "hamlet"}}, {"type": "node", "id": 6186241025, "lat": 60.1543858, "lon": 13.04811, "tags": {"name": "K\u00e4lkerud", "place": "hamlet"}}, {"type": "node", "id": 6186241027, "lat": 60.1335771, "lon": 13.0506849, "tags": {"name": "M\u00f6lnerud", "place": "hamlet"}}, {"type": "node", "id": 6186241028, "lat": 60.1245573, "lon": 13.041855, "tags": {"name": "Edet", "place": "hamlet"}}, {"type": "node", "id": 7147506874, "lat": 59.9525177, "lon": 13.158735, "tags": {"name": "B\u00e4cken", "place": "hamlet"}}, {"type": "node", "id": 7173167186, "lat": 59.9841444, "lon": 13.2294702, "tags": {"name": "K\u00e5rrudss\u00e4ter", "place": "hamlet"}}, {"type": "node", "id": 7173167187, "lat": 59.9809455, "lon": 13.2283223, "tags": {"name": "Solbergss\u00e4ter", "place": "hamlet"}}, {"type": "node", "id": 7221066046, "lat": 60.0185128, "lon": 13.1537032, "tags": {"name": "Myringbyn", "place": "hamlet"}}, {"type": "node", "id": 7235989640, "lat": 60.0331355, "lon": 13.1283134, "tags": {"name": "Br\u00e5ten", "place": "hamlet"}}, {"type": "node", "id": 7317536582, "lat": 60.0752843, "lon": 13.0948233, "tags": {"name": "V\u00e4nden", "place": "hamlet"}}, {"type": "node", "id": 7318166265, "lat": 60.1747685, "lon": 13.494875, "tags": {"name": "Kyrkheden", "place": "hamlet"}}, {"type": "node", "id": 7320706583, "lat": 60.0793437, "lon": 13.0753934, "tags": {"name": "\u00c4ngarna", "place": "hamlet"}}, {"type": "node", "id": 7320706701, "lat": 60.0863802, "lon": 13.1098223, "tags": {"name": "Hagberg", "place": "hamlet"}}, {"type": "node", "id": 7324275058, "lat": 60.1074353, "lon": 13.0590749, "tags": {"name": "Svennebytorp", "place": "hamlet"}}, {"type": "node", "id": 7337317835, "lat": 60.1218984, "lon": 13.1084865, "tags": {"name": "S\u00f6nnerudsheden", "place": "hamlet"}}, {"type": "node", "id": 7367611103, "lat": 60.1430965, "lon": 13.0568433, "tags": {"name": "\u00d6nneby", "place": "hamlet"}}, {"type": "node", "id": 7464444026, "lat": 60.2815147, "lon": 13.8109397, "tags": {"name": "Sundheden", "place": "hamlet"}}, {"type": "node", "id": 7464445813, "lat": 60.292719, "lon": 13.8642628, "tags": {"name": "V\u00e4sterfall", "place": "hamlet"}}, {"type": "node", "id": 7464445814, "lat": 60.3266405, "lon": 13.7690777, "tags": {"name": "Kvant\u00e5sen", "place": "hamlet"}}, {"type": "node", "id": 7464457024, "lat": 60.3344545, "lon": 13.8336038, "tags": {"name": "Acksj\u00f6\u00e5sen", "place": "hamlet"}}, {"type": "node", "id": 7464462286, "lat": 60.3273761, "lon": 13.8484974, "tags": {"name": "Acksj\u00f6fall", "place": "hamlet"}}, {"type": "node", "id": 7464462287, "lat": 60.3169233, "lon": 13.8630424, "tags": {"name": "Laxmossen", "place": "hamlet"}}, {"type": "node", "id": 7472168578, "lat": 59.9976751, "lon": 13.7469856, "tags": {"name": "V\u00e4stra Ullen", "place": "hamlet"}}, {"type": "node", "id": 7472229672, "lat": 60.1083311, "lon": 13.5459523, "tags": {"name": "S\u00f6dra \u00d6jen\u00e4s", "place": "hamlet"}}, {"type": "node", "id": 7472243024, "lat": 59.9621825, "lon": 13.0988456, "tags": {"name": "Norra \u00c5na", "place": "hamlet"}}, {"type": "node", "id": 7472266105, "lat": 60.0704253, "lon": 13.6302208, "tags": {"name": "S\u00f6dra Tolls\u00e5sen", "place": "hamlet"}}, {"type": "node", "id": 7472327213, "lat": 60.2678744, "lon": 13.4334442, "tags": {"name": "Norra Loffstrand", "place": "hamlet"}}, {"type": "node", "id": 7472329910, "lat": 60.3177244, "lon": 13.3626658, "tags": {"name": "S\u00f6dra Torp", "place": "hamlet"}}, {"type": "node", "id": 7472346335, "lat": 60.0159693, "lon": 13.2832023, "tags": {"name": "Dunder\u00e4ngen", "place": "hamlet"}}, {"type": "node", "id": 7472355390, "lat": 59.9606905, "lon": 13.096604, "tags": {"name": "S\u00f6dra \u00c5na", "place": "hamlet"}}, {"type": "node", "id": 7472365437, "lat": 60.120152, "lon": 13.3013214, "tags": {"name": "Mj\u00f6gsj\u00f6h\u00f6jden", "place": "hamlet"}}, {"type": "node", "id": 7472390505, "lat": 60.2670812, "lon": 13.4531318, "tags": {"name": "S\u00f6dra Loffstrand", "place": "hamlet"}}, {"type": "node", "id": 7472403247, "lat": 60.3257259, "lon": 13.3715204, "tags": {"name": "Norra Torp", "place": "hamlet"}}, {"type": "node", "id": 7472405663, "lat": 59.9826941, "lon": 13.0701079, "tags": {"name": "V\u00e4stra Tosseberg", "place": "hamlet"}}, {"type": "node", "id": 7472438467, "lat": 59.9634064, "lon": 13.2758105, "tags": {"name": "Norra H\u00f6jden", "place": "hamlet"}}, {"type": "node", "id": 7472449944, "lat": 60.1164944, "lon": 13.5692852, "tags": {"name": "Kvarnheden", "place": "hamlet"}}, {"type": "node", "id": 7472484910, "lat": 60.1226316, "lon": 13.5328031, "tags": {"name": "Norra \u00d6jen\u00e4s", "place": "hamlet"}}, {"type": "node", "id": 7472503099, "lat": 60.1704266, "lon": 13.7918059, "tags": {"name": "\u00d6stra Harberg", "place": "hamlet"}}, {"type": "node", "id": 7472516272, "lat": 60.0810399, "lon": 13.515237, "tags": {"name": "Gunnerudsk\u00e4rret", "place": "hamlet"}}, {"type": "node", "id": 7472541826, "lat": 60.1560261, "lon": 13.4541242, "tags": {"name": "Norra Mossberg", "place": "hamlet"}}, {"type": "node", "id": 7472542903, "lat": 60.0501584, "lon": 13.1068341, "tags": {"name": "\u00d6stra Berga", "place": "hamlet"}}, {"type": "node", "id": 7472547980, "lat": 60.0254529, "lon": 13.1239957, "tags": {"name": "\u00d6stra Berga", "place": "hamlet"}}, {"type": "node", "id": 7472559044, "lat": 60.1078728, "lon": 13.8815068, "tags": {"name": "Blomsterberg", "place": "hamlet"}}, {"type": "node", "id": 7472591892, "lat": 60.0904321, "lon": 13.7981804, "tags": {"name": "Dragsj\u00f6berg", "place": "hamlet"}}, {"type": "node", "id": 7478500104, "lat": 59.9677409, "lon": 13.2018236, "tags": {"name": "Munken", "place": "hamlet"}}, {"type": "node", "id": 7478521036, "lat": 59.962631, "lon": 13.1567506, "tags": {"name": "Solberg", "place": "hamlet"}}, {"type": "node", "id": 7478542883, "lat": 59.9597039, "lon": 13.0892163, "tags": {"name": "B\u00e4cken", "place": "hamlet"}}, {"type": "node", "id": 7478545227, "lat": 59.9596585, "lon": 13.1429298, "tags": {"name": "Ivarsbj\u00f6rke", "place": "hamlet"}}, {"type": "node", "id": 7478546402, "lat": 59.9660777, "lon": 13.1455125, "tags": {"name": "Strandvik", "place": "hamlet"}}, {"type": "node", "id": 7478563423, "lat": 59.9571679, "lon": 13.0915988, "tags": {"name": "Lilltorp", "place": "hamlet"}}, {"type": "node", "id": 7479019424, "lat": 60.0144485, "lon": 13.0765426, "tags": {"name": "Hagarna", "place": "hamlet"}}, {"type": "node", "id": 7479086797, "lat": 60.0868452, "lon": 13.098529, "tags": {"name": "Bada", "place": "hamlet"}}, {"type": "node", "id": 7479090567, "lat": 60.0571334, "lon": 13.1013955, "tags": {"name": "K\u00e4rrsviken", "place": "hamlet"}}, {"type": "node", "id": 7479119217, "lat": 60.0065289, "lon": 13.1554972, "tags": {"name": "Sk\u00e4ggeg\u00e5rd", "place": "hamlet"}}, {"type": "node", "id": 7479123647, "lat": 59.9978127, "lon": 13.1520713, "tags": {"name": "Backa", "place": "hamlet"}}, {"type": "node", "id": 7479125423, "lat": 60.001986, "lon": 13.1546418, "tags": {"name": "\u00c5seg\u00e5rd", "place": "hamlet"}}, {"type": "node", "id": 7479129156, "lat": 59.9711765, "lon": 13.1502679, "tags": {"name": "K\u00e5rrud", "place": "hamlet"}}, {"type": "node", "id": 7479150189, "lat": 59.9849565, "lon": 13.1402333, "tags": {"name": "\u00d6jen\u00e4s", "place": "hamlet"}}, {"type": "node", "id": 7479189670, "lat": 60.0288307, "lon": 13.1543206, "tags": {"name": "G\u00e4llserud", "place": "hamlet"}}, {"type": "node", "id": 7479207215, "lat": 60.0308468, "lon": 13.139274, "tags": {"name": "\u00c5sen", "place": "hamlet"}}, {"type": "node", "id": 7479212875, "lat": 60.0275045, "lon": 13.1371418, "tags": {"name": "Ransby", "place": "hamlet"}}, {"type": "node", "id": 7479220910, "lat": 60.0466724, "lon": 13.1023601, "tags": {"name": "Sk\u00f6nberga", "place": "hamlet"}}, {"type": "node", "id": 7479236730, "lat": 59.9795347, "lon": 13.2179735, "tags": {"name": "Backa", "place": "hamlet"}}, {"type": "node", "id": 7479246178, "lat": 59.9773274, "lon": 13.2153148, "tags": {"name": "\u00d6jen\u00e4ss\u00e4tter", "place": "hamlet"}}, {"type": "node", "id": 7479259486, "lat": 59.9985899, "lon": 13.210137, "tags": {"name": "Sk\u00e4ggeg\u00e5rdss\u00e4tter", "place": "hamlet"}}, {"type": "node", "id": 7479278272, "lat": 59.9827852, "lon": 13.2015006, "tags": {"name": "Lerb\u00e4cken", "place": "hamlet"}}, {"type": "node", "id": 7479301369, "lat": 59.9782038, "lon": 13.1769718, "tags": {"name": "Rya", "place": "hamlet"}}, {"type": "node", "id": 7479333701, "lat": 59.9867169, "lon": 13.1675315, "tags": {"name": "Knektt\u00e4ppan", "place": "hamlet"}}, {"type": "node", "id": 7479335595, "lat": 59.9933961, "lon": 13.1660677, "tags": {"name": "B\u00e4ckarna", "place": "hamlet"}}, {"type": "node", "id": 7479356597, "lat": 60.070139, "lon": 13.1717571, "tags": {"name": "S\u00e4terg\u00e5rden", "place": "hamlet"}}, {"type": "node", "id": 7479379237, "lat": 60.0691494, "lon": 13.1604437, "tags": {"name": "Ransbylunne", "place": "hamlet"}}, {"type": "node", "id": 7479433561, "lat": 60.0541333, "lon": 13.1828928, "tags": {"name": "Lisj\u00f6berg", "place": "hamlet"}}, {"type": "node", "id": 7479455160, "lat": 60.0493464, "lon": 13.1855717, "tags": {"name": "Nol\u00e5sarna", "place": "hamlet"}}, {"type": "node", "id": 7479515753, "lat": 60.0016751, "lon": 13.2273423, "tags": {"name": "\u00c4ngs\u00e4tter", "place": "hamlet"}}, {"type": "node", "id": 7479558776, "lat": 59.9894419, "lon": 13.2947573, "tags": {"name": "L\u00f6v\u00e5sen", "place": "hamlet"}}, {"type": "node", "id": 7479585412, "lat": 60.0288034, "lon": 13.2751161, "tags": {"name": "\u00c4lgsj\u00f6berg", "place": "hamlet"}}, {"type": "node", "id": 7479653296, "lat": 59.968196, "lon": 13.5607955, "tags": {"name": "Myren", "place": "hamlet"}}, {"type": "node", "id": 7479687340, "lat": 59.9967667, "lon": 13.494628, "tags": {"name": "Lakenestorp", "place": "hamlet"}}, {"type": "node", "id": 7479690304, "lat": 60.0081431, "lon": 13.4782863, "tags": {"name": "Sj\u00f6\u00e4ndan", "place": "hamlet"}}, {"type": "node", "id": 7479691876, "lat": 59.9891451, "lon": 13.4814676, "tags": {"name": "Berg", "place": "hamlet"}}, {"type": "node", "id": 7479756902, "lat": 60.0581061, "lon": 13.5556572, "tags": {"name": "H\u00f6gheden", "place": "hamlet"}}, {"type": "node", "id": 7485233959, "lat": 59.9791485, "lon": 13.6541643, "tags": {"name": "Torsby", "place": "hamlet"}}, {"type": "node", "id": 7485259174, "lat": 59.9588594, "lon": 13.6359495, "tags": {"name": "\u00c5s", "place": "hamlet"}}, {"type": "node", "id": 7485277427, "lat": 59.9859882, "lon": 13.7385546, "tags": {"name": "Manen", "place": "hamlet"}}, {"type": "node", "id": 7485293574, "lat": 60.0286595, "lon": 13.6129879, "tags": {"name": "Stj\u00e4rn", "place": "hamlet"}}, {"type": "node", "id": 7485307320, "lat": 59.9965588, "lon": 13.598955, "tags": {"name": "\u00c5ros", "place": "hamlet"}}, {"type": "node", "id": 7485309030, "lat": 60.0340651, "lon": 13.5835131, "tags": {"name": "B\u00e4ck\u00e5sarna", "place": "hamlet"}}, {"type": "node", "id": 7485320193, "lat": 60.0369341, "lon": 13.6664535, "tags": {"name": "Sundb\u00e4cken", "place": "hamlet"}}, {"type": "node", "id": 7485411798, "lat": 60.0717984, "lon": 13.7022648, "tags": {"name": "G\u00e4ll\u00e4lvs\u00e4tern", "place": "hamlet"}}, {"type": "node", "id": 7485542446, "lat": 59.9893048, "lon": 13.8531484, "tags": {"name": "Kn\u00e4berg", "place": "hamlet"}}, {"type": "node", "id": 7485567393, "lat": 60.012617, "lon": 13.8899325, "tags": {"name": "Upplundsh\u00f6jden", "place": "hamlet"}}, {"type": "node", "id": 7487805955, "lat": 60.1587556, "lon": 13.0210644, "tags": {"name": "Persby", "place": "hamlet", "wikidata": "Q10624452"}}, {"type": "node", "id": 7487823405, "lat": 60.1629485, "lon": 13.0211348, "tags": {"name": "Tomten", "place": "hamlet"}}, {"type": "node", "id": 7487824963, "lat": 60.1807541, "lon": 13.0351023, "tags": {"name": "N\u00e4s", "place": "hamlet"}}, {"type": "node", "id": 7488085565, "lat": 60.2321673, "lon": 13.0269062, "tags": {"name": "Ekt\u00e4ppan", "place": "hamlet"}}, {"type": "node", "id": 7488138703, "lat": 60.3095044, "lon": 13.013414, "tags": {"name": "Kyrkn\u00e4s", "place": "hamlet"}}, {"type": "node", "id": 7488183979, "lat": 60.2841781, "lon": 13.0309582, "tags": {"name": "T\u00e4torten", "place": "hamlet"}}, {"type": "node", "id": 7488956936, "lat": 60.09595, "lon": 13.1894761, "tags": {"name": "Lom\u00e5sen", "place": "hamlet"}}, {"type": "node", "id": 7488982166, "lat": 60.1668077, "lon": 13.0194242, "tags": {"name": "Lersta", "place": "hamlet"}}, {"type": "node", "id": 7489027286, "lat": 60.1094901, "lon": 13.1194811, "tags": {"name": "Bada", "place": "hamlet"}}, {"type": "node", "id": 7489130342, "lat": 60.2037907, "lon": 13.2515376, "tags": {"name": "Knapp\u00e5sen", "place": "hamlet"}}, {"type": "node", "id": 7489138641, "lat": 60.1601984, "lon": 13.1915141, "tags": {"name": "Torntorp", "place": "hamlet"}}, {"type": "node", "id": 7489146038, "lat": 60.2263966, "lon": 13.2447228, "tags": {"name": "Fastn\u00e4ss\u00e4tern", "place": "hamlet"}}, {"type": "node", "id": 7489150331, "lat": 60.2568851, "lon": 13.2350759, "tags": {"name": "Segen\u00e4ss\u00e4tern", "place": "hamlet"}}, {"type": "node", "id": 7489154129, "lat": 60.1647807, "lon": 13.1048561, "tags": {"name": "Ry", "place": "hamlet"}}, {"type": "node", "id": 7489203261, "lat": 60.2646721, "lon": 13.0843127, "tags": {"name": "Bur\u00e5sen", "place": "hamlet"}}, {"type": "node", "id": 7489219951, "lat": 60.3063198, "lon": 13.0427719, "tags": {"name": "N\u00f6t\u00f6n", "place": "hamlet"}}, {"type": "node", "id": 7489219965, "lat": 60.3520699, "lon": 13.1730671, "tags": {"name": "Rusk\u00e5sen", "place": "hamlet"}}, {"type": "node", "id": 7489241077, "lat": 60.297157, "lon": 13.0500542, "tags": {"name": "Sollsn\u00e4s", "place": "hamlet"}}, {"type": "node", "id": 7489241078, "lat": 60.3104793, "lon": 13.0442075, "tags": {"name": "L\u00e5ngn\u00e4s", "place": "hamlet"}}, {"type": "node", "id": 7489243266, "lat": 60.3830261, "lon": 13.1286618, "tags": {"name": "Osebolss\u00e4tern", "place": "hamlet"}}, {"type": "node", "id": 7489254687, "lat": 60.3084193, "lon": 13.0487791, "tags": {"name": "Smalg\u00e5rden", "place": "hamlet"}}, {"type": "node", "id": 7489278782, "lat": 60.3565642, "lon": 13.3106945, "tags": {"name": "K\u00e5rebol", "place": "hamlet"}}, {"type": "node", "id": 7489281769, "lat": 60.3554059, "lon": 13.3323147, "tags": {"name": "Backa", "place": "hamlet"}}, {"type": "node", "id": 7489289562, "lat": 60.3688267, "lon": 13.2929537, "tags": {"name": "Lern\u00e4s", "place": "hamlet"}}, {"type": "node", "id": 7489290182, "lat": 60.3618218, "lon": 13.315205, "tags": {"name": "Elindebol", "place": "hamlet"}}, {"type": "node", "id": 7489294977, "lat": 60.3787682, "lon": 13.5899486, "tags": {"name": "Gropberg", "place": "hamlet"}}, {"type": "node", "id": 7489297860, "lat": 60.3817685, "lon": 13.4826967, "tags": {"name": "R\u00f6sberget", "place": "hamlet"}}, {"type": "node", "id": 7489302177, "lat": 60.3808687, "lon": 13.2867052, "tags": {"name": "\u00c4ftn\u00e4s", "place": "hamlet"}}, {"type": "node", "id": 7489306894, "lat": 60.3859988, "lon": 13.2802136, "tags": {"name": "Br\u00e5ten", "place": "hamlet"}}, {"type": "node", "id": 7489357130, "lat": 60.0971941, "lon": 13.5508601, "tags": {"name": "\u00d6verberga", "place": "hamlet"}}, {"type": "node", "id": 7489361129, "lat": 60.0895929, "lon": 13.5656592, "tags": {"name": "\u00c4mtbj\u00f6rk", "place": "hamlet"}}, {"type": "node", "id": 7489362017, "lat": 60.1187308, "lon": 13.503908, "tags": {"name": "Basterudstorp", "place": "hamlet"}}, {"type": "node", "id": 7489363754, "lat": 60.1150814, "lon": 13.4526212, "tags": {"name": "Busj\u00f6viken", "place": "hamlet"}}, {"type": "node", "id": 7489365906, "lat": 60.1382252, "lon": 13.546674, "tags": {"name": "S\u00e4lje", "place": "hamlet"}}, {"type": "node", "id": 7489366094, "lat": 60.1017997, "lon": 13.5015318, "tags": {"name": "Buda", "place": "hamlet"}}, {"type": "node", "id": 7489383875, "lat": 60.1322409, "lon": 13.5590723, "tags": {"name": "Mogrenheden", "place": "hamlet"}}, {"type": "node", "id": 7489384335, "lat": 60.1259216, "lon": 13.4186421, "tags": {"name": "L\u00e5ngmyren", "place": "hamlet"}}, {"type": "node", "id": 7489387680, "lat": 60.1265567, "lon": 13.563833, "tags": {"name": "S\u00e4ljeheden", "place": "hamlet"}}, {"type": "node", "id": 7489390677, "lat": 60.1477908, "lon": 13.4555234, "tags": {"name": "\u00c4lvesby", "place": "hamlet"}}, {"type": "node", "id": 7489391246, "lat": 60.1493093, "lon": 13.4329564, "tags": {"name": "R\u00e5da", "place": "hamlet"}}, {"type": "node", "id": 7489397829, "lat": 60.1597146, "lon": 13.5139062, "tags": {"name": "\u00c4lvb\u00e4ck", "place": "hamlet"}}, {"type": "node", "id": 7489412499, "lat": 60.1592832, "lon": 13.500947, "tags": {"name": "Nyg\u00e5rd", "place": "hamlet"}}, {"type": "node", "id": 7489427260, "lat": 60.1562643, "lon": 13.5382838, "tags": {"name": "Yn\u00e4s", "place": "hamlet"}}, {"type": "node", "id": 7489431993, "lat": 60.161928, "lon": 13.4166235, "tags": {"name": "\u00c5sarna", "place": "hamlet"}}, {"type": "node", "id": 7489442722, "lat": 60.1566764, "lon": 13.3904882, "tags": {"name": "V\u00e4stansj\u00f6", "place": "hamlet"}}, {"type": "node", "id": 7489448830, "lat": 60.1620624, "lon": 13.5204264, "tags": {"name": "Nore", "place": "hamlet"}}, {"type": "node", "id": 7489458486, "lat": 60.1753812, "lon": 13.5169052, "tags": {"name": "Byn\u00e4set", "place": "hamlet"}}, {"type": "node", "id": 7489462517, "lat": 60.1674825, "lon": 13.5223202, "tags": {"name": "Sn\u00f6re", "place": "hamlet"}}, {"type": "node", "id": 7490522223, "lat": 60.217186, "lon": 13.4240626, "tags": {"name": "Harab\u00e4cken", "place": "hamlet"}}, {"type": "node", "id": 7490523175, "lat": 60.1928926, "lon": 13.4044172, "tags": {"name": "Stakberg", "place": "hamlet"}}, {"type": "node", "id": 7490524810, "lat": 60.174423, "lon": 13.4356349, "tags": {"name": "Vr\u00e5n", "place": "hamlet"}}, {"type": "node", "id": 7490529530, "lat": 60.2386961, "lon": 13.4810108, "tags": {"name": "Korsb\u00e4cken", "place": "hamlet"}}, {"type": "node", "id": 7490531281, "lat": 60.1462552, "lon": 13.8443138, "tags": {"name": "Lagg\u00e5sen", "place": "hamlet"}}, {"type": "node", "id": 7490536017, "lat": 60.3434808, "lon": 13.3344519, "tags": {"name": "Mj\u00f6n\u00e4s", "place": "hamlet"}}, {"type": "node", "id": 7490536022, "lat": 60.101533, "lon": 13.5817996, "tags": {"name": "L\u00e5ngr\u00f6sten", "place": "hamlet"}}, {"type": "node", "id": 7490545758, "lat": 60.196044, "lon": 13.5222825, "tags": {"name": "Hallen", "place": "hamlet"}}, {"type": "node", "id": 7490555436, "lat": 60.234237, "lon": 13.5105961, "tags": {"name": "Br\u00e4nnan", "place": "hamlet"}}, {"type": "node", "id": 7490557639, "lat": 60.227003, "lon": 13.4544005, "tags": {"name": "L\u00e5ngmoarna", "place": "hamlet"}}, {"type": "node", "id": 7490559331, "lat": 60.3000226, "lon": 13.3670353, "tags": {"name": "Segen\u00e4s", "place": "hamlet"}}, {"type": "node", "id": 7490560956, "lat": 60.3049976, "lon": 13.3757049, "tags": {"name": "Matsstugan", "place": "hamlet"}}, {"type": "node", "id": 7490576933, "lat": 60.2215329, "lon": 13.5039581, "tags": {"name": "Fallen", "place": "hamlet"}}, {"type": "node", "id": 7490577279, "lat": 60.35385, "lon": 13.4574456, "tags": {"name": "Ennarbolss\u00e4tern", "place": "hamlet"}}, {"type": "node", "id": 7490579254, "lat": 60.2927249, "lon": 13.3960451, "tags": {"name": "\u00c5strand", "place": "hamlet"}}, {"type": "node", "id": 7490583481, "lat": 60.1115275, "lon": 13.6999461, "tags": {"name": "Bockfall", "place": "hamlet"}}, {"type": "node", "id": 7490586017, "lat": 60.3315172, "lon": 13.3768844, "tags": {"name": "Ennarbolsmon", "place": "hamlet"}}, {"type": "node", "id": 7490588001, "lat": 60.090034, "lon": 13.6057559, "tags": {"name": "\u00c5smyren", "place": "hamlet"}}, {"type": "node", "id": 7490590609, "lat": 60.093319, "lon": 13.8064383, "tags": {"name": "S\u00e4tersta", "place": "hamlet"}}, {"type": "node", "id": 7490590733, "lat": 60.1173688, "lon": 13.6941041, "tags": {"name": "\u00d6jen\u00e4ss\u00e4tern", "place": "hamlet"}}, {"type": "node", "id": 7490600574, "lat": 60.3355825, "lon": 13.4562057, "tags": {"name": "\u00c5strandss\u00e4tern", "place": "hamlet"}}, {"type": "node", "id": 7490613811, "lat": 60.1882735, "lon": 13.6777776, "tags": {"name": "Sn\u00f6rsta", "place": "hamlet"}}, {"type": "node", "id": 7490629248, "lat": 60.3001189, "lon": 13.7713982, "tags": {"name": "Bj\u00f6rn\u00e5sen", "place": "hamlet"}}, {"type": "node", "id": 7490631929, "lat": 60.1526566, "lon": 13.8129922, "tags": {"name": "\u00d6sterrike", "place": "hamlet"}}, {"type": "node", "id": 7490650382, "lat": 60.1575604, "lon": 13.8099701, "tags": {"name": "Hyttan", "place": "hamlet"}}, {"type": "node", "id": 7490668798, "lat": 60.2428785, "lon": 13.6683084, "tags": {"name": "Kno\u00e4nde", "place": "hamlet"}}, {"type": "node", "id": 7490672138, "lat": 60.230966, "lon": 13.8137976, "tags": {"name": "Nain", "place": "hamlet"}}, {"type": "node", "id": 7490674080, "lat": 60.3789597, "lon": 13.6303962, "tags": {"name": "Brunnberg", "place": "hamlet"}}, {"type": "node", "id": 7791244757, "lat": 60.1889308, "lon": 13.5237239, "tags": {"name": "Grenheden", "place": "hamlet"}}, {"type": "node", "id": 7791244758, "lat": 60.1915815, "lon": 13.5220823, "tags": {"name": "Mellanstugan", "place": "hamlet"}}, {"type": "node", "id": 7791244759, "lat": 60.1944827, "lon": 13.5230694, "tags": {"name": "Torkhus", "place": "hamlet"}}, {"type": "node", "id": 7791244764, "lat": 60.1841354, "lon": 13.5220394, "tags": {"name": "Byn", "place": "hamlet"}}, {"type": "node", "id": 7791284903, "lat": 60.1933575, "lon": 13.5000239, "tags": {"name": "Pikg\u00e5rden", "place": "hamlet"}}, {"type": "node", "id": 7791284904, "lat": 60.1761379, "lon": 13.5118041, "tags": {"name": "Byn\u00e4set", "place": "hamlet"}}, {"type": "node", "id": 7792499695, "lat": 60.2933445, "lon": 13.8700281, "tags": {"name": "Fj\u00e4llet", "place": "hamlet"}}, {"type": "node", "id": 7792499729, "lat": 60.2910808, "lon": 13.8752102, "tags": {"name": "Folkesta", "place": "hamlet"}}]}