{"version": 0.6, "generator": "Overpass API 0.7.61.5 4133829e", "osm3s": {"timestamp_osm_base": "2024-03-06T11:04:23Z", "copyright": "The data included in this document is from www.openstreetmap.org. The data is made available under ODbL."}, "elements": [{"type": "node", "id": 542570650, "lat": 0.9981966, "lon": 34.3606765, "tags": {"addr:city": "Nakhamosi", "addr:county": "Manjiya", "addr:district": "Bududa", "addr:parish": "Buwakiyu", "addr:subcounty": "Nalwanza", "amenity": "school", "isced:level": "2;3;4", "name": "Nalwanza Secondary School", "operator:type": "private", "source": "www.ubos.org", "source:date": "2010..2014", "wikidata": "Q23704769"}}, {"type": "node", "id": 802153098, "lat": 0.8318107, "lon": 34.5487427, "tags": {"amenity": "school", "constituency": "Chongeywo", "education:type": "primary", "maxspeed": "10", "name": "Private School", "operational_status:electricity": "never", "practicability:foot": "yes", "practicability:motorbike": "yes", "watsan:toilet_public": "yes"}}, {"type": "node", "id": 802153137, "lat": 0.8307386, "lon": 34.5916641, "tags": {"amenity": "school", "constituency": "Chepyuk", "education:type": "primary", "media:camera_number": "DSCN2658, DSCN2661", "mobile:safaricom": "Medium", "name": "Kapkirwok C.O.C. Primary School", "operational_status:electricity": "always", "practicability:4wd": "yes", "practicability:foot": "yes", "practicability:motorbike": "yes", "watsan:toilet_public": "yes"}}, {"type": "node", "id": 802153156, "lat": 0.8365738, "lon": 34.5908974, "tags": {"amenity": "school", "constituency": "Chepyuk", "education:type": "primary", "media:camera_number": "IMG_0406", "name": "R.C. Cheptoror Primary School", "operational_status:electricity": "never", "practicability:4wd": "yes", "practicability:foot": "yes", "practicability:motor_vehicle": "yes", "practicability:motorbike": "yes", "watsan:toilet_public": "yes"}}, {"type": "node", "id": 802153359, "lat": 0.8584689, "lon": 34.7602852, "tags": {"amenity": "school", "constituency": "Chemoge", "education:type": "primary", "media:camera_number": "DSCN2466", "mobile:safaricom": "Small", "mobile:zain": "Medium", "name": "Kiptiroko Primary School", "operational_status:electricity": "always", "practicability:4wd": "yes", "practicability:foot": "yes", "practicability:motorbike": "yes", "watsan:toilet_public": "yes"}}, {"type": "node", "id": 802153441, "lat": 0.8391375, "lon": 34.7343887, "tags": {"amenity": "school", "constituency": "Elgon", "education:type": "primary", "mobile:safaricom": "Full", "mobile:zain": "Full", "name": "Milimani S.D.A. Primary School", "operational_status:electricity": "never", "practicability:4wd": "yes", "practicability:foot": "yes", "practicability:motorbike": "yes", "watsan:toilet_public": "yes"}}, {"type": "node", "id": 802153471, "lat": 0.8867091, "lon": 34.582001, "tags": {"amenity": "school", "constituency": "Chepyuk", "education:type": "primary", "media:camera_number": "DSCN2711", "name": "Kumurio Primary School", "operational_status:electricity": "never", "practicability:foot": "yes", "watsan:toilet_public": "yes"}}, {"type": "node", "id": 802153492, "lat": 0.8935845, "lon": 34.7385568, "tags": {"amenity": "school", "constituency": "Chemoge", "education:type": "primary", "media:camera_number": "DSCN2486", "name": "Chepsoikei K.E.T.C. Church (Primary School)", "operational_status:electricity": "never", "practicability:4wd": "yes", "practicability:foot": "yes", "practicability:motorbike": "yes", "watsan:toilet_public": "yes"}}, {"type": "node", "id": 802153580, "lat": 0.9007942, "lon": 34.7729222, "tags": {"amenity": "school", "constituency": "Kaptama", "education:type": "nursery", "media:camera_number": "DSCN2454", "name": "Pentecostal Evangelistic Mission of Africa (P.E.M.A.) Chemetei Bondeni - Bondeni Trading Center (Nursery)", "operational_status:electricity": "never", "practicability:4wd": "yes", "practicability:foot": "yes", "practicability:motorbike": "yes", "watsan:toilet_public": "yes"}}, {"type": "node", "id": 802153627, "lat": 0.9222648, "lon": 34.7628693, "tags": {"amenity": "school", "constituency": "Kaboywo", "education:type": "primary", "media:camera_number": "DSCN2513, DSCN2514", "mobile:safaricom": "Full", "mobile:zain": "Full", "name": "Chebombai Primary School", "operational_status:electricity": "never", "practicability:4wd": "yes", "practicability:foot": "yes", "practicability:motorbike": "yes", "watsan:toilet_public": "yes"}}, {"type": "node", "id": 803881855, "lat": 0.8369854, "lon": 34.4212034, "tags": {"alt_name": "WALANGA FYM PR.SCH.", "amenity": "school", "constituency": "Chepkube", "education:type": "primary", "isced:level": "1", "media:camera_number": "IMG_0455", "mobile:safaricom": "Full", "mobile:zain": "Full", "name": "Walanga F.Y.M. Primary School", "operational_status:electricity": "never", "polling_station": "yes", "polling_station:id": "168/099", "polling_station:number": "99", "practicability:4wd": "yes", "practicability:foot": "yes", "practicability:motor_vehicle": "yes", "practicability:motorbike": "yes", "watsan:toilet_public": "yes", "wikidata": "Q22311743"}}, {"type": "node", "id": 803881863, "lat": 0.8297052, "lon": 34.4275636, "tags": {"amenity": "school", "constituency": "Chepkube", "education:type": "primary", "isced:level": "1", "media:camera_number": "IMG_0454", "mobile:safaricom": "Full", "mobile:zain": "Full", "name": "Chepkube A.C.K. Primary School", "operational_status:electricity": "never", "polling_station": "yes", "polling_station:id": "168/080", "polling_station:number": "80", "practicability:4wd": "yes", "practicability:foot": "yes", "practicability:motorbike": "yes", "watsan:toilet_public": "yes", "wikidata": "Q22302261"}}, {"type": "node", "id": 803881872, "lat": 0.8358435, "lon": 34.4346798, "tags": {"alt_name": "Kamosong Primary School", "amenity": "school", "constituency": "Chepkube", "education:type": "primary", "isced:level": "1", "media:camera_number": "IMG_0453", "mobile:safaricom": "Full", "mobile:zain": "Full", "name": "Kamosong S.A. Primary School", "operational_status:electricity": "never", "polling_station": "yes", "polling_station:id": "168/001", "polling_station:number": "1", "practicability:4wd": "yes", "practicability:foot": "yes", "practicability:motor_vehicle": "yes", "practicability:motorbike": "yes", "watsan:toilet_public": "yes", "wikidata": "Q22302080"}}, {"type": "node", "id": 803881877, "lat": 0.8505464, "lon": 34.4674668, "tags": {"alt_name": "CHEPKUBE S.A. PR. SCH.", "amenity": "school", "constituency": "Chepkube", "education:type": "primary", "media:camera_number": "IMG_0452", "mobile:safaricom": "Full", "mobile:zain": "Full", "name": "The S.A. Chepkube Primary School", "operational_status:electricity": "never", "polling_station": "yes", "polling_station:id": "168/003", "polling_station:number": "3", "practicability:4wd": "yes", "practicability:foot": "yes", "practicability:motorbike": "yes", "watsan:toilet_public": "yes"}}, {"type": "node", "id": 803881888, "lat": 0.8139922, "lon": 34.4457627, "tags": {"alt_name": "KAPSESOI PR. SCH.", "amenity": "school", "constituency": "Cheptais", "education:type": "primary", "isced:level": "1", "media:camera_number": "IMG_0451", "mobile:safaricom": "Full", "name": "Kapsesoi S.A. Primary School", "operational_status:electricity": "never", "polling_station": "yes", "polling_station:id": "168/006", "polling_station:number": "6", "practicability:foot": "yes", "practicability:motorbike": "yes", "watsan:toilet_public": "yes", "wikidata": "Q22302300"}}, {"type": "node", "id": 803881889, "lat": 0.8202033, "lon": 34.4506485, "tags": {"alt_name": "KIMASWA PR.SCH.", "amenity": "school", "constituency": "Cheptais", "education:type": "primary", "isced:level": "1", "media:camera_number": "IMG_0449", "mobile:safaricom": "Full", "name": "Kimaswa S.A. Primary School", "operational_status:electricity": "never", "polling_station": "yes", "polling_station:id": "168/007", "polling_station:number": "7", "practicability:4wd": "yes", "practicability:foot": "yes", "practicability:motor_vehicle": "yes", "practicability:motorbike": "yes", "watsan:toilet_public": "yes", "wikidata": "Q22296026"}}, {"type": "node", "id": 803881906, "lat": 0.7928674, "lon": 34.4447647, "tags": {"amenity": "school", "education:type": "primary", "isced:level": "1", "media:camera_number": "IMG_0457", "mobile:safaricom": "Full", "mobile:zain": "Full", "name": "Kaprot D.E.B. Primary School", "operational_status:electricity": "never", "practicability:4wd": "yes", "practicability:foot": "yes", "practicability:motor_vehicle": "yes", "practicability:motorbike": "yes", "watsan:toilet_public": "yes", "wikidata": "Q22296212"}}, {"type": "node", "id": 803881910, "lat": 0.8166704, "lon": 34.422128, "tags": {"alt_name": "NALONDO S.A PR. SCH.", "amenity": "school", "constituency": "Chepkube", "education:type": "primary", "isced:level": "1", "media:camera_number": "IMG_0456", "mobile:safaricom": "Full", "mobile:zain": "Full", "name": "Nalondo S.A. Primary School", "operational_status:electricity": "never", "polling_station": "yes", "polling_station:id": "168/079", "polling_station:number": "79", "practicability:4wd": "yes", "practicability:foot": "yes", "practicability:motor_vehicle": "yes", "practicability:motorbike": "yes", "watsan:toilet_public": "yes", "wikidata": "Q22296236"}}, {"type": "node", "id": 803881916, "lat": 0.7907714, "lon": 34.4640636, "tags": {"alt_name": "CHEREDYO SDA PR.SCH.", "amenity": "school", "constituency": "Cheptais", "education:type": "primary", "media:camera_number": "DSCN2869", "mobile:safaricom": "Full", "mobile:zain": "Full", "name": "Cheredyo S.D.A. Primary School", "operational_status:electricity": "never", "polling_station": "yes", "polling_station:id": "168/103", "polling_station:number": "103", "practicability:4wd": "yes", "practicability:foot": "yes", "practicability:motor_vehicle": "yes", "practicability:motorbike": "yes", "watsan:toilet_public": "yes"}}, {"type": "node", "id": 803881924, "lat": 0.7855059, "lon": 34.5386432, "tags": {"amenity": "school", "constituency": "Chesikak", "education:type": "primary", "media:camera_number": "DSCN2755", "mobile:safaricom": "Full", "mobile:zain": "Full", "name": "Kaptanai Primary School", "operational_status:electricity": "always", "practicability:4wd": "yes", "practicability:foot": "yes", "practicability:motor_vehicle": "yes", "practicability:motorbike": "yes", "watsan:toilet_public": "yes"}}, {"type": "node", "id": 803881932, "lat": 0.7802779, "lon": 34.5042105, "tags": {"alt_name": "MULUKHU F.Y.M PR. SCH.", "amenity": "school", "constituency": "Chesikak", "education:type": "primary", "media:camera_number": "IMG_0465", "mobile:safaricom": "Full", "mobile:zain": "Full", "name": "Mulukhu F.Y.M. Primary School", "operational_status:electricity": "never", "polling_station": "yes", "polling_station:id": "168/107", "polling_station:number": "107", "practicability:4wd": "yes", "practicability:foot": "yes", "practicability:motorbike": "yes", "watsan:toilet_public": "yes"}}, {"type": "node", "id": 803881940, "lat": 0.7836203, "lon": 34.578398, "tags": {"alt_name": "KIPTUNGURURWO S.A NUR. SCH.", "amenity": "school", "constituency": "Chongeywo", "education:type": "nursery", "media:camera_number": "IMG_0421", "mobile:safaricom": "Full", "mobile:zain": "Medium", "name": "Kiptungururwo S.A. Nursery School", "operational_status:electricity": "never", "polling_station": "yes", "polling_station:id": "168/086", "polling_station:number": "86", "practicability:foot": "yes", "practicability:motorbike": "yes", "watsan:toilet_public": "yes"}}, {"type": "node", "id": 803881944, "lat": 0.7895057, "lon": 34.5124338, "tags": {"alt_name": "CHESIKAK F.Y.M PR. SCH.", "amenity": "school", "constituency": "Chesikak", "education:type": "primary", "media:camera_number": "IMG_0431", "mobile:safaricom": "Full", "mobile:zain": "Full", "name": "Friends Primary School Chesikaki", "operational_status:electricity": "never", "polling_station": "yes", "polling_station:id": "168/084", "polling_station:number": "84", "practicability:4wd": "yes", "practicability:foot": "yes", "practicability:motor_vehicle": "yes", "practicability:motorbike": "yes", "watsan:toilet_public": "yes"}}, {"type": "node", "id": 803881957, "lat": 0.7813857, "lon": 34.5154701, "tags": {"alt_name": "KIMABOLE F.Y.M. PR. SCH.", "amenity": "school", "constituency": "Chesikak", "education:type": "primary", "media:camera_number": "IMG_0432", "mobile:safaricom": "Full", "mobile:zain": "Full", "name": "Friends Primary School Kimabole", "operational_status:electricity": "never", "polling_station": "yes", "polling_station:id": "168/016", "polling_station:number": "16", "practicability:4wd": "yes", "practicability:foot": "yes", "practicability:motor_vehicle": "yes", "practicability:motorbike": "yes", "watsan:toilet_public": "yes"}}, {"type": "node", "id": 803881963, "lat": 0.7857285, "lon": 34.5832953, "tags": {"alt_name": "MURWANI ECD NUR. SCH.", "amenity": "school", "constituency": "Kapkateny", "education:type": "nursery", "media:camera_number": "DSCN2678", "mobile:safaricom": "Full", "mobile:zain": "Full", "name": "Murwani E.C.D. Nursery School", "operational_status:electricity": "never", "polling_station": "yes", "polling_station:id": "168/111", "polling_station:number": "111", "practicability:foot": "yes", "practicability:motorbike": "yes", "watsan:toilet_public": "yes"}}, {"type": "node", "id": 803881965, "lat": 0.8098893, "lon": 34.474068, "tags": {"alt_name": "BUKONOI PR. SCH.", "amenity": "school", "constituency": "Sasur", "education:type": "primary", "media:camera_number": "DSCN2773, DSCN2774", "mobile:safaricom": "Full", "mobile:zain": "Full", "name": "Bukonoi Primary School", "operational_status:electricity": "always", "polling_station": "yes", "polling_station:id": "168/071", "polling_station:number": "71", "practicability:4wd": "yes", "practicability:foot": "yes", "practicability:motor_vehicle": "yes", "practicability:motorbike": "yes", "watsan:toilet_public": "yes"}}, {"type": "node", "id": 803881966, "lat": 0.8094161, "lon": 34.4659096, "tags": {"alt_name": "CHEPTAIS SDA PR.SCH.", "amenity": "school", "constituency": "Cheptais", "education:type": "primary", "media:camera_number": "IMG_0466", "mobile:safaricom": "Full", "mobile:zain": "Full", "name": "Cheptais S.D.A. Primary School", "operational_status:electricity": "never", "polling_station": "yes", "polling_station:id": "168/081", "polling_station:number": "81", "practicability:4wd": "yes", "practicability:foot": "yes", "practicability:motor_vehicle": "yes", "practicability:motorbike": "yes", "watsan:toilet_public": "yes"}}, {"type": "node", "id": 803881967, "lat": 0.8090739, "lon": 34.4624872, "tags": {"alt_name": "PERESTEN ACK PR. SCH.", "amenity": "school", "constituency": "Cheptais", "education:type": "primary", "media:camera_number": "IMG_0467", "mobile:safaricom": "Full", "mobile:zain": "Full", "name": "Peresten A.C.K. Primary School", "operational_status:electricity": "never", "polling_station": "yes", "polling_station:id": "168/102", "polling_station:number": "102", "practicability:4wd": "yes", "practicability:foot": "yes", "practicability:motor_vehicle": "yes", "practicability:motorbike": "yes", "watsan:toilet_public": "yes"}}, {"type": "node", "id": 803881968, "lat": 0.8086727, "lon": 34.4537608, "tags": {"alt_name": "CHEPTAIS S.A. PR. SCH.", "amenity": "school", "constituency": "Cheptais", "education:type": "primary", "media:camera_number": "IMG_0448", "mobile:safaricom": "Full", "mobile:zain": "Full", "name": "The Salvation Army Cheptais Corps Primary School", "operational_status:electricity": "always", "polling_station": "yes", "polling_station:id": "168/005", "polling_station:number": "5", "practicability:4wd": "yes", "practicability:foot": "yes", "practicability:motor_vehicle": "yes", "practicability:motorbike": "yes", "watsan:toilet_public": "yes"}}, {"type": "node", "id": 803881971, "lat": 0.8070279, "lon": 34.4893605, "tags": {"alt_name": "TOROSO S.A. PR. SCH.", "amenity": "school", "constituency": "Sasur", "education:type": "primary", "media:camera_number": "DSCN2764, DSCN2765, DSCN2766", "mobile:safaricom": "Full", "mobile:zain": "Full", "name": "Toroso S.A. Primary School", "operational_status:electricity": "always", "polling_station": "yes", "polling_station:id": "168/008", "polling_station:number": "8", "practicability:4wd": "yes", "practicability:foot": "yes", "practicability:motor_vehicle": "yes", "practicability:motorbike": "yes", "watsan:toilet_public": "yes"}}, {"type": "node", "id": 803881976, "lat": 0.7929548, "lon": 34.4841393, "tags": {"alt_name": "KAPKOTA C.P.K. PR. SCH.", "amenity": "school", "constituency": "Sasur", "education:type": "primary", "media:camera_number": "DSCN2762, DSCN2763", "mobile:safaricom": "Full", "mobile:zain": "Full", "name": "Kapkoto A.C.K. Primary School", "operational_status:electricity": "always", "polling_station": "yes", "polling_station:id": "168/015", "polling_station:number": "015", "practicability:4wd": "yes", "practicability:foot": "yes", "practicability:motor_vehicle": "yes", "practicability:motorbike": "yes", "watsan:toilet_public": "yes"}}, {"type": "node", "id": 803881979, "lat": 0.7980743, "lon": 34.4848905, "tags": {"alt_name": "CHEPTOROR TRADING CENTER", "amenity": "school", "constituency": "Sasur", "education:description": "Trading Center", "education:type": "other", "mobile:safaricom": "Full", "mobile:zain": "Full", "name": "Cheptoror Trading Center", "operational_status:electricity": "always", "polling_station": "yes", "polling_station:id": "168/106", "polling_station:number": "106", "practicability:4wd": "yes", "practicability:foot": "yes", "practicability:motor_vehicle": "yes", "practicability:motorbike": "yes", "watsan:toilet_public": "yes"}}, {"type": "node", "id": 803881987, "lat": 0.8265498, "lon": 34.4890575, "tags": {"alt_name": "KAMARANG' PR. SCH.", "amenity": "school", "constituency": "Sasur", "education:type": "primary", "media:camera_number": "IMG_0436, IMG_0447", "mobile:safaricom": "Full", "mobile:zain": "Full", "name": "Kamarang Primary School", "operational_status:electricity": "never", "polling_station": "yes", "polling_station:id": "168/010", "polling_station:number": "10", "practicability:foot": "yes", "watsan:toilet_public": "yes"}}, {"type": "node", "id": 803881988, "lat": 0.8188399, "lon": 34.4781432, "tags": {"alt_name": "MARIGO S.D.A. PR.SCH.", "amenity": "school", "constituency": "Sasur", "education:type": "primary", "media:camera_number": "DSCN2775, DSCN2776", "mobile:safaricom": "Full", "mobile:zain": "Full", "name": "Marigo S.D.A. Primary School", "operational_status:electricity": "always", "polling_station": "yes", "polling_station:id": "168/083", "polling_station:number": "83", "practicability:4wd": "yes", "practicability:foot": "yes", "practicability:motorbike": "yes", "watsan:toilet_public": "yes"}}, {"type": "node", "id": 803881989, "lat": 0.824198, "lon": 34.468634, "tags": {"alt_name": "KIPSIS PR.SCH.", "amenity": "school", "constituency": "Cheptais", "education:type": "primary", "media:camera_number": "DSCN2777, DSCN2778", "mobile:safaricom": "Full", "mobile:zain": "Full", "name": "Kipsis S.A. Primary School", "operational_status:electricity": "always", "polling_station": "yes", "polling_station:id": "168/004", "polling_station:number": "4", "practicability:4wd": "yes", "practicability:foot": "yes", "practicability:motorbike": "yes", "watsan:toilet_public": "yes"}}, {"type": "node", "id": 803881990, "lat": 0.7913675, "lon": 34.532656, "tags": {"amenity": "school", "constituency": "Chesikak", "education:type": "primary", "media:camera_number": "IMG_0429", "mobile:safaricom": "Full", "mobile:zain": "Full", "name": "Masaba D.E.B. Primary School", "operational_status:electricity": "never", "practicability:4wd": "yes", "practicability:foot": "yes", "practicability:motor_vehicle": "yes", "practicability:motorbike": "yes", "watsan:toilet_public": "yes"}}, {"type": "node", "id": 803881991, "lat": 0.8115839, "lon": 34.5347541, "tags": {"alt_name": "CHESIYWO S.A. PR. SCH.", "amenity": "school", "constituency": "Chesikak", "education:type": "primary", "media:camera_number": "DSCN2759", "mobile:safaricom": "Full", "mobile:zain": "Full", "name": "Chesiywo S.A. Primary School", "operational_status:electricity": "never", "polling_station": "yes", "polling_station:id": "168/013", "polling_station:number": "13", "practicability:foot": "yes", "practicability:motorbike": "yes", "watsan:toilet_public": "yes"}}, {"type": "node", "id": 803881992, "lat": 0.8028728, "lon": 34.5050894, "tags": {"alt_name": "MULATIWA PR. SCH.", "amenity": "school", "constituency": "Chesikak", "education:type": "primary", "media:camera_number": "IMG_0433", "mobile:safaricom": "Full", "mobile:zain": "Full", "name": "The Salvation Army Mulatiwa Primary School", "operational_status:electricity": "never", "polling_station": "yes", "polling_station:id": "168/011", "polling_station:number": "11", "practicability:4wd": "yes", "practicability:foot": "yes", "practicability:motor_vehicle": "yes", "practicability:motorbike": "yes", "watsan:toilet_public": "yes"}}, {"type": "node", "id": 803881993, "lat": 0.8004201, "lon": 34.5174212, "tags": {"alt_name": "CHESIKAK R.C PR. SCH.", "amenity": "school", "constituency": "Chesikak", "education:type": "primary", "media:camera_number": "IMG_0430", "mobile:safaricom": "Full", "mobile:zain": "Full", "name": "Chesikak R.C. Primary School", "operational_status:electricity": "never", "polling_station": "yes", "polling_station:id": "168/012", "polling_station:number": "12", "practicability:4wd": "yes", "practicability:foot": "yes", "practicability:motor_vehicle": "yes", "practicability:motorbike": "yes", "watsan:toilet_public": "yes"}}, {"type": "node", "id": 803881994, "lat": 0.8085639, "lon": 34.5369501, "tags": {"alt_name": "CHEBINYINY TRADING CENTER", "amenity": "school", "constituency": "Chesikak", "education:description": "Trading Center", "education:type": "other", "mobile:safaricom": "Small", "mobile:zain": "Small", "name": "Chebinyiny Trading Center", "operational_status:electricity": "never", "polling_station": "yes", "polling_station:id": "168/108", "polling_station:number": "108", "practicability:foot": "yes", "watsan:toilet_public": "yes"}}, {"type": "node", "id": 803881995, "lat": 0.8178146, "lon": 34.5215946, "tags": {"alt_name": "KIMAMA R.C. PR. SCH.", "amenity": "school", "constituency": "Chesikak", "education:type": "primary", "media:camera_number": "IMG_0464", "mobile:safaricom": "Full", "name": "Kimama R.C. Primary School", "operational_status:electricity": "never", "polling_station": "yes", "polling_station:id": "168/072", "polling_station:number": "72", "practicability:foot": "yes", "watsan:toilet_public": "yes"}}, {"type": "node", "id": 803881996, "lat": 0.8252253, "lon": 34.5336574, "tags": {"alt_name": "KAPKURONGO PR.SCH.", "amenity": "school", "constituency": "Chongeywo", "education:type": "primary", "mobile:safaricom": "Full", "mobile:zain": "Full", "name": "Kapkurongo Primary School", "operational_status:electricity": "never", "polling_station": "yes", "polling_station:id": "168/019", "polling_station:number": "19", "practicability:foot": "yes", "watsan:toilet_public": "yes"}}, {"type": "node", "id": 803881997, "lat": 0.8144723, "lon": 34.5075679, "tags": {"alt_name": "CHEMONDI S.A. PR. SCH.", "amenity": "school", "constituency": "Chesikak", "education:type": "primary", "media:camera_number": "IMG_0434", "mobile:safaricom": "Full", "mobile:zain": "Full", "name": "Chemondi S.A. Primary School", "operational_status:electricity": "never", "polling_station": "yes", "polling_station:id": "168/014", "polling_station:number": "14", "practicability:foot": "yes", "watsan:toilet_public": "yes"}}, {"type": "node", "id": 803881998, "lat": 0.8237946, "lon": 34.5009306, "tags": {"alt_name": "KAPTOBOI R.C. PR. SCH.", "amenity": "school", "constituency": "Sasur", "education:type": "primary", "media:camera_number": "DSCN2770, DSCN2771", "mobile:safaricom": "Full", "mobile:zain": "Full", "name": "The R.C. Kaptoboi Primary School", "operational_status:electricity": "never", "polling_station": "yes", "polling_station:id": "168/009", "polling_station:number": "9", "practicability:4wd": "yes", "practicability:foot": "yes", "practicability:motorbike": "yes", "watsan:toilet_public": "yes"}}, {"type": "node", "id": 803881999, "lat": 0.8369208, "lon": 34.4677536, "tags": {"alt_name": "CHEPTIYA SDA PR.SCH.", "amenity": "school", "constituency": "Cheptais", "education:type": "primary", "media:camera_number": "DSCN2802", "mobile:safaricom": "Full", "mobile:zain": "Full", "name": "Cheptiya S.D.A. Primary School", "operational_status:electricity": "never", "polling_station": "yes", "polling_station:id": "168/104", "polling_station:number": "104", "practicability:foot": "yes", "practicability:motorbike": "yes", "watsan:toilet_public": "yes"}}, {"type": "node", "id": 803882000, "lat": 0.8486776, "lon": 34.4641013, "tags": {"alt_name": "CHESIRO SA PR. SCH.", "amenity": "school", "constituency": "Cheptais", "education:type": "primary", "media:camera_number": "DSCN2788, DSCN2789", "mobile:safaricom": "Full", "mobile:zain": "Full", "name": "Chesiro S.A. Primary School", "operational_status:electricity": "never", "polling_station": "yes", "polling_station:id": "168/82", "polling_station:number": "82", "practicability:4wd": "yes", "practicability:foot": "yes", "practicability:motorbike": "yes", "watsan:toilet_public": "yes"}}, {"type": "node", "id": 803882001, "lat": 0.8381673, "lon": 34.4571381, "tags": {"alt_name": "CHEMUSES RC PR.SCH.", "amenity": "school", "constituency": "Cheptais", "education:type": "primary", "media:camera_number": "DSCN2872, DSCN2873", "mobile:safaricom": "Full", "mobile:zain": "Full", "name": "Chemuses R.C. Primary School", "operational_status:electricity": "never", "polling_station": "yes", "polling_station:id": "168/105", "polling_station:number": "105", "practicability:4wd": "yes", "practicability:foot": "yes", "practicability:motorbike": "yes", "watsan:toilet_public": "yes"}}, {"type": "node", "id": 803882002, "lat": 0.8541233, "lon": 34.4610478, "tags": {"alt_name": "CHEBWEK S.A. PR. SCH.", "amenity": "school", "constituency": "Chepkube", "education:type": "primary", "media:camera_number": "DSCN2800", "mobile:safaricom": "Full", "mobile:zain": "Full", "name": "Chebwek S.A. Primary School", "operational_status:electricity": "never", "polling_station": "yes", "polling_station:id": "168/002", "polling_station:number": "2", "practicability:foot": "yes", "watsan:toilet_public": "yes"}}, {"type": "node", "id": 803882003, "lat": 0.8572488, "lon": 34.4580778, "tags": {"alt_name": "Kuborom Trading Center", "amenity": "school", "constituency": "Chepkube", "education:description": "Trading Center", "education:type": "other", "media:camera_number": "IMG_0469", "mobile:safaricom": "Full", "mobile:zain": "Full", "name": "Kuborom Trading Center", "operational_status:electricity": "never", "polling_station": "yes", "polling_station:id": "168/101", "polling_station:number": "101", "practicability:4wd": "yes", "practicability:foot": "yes", "practicability:motorbike": "yes", "watsan:toilet_public": "yes"}}, {"type": "node", "id": 803882004, "lat": 0.797789, "lon": 34.5686893, "tags": {"alt_name": "SESIK TRADING CTR.", "amenity": "school", "constituency": "Chongeywo", "education:description": "Trading Center", "education:type": "other", "mobile:safaricom": "Null", "mobile:zain": "Small", "name": "Sesik Trading Center", "operational_status:electricity": "never", "polling_station": "yes", "polling_station:id": "168/109", "polling_station:number": "109", "practicability:4wd": "yes", "practicability:foot": "yes", "practicability:motor_vehicle": "yes", "practicability:motorbike": "yes", "watsan:toilet_public": "yes"}}, {"type": "node", "id": 803882005, "lat": 0.8126171, "lon": 34.5609318, "tags": {"alt_name": "CHELEBEI PR.SCH.", "amenity": "school", "constituency": "Chongeywo", "education:type": "primary", "media:camera_number": "DSCN2839, DSCN2842", "mobile:safaricom": "Medium", "mobile:zain": "Full", "name": "Chelebei Primary School", "operational_status:electricity": "never", "polling_station": "yes", "polling_station:id": "168/017", "polling_station:number": "17", "practicability:4wd": "yes", "practicability:foot": "yes", "practicability:motorbike": "yes", "watsan:toilet_public": "yes"}}, {"type": "node", "id": 803882006, "lat": 0.8054186, "lon": 34.5453348, "tags": {"alt_name": "CHONGEYWO PR. SCH.", "amenity": "school", "constituency": "Chongeywo", "education:type": "primary", "media:camera_number": "IMG_0423", "mobile:safaricom": "Full", "mobile:zain": "Full", "name": "Chongeywo Primary School", "operational_status:electricity": "never", "polling_station": "yes", "polling_station:id": "168/018", "polling_station:number": "18", "practicability:foot": "yes", "watsan:toilet_public": "yes"}}, {"type": "node", "id": 803882007, "lat": 0.8029279, "lon": 34.5620197, "tags": {"alt_name": "KIPSABULA PR. SCH.", "amenity": "school", "constituency": "Chongeywo", "education:type": "primary", "maxspeed": "9", "media:camera_number": "IMG_0422", "mobile:safaricom": "Full", "mobile:zain": "Full", "name": "Kipsabula S.A. Primary School", "operational_status:electricity": "never", "polling_station": "yes", "polling_station:id": "168/073", "polling_station:number": "73", "practicability:4wd": "yes", "practicability:foot": "yes", "practicability:motorbike": "yes", "watsan:toilet_public": "yes"}}, {"type": "node", "id": 803882008, "lat": 0.8060985, "lon": 34.5791938, "tags": {"alt_name": "MASAEK PR.SCH.", "amenity": "school", "constituency": "Chongeywo", "education:type": "primary", "media:camera_number": "DSCN2663, DSCN2664", "mobile:safaricom": "Small", "mobile:zain": "Full", "name": "Masaek S.A. Boarding Primary School", "operational_status:electricity": "never", "polling_station": "yes", "polling_station:id": "168/020", "polling_station:number": "20", "practicability:4wd": "yes", "practicability:foot": "yes", "practicability:motorbike": "yes", "watsan:toilet_public": "yes"}}, {"type": "node", "id": 803882010, "lat": 0.8237928, "lon": 34.5438032, "tags": {"alt_name": "RWANDA SA PR.SCH.", "amenity": "school", "constituency": "Chongeywo", "education:type": "primary", "maxspeed": "10", "media:camera_number": "DSCN2822", "mobile:safaricom": "Null", "mobile:zain": "Small", "name": "Rwanda S.A. Primary School", "operational_status:electricity": "never", "polling_station": "yes", "polling_station:id": "168/074", "polling_station:number": "74", "practicability:foot": "yes", "practicability:motorbike": "yes", "watsan:toilet_public": "yes"}}, {"type": "node", "id": 803882011, "lat": 0.813121, "lon": 34.5499222, "tags": {"alt_name": "MATEKA NUR. SCH.", "amenity": "school", "constituency": "Chongeywo", "education:type": "nursery", "maxspeed": "10", "media:camera_number": "DSCN2845", "mobile:safaricom": "Medium", "mobile:zain": "Medium", "name": "Mateka Nursery School", "operational_status:electricity": "never", "polling_station": "yes", "polling_station:id": "168/085", "polling_station:number": "85", "practicability:foot": "yes", "practicability:motorbike": "yes", "watsan:toilet_public": "yes"}}, {"type": "node", "id": 803882012, "lat": 0.8183115, "lon": 34.5764395, "tags": {"alt_name": "KEEWAN-KOY PR. SCH.", "amenity": "school", "constituency": "Emmia", "education:type": "primary", "media:camera_number": "IMG_0408", "mobile:safaricom": "Full", "mobile:zain": "Full", "name": "Keewan-koy (Kewaanikooy) Primary School", "operational_status:electricity": "never", "polling_station": "yes", "polling_station:id": "168/077", "polling_station:number": "77", "practicability:4wd": "yes", "practicability:foot": "yes", "practicability:motor_vehicle": "yes", "practicability:motorbike": "yes", "watsan:toilet_public": "yes"}}, {"type": "node", "id": 803882013, "lat": 0.8301257, "lon": 34.5603398, "tags": {"alt_name": "KEBEE PR. SCH.", "amenity": "school", "constituency": "Emmia", "education:type": "primary", "media:camera_number": "DSCN2809", "mobile:safaricom": "Null", "mobile:zain": "Small", "name": "The Salvation Army Kebee Primary School", "operational_status:electricity": "never", "polling_station": "yes", "polling_station:id": "168/035", "polling_station:number": "35", "practicability:4wd": "yes", "practicability:foot": "yes", "practicability:motorbike": "yes", "watsan:toilet_public": "yes"}}, {"type": "node", "id": 803882014, "lat": 0.7940428, "lon": 34.593181, "tags": {"alt_name": "TEREM S.A. PR. SCH.", "amenity": "school", "constituency": "Kapkateny", "education:type": "primary", "media:camera_number": "IMG_0409", "mobile:safaricom": "Medium", "mobile:zain": "Full", "name": "Terem S.A. Primary School", "operational_status:electricity": "never", "polling_station": "yes", "polling_station:id": "168/023", "polling_station:number": "23", "practicability:4wd": "yes", "practicability:foot": "yes", "practicability:motor_vehicle": "yes", "practicability:motorbike": "yes", "watsan:toilet_public": "yes"}}, {"type": "node", "id": 803882015, "lat": 0.8088873, "lon": 34.6026954, "tags": {"alt_name": "CHEBICH PR. SCH.", "amenity": "school", "constituency": "Kapkateny", "education:type": "primary", "media:camera_number": "IMG_0414", "mobile:safaricom": "Full", "mobile:zain": "Full", "name": "Chebich R.C. Primary School", "operational_status:electricity": "never", "polling_station": "yes", "polling_station:id": "168/022", "polling_station:number": "22", "practicability:4wd": "yes", "practicability:foot": "yes", "practicability:motor_vehicle": "yes", "practicability:motorbike": "yes", "watsan:toilet_public": "yes"}}, {"type": "node", "id": 803882016, "lat": 0.7940326, "lon": 34.5931772, "tags": {"alt_name": "KAPSAMBU PR. SCH.", "amenity": "school", "constituency": "Kapkateny", "education:type": "primary", "media:camera_number": "IMG_0410", "mobile:safaricom": "Full", "mobile:zain": "Medium", "name": "Kapsambu Primary School", "operational_status:electricity": "never", "polling_station": "yes", "polling_station:id": "168/024", "polling_station:number": "24", "practicability:foot": "yes", "practicability:motorbike": "yes", "watsan:toilet_public": "yes"}}, {"type": "node", "id": 803882017, "lat": 0.8007574, "lon": 34.6218992, "tags": {"alt_name": "KAPKATENY PR. SCH.", "amenity": "school", "constituency": "Kapkateny", "education:type": "primary", "media:camera_number": "DSCN2692, DSCN2693", "mobile:safaricom": "Full", "mobile:zain": "Full", "name": "Kapkateny A.C.K. Primary School", "operational_status:electricity": "always", "polling_station": "yes", "polling_station:id": "168/025", "polling_station:number": "25", "practicability:4wd": "yes", "practicability:foot": "yes", "practicability:motor_vehicle": "yes", "practicability:motorbike": "yes", "watsan:toilet_public": "yes"}}, {"type": "node", "id": 803882019, "lat": 0.8172191, "lon": 34.6108251, "tags": {"alt_name": "KAPKEKE ECD. NUR. SCH.", "amenity": "school", "constituency": "Kapkateny", "education:type": "nursery", "maxspeed": "10", "media:camera_number": "DSCN2636", "mobile:safaricom": "Full", "mobile:zain": "Full", "name": "Kapkege E.C.D. Nursery School", "operational_status:electricity": "never", "polling_station": "yes", "polling_station:id": "168/110", "polling_station:number": "110", "practicability:foot": "yes", "watsan:toilet_public": "yes"}}, {"type": "node", "id": 803882020, "lat": 0.8216643, "lon": 34.6011357, "tags": {"alt_name": "TOYWONDET PR. SCH.", "amenity": "school", "constituency": "Kapkateny", "education:type": "primary", "media:camera_number": "DSCN2642, DSCN2643, DSCN2644", "mobile:safaricom": "Full", "mobile:zain": "Full", "name": "Toywondet A.C.K. Primary School", "operational_status:electricity": "never", "polling_station": "yes", "polling_station:id": "168/021", "polling_station:number": "21", "practicability:4wd": "yes", "practicability:foot": "yes", "practicability:motorbike": "yes", "watsan:toilet_public": "yes"}}, {"type": "node", "id": 803882021, "lat": 0.8232768, "lon": 34.591725, "tags": {"alt_name": "KOPSIRO PR. SCH.", "amenity": "school", "constituency": "Chepyuk", "education:type": "primary", "media:camera_number": "IMG_0407", "mobile:safaricom": "Full", "mobile:zain": "Full", "name": "Kopsiro S.A. Primary School", "operational_status:electricity": "never", "polling_station": "yes", "polling_station:id": "168/075", "polling_station:number": "75", "practicability:4wd": "yes", "practicability:foot": "yes", "practicability:motor_vehicle": "yes", "practicability:motorbike": "yes", "watsan:toilet_public": "yes"}}, {"type": "node", "id": 803882022, "lat": 0.8207574, "lon": 34.6181881, "tags": {"alt_name": "CHEPTONON PR. SCH.", "amenity": "school", "constituency": "Kapkateny", "education:type": "primary", "media:camera_number": "DSCN2626", "mobile:safaricom": "Full", "mobile:zain": "Full", "name": "Cheptonon R.C. Primary School", "operational_status:electricity": "never", "polling_station": "yes", "polling_station:id": "168/026", "polling_station:number": "26", "practicability:4wd": "yes", "practicability:foot": "yes", "practicability:motor_vehicle": "yes", "practicability:motorbike": "yes", "watsan:toilet_public": "yes"}}, {"type": "node", "id": 803882023, "lat": 0.8323014, "lon": 34.6112724, "tags": {"alt_name": "CHEPCHABAI AIC PR. SCH.", "amenity": "school", "constituency": "Kapkateny", "education:type": "primary", "media:camera_number": "IMG_0395", "mobile:safaricom": "Full", "mobile:zain": "Full", "name": "Chepchabai (A.I.C.) Primary School", "operational_status:electricity": "never", "polling_station": "yes", "polling_station:id": "168/087", "polling_station:number": "87", "practicability:foot": "yes", "practicability:motorbike": "yes", "watsan:toilet_public": "yes"}}, {"type": "node", "id": 803882024, "lat": 0.8552225, "lon": 34.6143642, "tags": {"alt_name": "KAIMUGUL PR. SCH.", "amenity": "school", "constituency": "Chepyuk", "education:type": "primary", "maxspeed": "10", "media:camera_number": "IMG_0397", "mobile:safaricom": "Full", "mobile:zain": "Medium", "name": "Kaimugul R.C. Primary School", "operational_status:electricity": "never", "polling_station": "yes", "polling_station:id": "168/076", "polling_station:number": "76", "practicability:4wd": "yes", "practicability:foot": "yes", "practicability:motor_vehicle": "yes", "practicability:motorbike": "yes", "watsan:toilet_public": "yes"}}, {"type": "node", "id": 803882025, "lat": 0.839432, "lon": 34.6052465, "tags": {"alt_name": "KAPSOGOM PR. SCH.", "amenity": "school", "constituency": "Chepyuk", "education:type": "primary", "media:camera_number": "IMG_0396", "mobile:safaricom": "Medium", "mobile:zain": "Full", "name": "Kapsogom A.C.K. Primary School", "operational_status:electricity": "never", "polling_station": "yes", "polling_station:id": "168/031", "polling_station:number": "31", "practicability:foot": "yes", "practicability:motorbike": "yes", "watsan:toilet_public": "yes"}}, {"type": "node", "id": 803882026, "lat": 0.8389176, "lon": 34.5907231, "tags": {"alt_name": "CHEPTOROR PR. SCH.", "amenity": "school", "constituency": "Chepyuk", "education:type": "primary", "media:camera_number": "DSCN2657", "mobile:safaricom": "Full", "mobile:zain": "Full", "name": "Cheptoror Primary School", "operational_status:electricity": "never", "polling_station": "yes", "polling_station:id": "168/030", "polling_station:number": "30", "practicability:4wd": "yes", "practicability:foot": "yes", "practicability:motorbike": "yes", "watsan:toilet_public": "yes"}}, {"type": "node", "id": 803882027, "lat": 0.8549892, "lon": 34.5949892, "tags": {"alt_name": "KIBUMET PR. SCH.", "amenity": "school", "constituency": "Chepyuk", "education:type": "primary", "maxspeed": "10", "media:camera_number": "DSCN2646", "mobile:safaricom": "Medium", "name": "Kibumet Primary School", "operational_status:electricity": "never", "polling_station": "yes", "polling_station:id": "168/090", "polling_station:number": "90", "practicability:foot": "yes", "practicability:motorbike": "yes", "watsan:toilet_public": "yes"}}, {"type": "node", "id": 803882029, "lat": 0.8767712, "lon": 34.5895167, "tags": {"alt_name": "CHEPYUK PR. SCH.", "amenity": "school", "constituency": "Chepyuk", "education:type": "primary", "media:camera_number": "IMG_0405", "name": "Chepyuk Primary School", "operational_status:electricity": "never", "polling_station": "yes", "polling_station:id": "168/029", "polling_station:number": "29", "practicability:4wd": "yes", "practicability:foot": "yes", "practicability:motorbike": "yes", "watsan:toilet_public": "yes"}}, {"type": "node", "id": 803882030, "lat": 0.8375226, "lon": 34.5733045, "tags": {"alt_name": "KABUKWO PR. SCH.", "amenity": "school", "constituency": "Chepyuk", "education:type": "primary", "media:camera_number": "IMG_0463", "name": "Kabukwo Primary School", "operational_status:electricity": "never", "polling_station": "yes", "polling_station:id": "168/028", "polling_station:number": "28", "practicability:4wd": "yes", "practicability:foot": "yes", "practicability:motorbike": "yes", "watsan:toilet_public": "yes"}}, {"type": "node", "id": 803882031, "lat": 0.8696258, "lon": 34.5579756, "tags": {"alt_name": "KUBURA PR. SCH.", "amenity": "school", "constituency": "Chepyuk", "education:type": "primary", "media:camera_number": "IMG_0461", "name": "Kubura Primary School", "operational_status:electricity": "never", "polling_station": "yes", "polling_station:id": "168/027", "polling_station:number": "27", "practicability:4wd": "yes", "practicability:foot": "yes", "practicability:motorbike": "yes", "watsan:toilet_public": "yes"}}, {"type": "node", "id": 803882032, "lat": 0.8610791, "lon": 34.5666591, "tags": {"alt_name": "KAPKISEI PR. SCH.", "amenity": "school", "constituency": "Chepyuk", "education:type": "primary", "media:camera_number": "IMG_0462", "name": "Kapkisei A.I.C. Primary School", "operational_status:electricity": "never", "polling_station": "yes", "polling_station:id": "168/088", "polling_station:number": "88", "practicability:4wd": "yes", "practicability:foot": "yes", "practicability:motorbike": "yes", "watsan:toilet_public": "yes"}}, {"type": "node", "id": 803882033, "lat": 0.8752086, "lon": 34.5744742, "tags": {"alt_name": "SOSAP-LEL PR. SCH.", "amenity": "school", "constituency": "Chepyuk", "education:type": "primary", "media:camera_number": "DSCN2715", "name": "Saosap-lel (Sosap-lel) Primary School", "operational_status:electricity": "never", "polling_station": "yes", "polling_station:id": "168/089", "polling_station:number": "89", "practicability:foot": "yes", "watsan:toilet_public": "yes"}}, {"type": "node", "id": 803882034, "lat": 0.8460826, "lon": 34.5481233, "tags": {"alt_name": "KAPCHEBUK PR. SCH.", "amenity": "school", "constituency": "Emmia", "education:type": "primary", "maxspeed": "10", "media:camera_number": "DSCN2814", "name": "Kapchebuk Primary School - BURNED", "polling_station": "yes", "polling_station:id": "168/092", "polling_station:number": "92", "practicability:4wd": "yes", "practicability:foot": "yes", "practicability:motorbike": "yes"}}, {"type": "node", "id": 803882035, "lat": 0.8068514, "lon": 34.6912679, "tags": {"alt_name": "KAPTOLA F.Y.M. PR. SCH.", "amenity": "school", "constituency": "Nomorio", "education:type": "primary", "media:camera_number": "DSCN2700, DSCN2701", "mobile:safaricom": "Small", "mobile:zain": "Full", "name": "Kaptola F.Y.M. Primary School", "operational_status:electricity": "always", "polling_station": "yes", "polling_station:id": "168/042", "polling_station:number": "42", "practicability:4wd": "yes", "practicability:foot": "yes", "practicability:motor_vehicle": "yes", "practicability:motorbike": "yes", "watsan:toilet_public": "yes"}}, {"type": "node", "id": 803882036, "lat": 0.8167297, "lon": 34.7056365, "tags": {"alt_name": "TENDET R.C. PR. SCH.", "amenity": "school", "constituency": "Elgon", "education:type": "primary", "media:camera_number": "DSCN2703", "mobile:safaricom": "Full", "mobile:zain": "Full", "name": "Tendet (Tentet) R.C. Primary School", "operational_status:electricity": "always", "polling_station": "yes", "polling_station:id": "168/048", "polling_station:number": "48", "practicability:4wd": "yes", "practicability:foot": "yes", "practicability:motor_vehicle": "yes", "practicability:motorbike": "yes", "watsan:toilet_public": "yes"}}, {"type": "node", "id": 803882037, "lat": 0.8317804, "lon": 34.6356071, "tags": {"alt_name": "KAMNERU PR. SCH.", "amenity": "school", "constituency": "Nomorio", "education:type": "primary", "media:camera_number": "IMG_0393", "mobile:safaricom": "Full", "mobile:zain": "Full", "name": "Kamneru (Kamuneru) Primary School", "operational_status:electricity": "never", "polling_station": "yes", "polling_station:id": "168/037", "polling_station:number": "37", "practicability:4wd": "yes", "practicability:foot": "yes", "practicability:motorbike": "yes", "watsan:toilet_public": "yes"}}, {"type": "node", "id": 803882038, "lat": 0.8208614, "lon": 34.6499731, "tags": {"alt_name": "MAKUNGA PR. SCH.", "amenity": "school", "constituency": "Nomorio", "education:type": "primary", "media:camera_number": "IMG_0390, IMG_0391", "mobile:safaricom": "Full", "mobile:zain": "Full", "name": "Makunga Primary School", "operational_status:electricity": "never", "polling_station": "yes", "polling_station:id": "168/096", "polling_station:number": "96", "practicability:foot": "yes", "practicability:motorbike": "yes", "watsan:toilet_public": "yes"}}, {"type": "node", "id": 803882039, "lat": 0.8143783, "lon": 34.6765014, "tags": {"alt_name": "CHOROMIS R.C. PR. SCH.", "amenity": "school", "constituency": "Nomorio", "education:type": "primary", "media:camera_number": "IMG_0416", "name": "Choromis R.C. Primary School", "operational_status:electricity": "never", "polling_station": "yes", "polling_station:id": "168/044", "polling_station:number": "44", "practicability:foot": "yes", "practicability:motorbike": "yes", "watsan:toilet_public": "yes"}}, {"type": "node", "id": 803882040, "lat": 0.8119236, "lon": 34.637699, "tags": {"alt_name": "SACHO PR. SCH.", "amenity": "school", "constituency": "Nomorio", "education:type": "primary", "media:camera_number": "IMG_0415", "mobile:safaricom": "Full", "mobile:zain": "Full", "name": "Sacho Primary School", "operational_status:electricity": "never", "polling_station": "yes", "polling_station:id": "168/038", "polling_station:number": "38", "practicability:4wd": "yes", "practicability:foot": "yes", "practicability:motorbike": "yes", "watsan:toilet_public": "yes"}}, {"type": "node", "id": 803882041, "lat": 0.800379, "lon": 34.6426306, "tags": {"alt_name": "SANGO PR. SCH.", "amenity": "school", "constituency": "Nomorio", "education:type": "primary", "media:camera_number": "DSCN2698", "mobile:safaricom": "Full", "mobile:zain": "Full", "name": "Sango P.C.U. Primary School", "operational_status:electricity": "never", "polling_station": "yes", "polling_station:id": "168/095", "polling_station:number": "95", "practicability:4wd": "yes", "practicability:foot": "yes", "practicability:motor_vehicle": "yes", "practicability:motorbike": "yes", "watsan:toilet_public": "yes"}}, {"type": "node", "id": 803882042, "lat": 0.8227895, "lon": 34.6383209, "tags": {"alt_name": "KIPSOEN PR. SCH.", "amenity": "school", "constituency": "Nomorio", "education:type": "primary", "media:camera_number": "DSCN2623, DSCN2624", "mobile:safaricom": "Medium", "mobile:zain": "Medium", "name": "Kipsoen S.D.A. Primary School", "operational_status:electricity": "never", "polling_station": "yes", "polling_station:id": "168/094", "polling_station:number": "94", "practicability:4wd": "yes", "practicability:foot": "yes", "practicability:motor_vehicle": "yes", "practicability:motorbike": "yes", "watsan:toilet_public": "yes"}}, {"type": "node", "id": 803882046, "lat": 0.821954, "lon": 34.6673772, "tags": {"amenity": "school", "constituency": "Nomorio", "education:type": "primary", "media:camera_number": "DSCN2613, DSCN2614", "mobile:safaricom": "Full", "mobile:zain": "Full", "operational_status:electricity": "never", "practicability:foot": "yes", "watsan:toilet_public": "yes"}}, {"type": "node", "id": 803882052, "lat": 0.8276425, "lon": 34.6588099, "tags": {"alt_name": "SENDERA S.A. PR. SCH.", "amenity": "school", "constituency": "Nomorio", "education:type": "primary", "media:camera_number": "IMG_0389", "mobile:safaricom": "Full", "mobile:zain": "Full", "name": "Sendera S.A. Primary School", "operational_status:electricity": "never", "polling_station": "yes", "polling_station:id": "168/039", "polling_station:number": "39", "practicability:4wd": "yes", "practicability:foot": "yes", "practicability:motor_vehicle": "yes", "practicability:motorbike": "yes", "watsan:toilet_public": "yes"}}, {"type": "node", "id": 803882054, "lat": 0.8364654, "lon": 34.6898676, "tags": {"alt_name": "KIMOBO F.Y.M. PR. SCH.", "amenity": "school", "constituency": "Elgon", "education:type": "primary", "media:camera_number": "DSCN2606", "mobile:safaricom": "Full", "mobile:zain": "Full", "name": "Kimobo F.Y.I. Primary School", "operational_status:electricity": "always", "polling_station": "yes", "polling_station:id": "168/049", "polling_station:number": "49", "practicability:4wd": "yes", "practicability:foot": "yes", "practicability:motor_vehicle": "yes", "practicability:motorbike": "yes", "watsan:toilet_public": "yes"}}, {"type": "node", "id": 803882058, "lat": 0.8393303, "lon": 34.6717161, "tags": {"alt_name": "NOMORIO R.C. PR. SCH.", "amenity": "school", "constituency": "Nomorio", "education:type": "primary", "maxspeed": "10", "media:camera_number": "DSCN2609", "mobile:safaricom": "Full", "mobile:zain": "Full", "name": "Nomorio (Namorio) R.C. Primary School", "operational_status:electricity": "never", "polling_station": "yes", "polling_station:id": "168/043", "polling_station:number": "43", "practicability:4wd": "yes", "practicability:foot": "yes", "practicability:motorbike": "yes", "watsan:toilet_public": "yes"}}, {"type": "node", "id": 803882059, "lat": 0.8349929, "lon": 34.6482685, "tags": {"alt_name": "SAMBOCHO PR. SCH.", "amenity": "school", "constituency": "Nomorio", "education:type": "primary", "media:camera_number": "DSCN2617, DSCN2619, DSCN2620, DSCN2621", "mobile:safaricom": "Small", "mobile:zain": "Small", "name": "Sambocho R.C.I. Primary School", "operational_status:electricity": "never", "polling_station": "yes", "polling_station:id": "168/040", "polling_station:number": "40", "practicability:foot": "yes", "practicability:motorbike": "yes", "watsan:toilet_public": "yes"}}, {"type": "node", "id": 803882060, "lat": 0.8543438, "lon": 34.6692781, "tags": {"alt_name": "KIBYETO PR. SCH.", "amenity": "school", "constituency": "Nomorio", "education:type": "primary", "media:camera_number": "DSCN2596", "mobile:safaricom": "Full", "mobile:zain": "Full", "name": "Kimkung Kipyeto A.I.C. Primary School", "operational_status:electricity": "never", "polling_station": "yes", "polling_station:id": "168/097", "polling_station:number": "97", "practicability:4wd": "yes", "practicability:foot": "yes", "practicability:motor_vehicle": "yes", "practicability:motorbike": "yes", "watsan:toilet_public": "yes"}}, {"type": "node", "id": 803882061, "lat": 0.8417261, "lon": 34.6592688, "tags": {"alt_name": "KOSHOK R.C. PR. SCH.", "amenity": "school", "constituency": "Nomorio", "education:type": "primary", "media:camera_number": "DSCN2602", "mobile:safaricom": "Medium", "mobile:zain": "Medium", "name": "Koshok R.C. Primary School", "operational_status:electricity": "never", "polling_station": "yes", "polling_station:id": "168/041", "polling_station:number": "41", "practicability:foot": "yes", "practicability:motorbike": "yes", "watsan:toilet_public": "yes"}}, {"type": "node", "id": 803882062, "lat": 0.8595416, "lon": 34.6913687, "tags": {"alt_name": "KABERWA R.C. PR. SCH.", "amenity": "school", "constituency": "Elgon", "education:type": "primary", "media:camera_number": "DSCN2586", "mobile:safaricom": "Full", "mobile:zain": "Full", "name": "Kaberwa R.C. Primary School", "operational_status:electricity": "always", "polling_station": "yes", "polling_station:id": "168/047", "polling_station:number": "47", "practicability:4wd": "yes", "practicability:foot": "yes", "practicability:motorbike": "yes", "watsan:toilet_public": "yes"}}, {"type": "node", "id": 803882063, "lat": 0.849741, "lon": 34.6805961, "tags": {"alt_name": "KIPKAMA FYM PR. SCH.", "amenity": "school", "constituency": "Elgon", "education:type": "primary", "media:camera_number": "DSCN2594", "mobile:safaricom": "Full", "mobile:zain": "Full", "name": "Kipkama F.Y.M. Primary School", "operational_status:electricity": "never", "polling_station": "yes", "polling_station:id": "168/113", "polling_station:number": "113", "practicability:4wd": "yes", "practicability:foot": "yes", "practicability:motor_vehicle": "yes", "practicability:motorbike": "yes", "watsan:toilet_public": "yes"}}, {"type": "node", "id": 803882064, "lat": 0.8430746, "lon": 34.7147217, "tags": {"alt_name": "KAPSOKWONY PR. SCH.", "amenity": "school", "constituency": "Elgon", "education:type": "primary", "media:camera_number": "DSCN2883, DSCN2884", "mobile:safaricom": "Full", "mobile:zain": "Full", "name": "Kapsokwony Primary School", "operational_status:electricity": "always", "polling_station": "yes", "polling_station:id": "168/045", "polling_station:number": "45", "practicability:4wd": "yes", "practicability:foot": "yes", "practicability:motor_vehicle": "yes", "practicability:motorbike": "yes", "watsan:toilet_public": "yes"}}, {"type": "node", "id": 803882065, "lat": 0.8592884, "lon": 34.7068534, "tags": {"alt_name": "BUGAA PR. SCH.", "amenity": "school", "constituency": "Elgon", "education:type": "primary", "media:camera_number": "DSCN2423, DSCN2424, DSCN2425", "mobile:safaricom": "Medium", "mobile:zain": "Medium", "name": "Bugaa Primary School", "operational_status:electricity": "never", "polling_station": "yes", "polling_station:id": "168/069", "polling_station:number": "69", "practicability:4wd": "yes", "practicability:foot": "yes", "practicability:motorbike": "yes", "watsan:toilet_public": "yes"}}, {"type": "node", "id": 803882066, "lat": 0.8440357, "lon": 34.6992201, "tags": {"alt_name": "KIBUK R.C. PR. SCH.", "amenity": "school", "constituency": "Elgon", "education:type": "primary", "media:camera_number": "DSCN2584", "mobile:safaricom": "Full", "mobile:zain": "Full", "name": "Kibuk R.C. Primary School", "operational_status:electricity": "always", "polling_station": "yes", "polling_station:id": "168/046", "polling_station:number": "46", "practicability:4wd": "yes", "practicability:foot": "yes", "practicability:motor_vehicle": "yes", "practicability:motorbike": "yes", "watsan:toilet_public": "yes"}}, {"type": "node", "id": 803882067, "lat": 0.8297634, "lon": 34.7253585, "tags": {"alt_name": "KIMKUNG PR. SCH.", "amenity": "school", "constituency": "Elgon", "education:type": "primary", "media:camera_number": "DSCN2577, DSCN2578, DSCN2579", "mobile:safaricom": "Medium", "mobile:zain": "Full", "name": "Kimkung S.D.A. Primary School", "operational_status:electricity": "never", "polling_station": "yes", "polling_station:id": "168/070", "polling_station:number": "70", "practicability:4wd": "yes", "practicability:foot": "yes", "practicability:motor_vehicle": "yes", "practicability:motorbike": "yes", "watsan:toilet_public": "yes"}}, {"type": "node", "id": 803882068, "lat": 0.8549444, "lon": 34.7199126, "tags": {"alt_name": "CHEMWEISUS S.A. PR.SCH.", "amenity": "school", "constituency": "Elgon", "education:type": "primary", "media:camera_number": "DSCN2428, DSCN2429", "mobile:safaricom": "Full", "mobile:zain": "Full", "name": "Chemweisus S.A. Primary School", "operational_status:electricity": "never", "polling_station": "yes", "polling_station:id": "168/050", "polling_station:number": "50", "practicability:4wd": "yes", "practicability:foot": "yes", "practicability:motorbike": "yes", "watsan:toilet_public": "yes"}}, {"type": "node", "id": 803882069, "lat": 0.8698843, "lon": 34.7304312, "tags": {"alt_name": "CHEMWOREMO PR. SCH.", "amenity": "school", "constituency": "Elgon", "education:type": "primary", "media:camera_number": "DSCN2443", "mobile:safaricom": "Full", "mobile:zain": "Full", "name": "Chemoremwo (Chemworemo) Primary School", "operational_status:electricity": "never", "polling_station": "yes", "polling_station:id": "168/051", "polling_station:number": "51", "practicability:4wd": "yes", "practicability:foot": "yes", "practicability:motorbike": "yes", "watsan:toilet_public": "yes"}}, {"type": "node", "id": 803882070, "lat": 0.8523446, "lon": 34.7319255, "tags": {"alt_name": "CHEMSES PR. SCH.", "amenity": "school", "constituency": "Chemoge", "education:type": "primary", "media:camera_number": "DSCN2452, DSCN2453, DSCN2454", "mobile:safaricom": "Full", "mobile:zain": "Full", "name": "Chemses R.C. Primary School", "operational_status:electricity": "never", "polling_station": "yes", "polling_station:id": "168/058", "polling_station:number": "58", "practicability:4wd": "yes", "practicability:foot": "yes", "practicability:motorbike": "yes", "watsan:toilet_public": "yes"}}, {"type": "node", "id": 803882072, "lat": 0.8586256, "lon": 34.7608624, "tags": {"alt_name": "KIPTIROKO VILLAGE POLY.", "amenity": "school", "constituency": "Chemoge", "education:type": "technical", "media:camera_number": "DSCN2465", "mobile:safaricom": "Small", "mobile:zain": "Medium", "name": "Kiptiroko Village Polytechnic", "operational_status:electricity": "always", "polling_station": "yes", "polling_station:id": "168/068", "polling_station:number": "68", "practicability:4wd": "yes", "practicability:foot": "yes", "practicability:motorbike": "yes", "watsan:toilet_public": "yes"}}, {"type": "node", "id": 803882073, "lat": 0.8588946, "lon": 34.7611623, "tags": {"amenity": "school", "constituency": "Chemoge", "education:type": "secondary", "media:camera_number": "DSCN2463, DSCN2464", "mobile:safaricom": "Small", "mobile:zain": "Medium", "name": "Chemoge Secondary School", "operational_status:electricity": "always", "practicability:4wd": "yes", "practicability:foot": "yes", "practicability:motorbike": "yes", "watsan:toilet_public": "yes"}}, {"type": "node", "id": 803882074, "lat": 0.857585, "lon": 34.7508859, "tags": {"alt_name": "CHEMOGE PR.SCH.", "amenity": "school", "constituency": "Chemoge", "education:type": "primary", "media:camera_number": "DSCN2470, DSCN2471", "mobile:safaricom": "Full", "mobile:zain": "Full", "name": "Chemoge Primary School", "operational_status:electricity": "never", "polling_station": "yes", "polling_station:id": "168/056", "polling_station:number": "56", "practicability:4wd": "yes", "practicability:foot": "yes", "practicability:motorbike": "yes", "watsan:toilet_public": "yes"}}, {"type": "node", "id": 803882076, "lat": 0.8506538, "lon": 34.7734376, "tags": {"alt_name": "KAMENJO PR. SCH.", "amenity": "school", "constituency": "Kaptama", "education:type": "primary", "media:camera_number": "DSCN2568", "mobile:safaricom": "Small", "mobile:zain": "Medium", "name": "Kamenjo A.C.K. Primary School", "operational_status:electricity": "never", "polling_station": "yes", "polling_station:id": "168/067", "polling_station:number": "67", "practicability:4wd": "yes", "practicability:foot": "yes", "practicability:motorbike": "yes", "watsan:toilet_public": "yes"}}, {"type": "node", "id": 803882077, "lat": 0.8390202, "lon": 34.747118, "tags": {"alt_name": "KIPCHIRIA PR. SCH.", "amenity": "school", "constituency": "Chemoge", "education:type": "primary", "media:camera_number": "DSCN2573, DSCN2574", "mobile:safaricom": "Full", "mobile:zain": "Full", "name": "Kipchiria A.C.K. Primary School", "operational_status:electricity": "never", "polling_station": "yes", "polling_station:id": "168/057", "polling_station:number": "57", "practicability:4wd": "yes", "practicability:foot": "yes", "practicability:motor_vehicle": "yes", "practicability:motorbike": "yes", "watsan:toilet_public": "yes"}}, {"type": "node", "id": 803882078, "lat": 0.8654404, "lon": 34.7869019, "tags": {"alt_name": "KABOROM PR. SCH.", "amenity": "school", "constituency": "Kaptama", "education:type": "primary", "media:camera_number": "DSCN2558", "mobile:safaricom": "Full", "name": "A.K.C. Kaborom Primary School", "operational_status:electricity": "never", "polling_station": "yes", "polling_station:id": "168/065", "polling_station:number": "65", "practicability:4wd": "yes", "practicability:foot": "yes", "practicability:motorbike": "yes", "watsan:toilet_public": "yes"}}, {"type": "node", "id": 803882079, "lat": 0.8612045, "lon": 34.7731819, "tags": {"alt_name": "TULWO ECD NUR. SCH.", "amenity": "school", "constituency": "Kaptama", "education:type": "nursery", "media:camera_number": "DSCN2560", "mobile:safaricom": "Full", "mobile:zain": "Medium", "name": "Tulwo E.C.D. Nursery School", "operational_status:electricity": "never", "polling_station": "yes", "polling_station:id": "168/117", "polling_station:number": "117", "practicability:foot": "yes", "practicability:motorbike": "yes", "watsan:toilet_public": "yes"}}, {"type": "node", "id": 803882080, "lat": 0.8397472, "lon": 34.7169757, "tags": {"amenity": "school", "constituency": "Elgon", "education:description": "IIEC office", "education:type": "other", "mobile:safaricom": "Full", "mobile:zain": "Full", "name": "IIEC Office", "operational_status:electricity": "always", "practicability:4wd": "yes", "practicability:foot": "yes", "practicability:motor_vehicle": "yes", "practicability:motorbike": "yes"}}, {"type": "node", "id": 803882081, "lat": 0.867476, "lon": 34.741521, "tags": {"alt_name": "KIBEI PR.SCH.", "amenity": "school", "constituency": "Chemoge", "education:type": "primary", "media:camera_number": "DSCN2476, DSCN2477", "mobile:safaricom": "Full", "mobile:zain": "Full", "name": "Kibei Primary School", "operational_status:electricity": "never", "polling_station": "yes", "polling_station:id": "168/053", "polling_station:number": "53", "practicability:4wd": "yes", "practicability:foot": "yes", "practicability:motorbike": "yes", "watsan:toilet_public": "yes"}}, {"type": "node", "id": 803882083, "lat": 0.8808083, "lon": 34.5489803, "tags": {"alt_name": "CHEPKOWO PR. SCH.", "amenity": "school", "constituency": "Emmia", "education:type": "primary", "media:camera_number": "DSCN2859, DSCN2860", "name": "Chepkowo Primary School", "operational_status:electricity": "never", "polling_station": "yes", "polling_station:id": "168/091", "polling_station:number": "91", "practicability:foot": "yes", "practicability:motorbike": "yes", "watsan:toilet_public": "yes"}}, {"type": "node", "id": 803882084, "lat": 0.8827226, "lon": 34.6032979, "tags": {"alt_name": "KIPSIKROK PR. SCH.", "amenity": "school", "constituency": "Chepyuk", "education:type": "primary", "media:camera_number": "IMG_0404", "mobile:safaricom": "Medium", "mobile:zain": "Full", "name": "Kipsikrok Primary School", "operational_status:electricity": "never", "polling_station": "yes", "polling_station:id": "168/032", "polling_station:number": "32", "practicability:4wd": "yes", "practicability:foot": "yes", "practicability:motor_vehicle": "yes", "practicability:motorbike": "yes", "watsan:toilet_public": "yes"}}, {"type": "node", "id": 803882085, "lat": 0.8822556, "lon": 34.7530666, "tags": {"alt_name": "KAPTALELIO PR.SCH.", "amenity": "school", "constituency": "Chemoge", "education:type": "primary", "media:camera_number": "DSCN2494, DSCN2495", "mobile:safaricom": "Small", "mobile:zain": "Medium", "name": "Kaptalelio R.C. Primary School", "operational_status:electricity": "never", "polling_station": "yes", "polling_station:id": "168/054", "polling_station:number": "54", "practicability:4wd": "yes", "practicability:foot": "yes", "practicability:motorbike": "yes", "watsan:toilet_public": "yes"}}, {"type": "node", "id": 803882086, "lat": 0.9007581, "lon": 34.7559945, "tags": {"alt_name": "CHEPKERER PR.SCH.", "amenity": "school", "constituency": "Kaptama", "education:type": "primary", "media:camera_number": "DSCN2502, DSCN2503", "mobile:safaricom": "Full", "name": "Chepkerer F.Y.M. Primary School", "operational_status:electricity": "never", "polling_station": "yes", "polling_station:id": "168/064", "polling_station:number": "64", "practicability:4wd": "yes", "practicability:foot": "yes", "practicability:motorbike": "yes", "watsan:toilet_public": "yes"}}, {"type": "node", "id": 803882087, "lat": 0.8894061, "lon": 34.7301021, "tags": {"alt_name": "KONGIT PR. SCH.", "amenity": "school", "constituency": "Chemoge", "education:type": "primary", "media:camera_number": "DSCN2481", "mobile:safaricom": "Medium", "mobile:zain": "Small", "name": "Kongit Primary School", "operational_status:electricity": "never", "polling_station": "yes", "polling_station:id": "168/052", "polling_station:number": "52", "practicability:4wd": "yes", "practicability:foot": "yes", "practicability:motorbike": "yes", "watsan:toilet_public": "yes"}}, {"type": "node", "id": 803882090, "lat": 0.8908302, "lon": 34.729457, "tags": {"amenity": "school", "constituency": "Chemoge", "education:type": "secondary", "media:camera_number": "DSCN2483", "mobile:safaricom": "Medium", "mobile:zain": "Small", "name": "Kongit Secondary School", "operational_status:electricity": "never", "practicability:4wd": "yes", "practicability:foot": "yes", "practicability:motorbike": "yes", "watsan:toilet_public": "yes"}}, {"type": "node", "id": 803882111, "lat": 0.8826366, "lon": 34.7385599, "tags": {"alt_name": "KEWAAP-PRANG PR.SCH.", "amenity": "school", "constituency": "Chemoge", "education:type": "primary", "media:camera_number": "DSCN2479", "mobile:safaricom": "Medium", "mobile:zain": "Medium", "name": "Kewabrang (Kewaap-Prang) Primary School", "operational_status:electricity": "never", "polling_station": "yes", "polling_station:id": "168/114", "polling_station:number": "114", "practicability:4wd": "yes", "practicability:foot": "yes", "practicability:motorbike": "yes", "watsan:toilet_public": "yes"}}, {"type": "node", "id": 803882121, "lat": 0.9036547, "lon": 34.7453735, "tags": {"alt_name": "CHEPKOYA PR.SCH.", "amenity": "school", "constituency": "Chemoge", "education:type": "primary", "media:camera_number": "DSCN2488, DSCN2489", "name": "Chepkoya Primary School", "operational_status:electricity": "never", "polling_station": "yes", "polling_station:id": "168/055", "polling_station:number": "55", "practicability:4wd": "yes", "practicability:foot": "yes", "practicability:motorbike": "yes", "watsan:toilet_public": "yes"}}, {"type": "node", "id": 803882122, "lat": 0.9125288, "lon": 34.7575111, "tags": {"alt_name": "CHELILDE PR. SCH.", "amenity": "school", "constituency": "Kaboywo", "education:type": "primary", "maxspeed": "10", "media:camera_number": "DSCN2506", "mobile:safaricom": "Full", "mobile:zain": "Full", "name": "Chelilde Primary School", "operational_status:electricity": "never", "polling_station": "yes", "polling_station:id": "168/060", "polling_station:number": "60", "practicability:foot": "yes", "practicability:motorbike": "yes", "watsan:toilet_public": "yes"}}, {"type": "node", "id": 803882124, "lat": 0.9004772, "lon": 34.7796238, "tags": {"alt_name": "CHESINENDE PRI. SCH.", "amenity": "school", "constituency": "Kaboywo", "education:type": "primary", "media:camera_number": "DSCN2542, DSCN2543", "mobile:safaricom": "Medium", "mobile:zain": "Medium", "name": "Friends School Schesinende Primary", "operational_status:electricity": "never", "polling_station": "yes", "polling_station:id": "168/066", "polling_station:number": "66", "practicability:foot": "yes", "practicability:motorbike": "yes", "watsan:toilet_public": "yes"}}, {"type": "node", "id": 803882125, "lat": 0.8793005, "lon": 34.7779368, "tags": {"alt_name": "KAPTAMA PR. SCH.", "amenity": "school", "constituency": "Kaptama", "education:type": "primary", "media:camera_number": "DSCN2547, DSCN2548, DSCN2549, DSCN2550", "mobile:safaricom": "Medium", "mobile:zain": "Medium", "name": "Kaptama Primary School", "operational_status:electricity": "always", "polling_station": "yes", "polling_station:id": "168/063", "polling_station:number": "63", "practicability:4wd": "yes", "practicability:foot": "yes", "practicability:motor_vehicle": "yes", "practicability:motorbike": "yes", "watsan:toilet_public": "yes"}}, {"type": "node", "id": 803882126, "lat": 0.8856715, "lon": 34.7659774, "tags": {"alt_name": "KAPTAMA CO-OP. HALL", "amenity": "school", "constituency": "Kaptama", "education:description": "Community Hall", "education:type": "other", "media:camera_number": "DSCN2552", "mobile:safaricom": "Null", "mobile:zain": "Medium", "name": "Kaptama Co-op Hall", "operational_status:electricity": "always", "polling_station": "yes", "polling_station:id": "168/098", "polling_station:number": "98", "practicability:4wd": "yes", "practicability:foot": "yes", "practicability:motor_vehicle": "yes", "practicability:motorbike": "yes", "watsan:toilet_public": "yes"}}, {"type": "node", "id": 803882127, "lat": 0.9016088, "lon": 34.7628248, "tags": {"alt_name": "KOSTOI ECD NUR. SCH.", "amenity": "school", "constituency": "Kaboywo", "education:type": "nursery", "maxspeed": "10", "media:camera_number": "DSCN2515, DSCN2516", "mobile:safaricom": "Full", "mobile:zain": "Full", "name": "Kostoi Calvary Church (E.C.D. Nursery School)", "operational_status:electricity": "never", "polling_station": "yes", "polling_station:id": "168/115", "polling_station:number": "115", "practicability:foot": "yes", "practicability:motorbike": "yes", "watsan:toilet_public": "yes"}}, {"type": "node", "id": 803882128, "lat": 0.9157815, "lon": 34.7831518, "tags": {"alt_name": "CHESITO PR. SCH.", "amenity": "school", "constituency": "Kaboywo", "education:type": "primary", "media:camera_number": "DSCN2528, DSCN2529, DSCN2530", "mobile:safaricom": "Full", "mobile:zain": "Full", "name": "Chesito R.C. Primary School", "operational_status:electricity": "never", "polling_station": "yes", "polling_station:id": "168/061", "polling_station:number": "61", "practicability:4wd": "yes", "practicability:foot": "yes", "practicability:motorbike": "yes", "watsan:toilet_public": "yes"}}, {"type": "node", "id": 803882129, "lat": 0.9097373, "lon": 34.7935916, "tags": {"alt_name": "KAPCHEBON PR. SCH.", "amenity": "school", "constituency": "Kaboywo", "education:type": "primary", "media:camera_number": "DSCN2535, DSCN2536", "mobile:safaricom": "Full", "mobile:zain": "Full", "name": "Kapchebon F.Y.M. Primary School", "operational_status:electricity": "never", "polling_station": "yes", "polling_station:id": "168/062", "polling_station:number": "62", "practicability:foot": "yes", "practicability:motorbike": "yes", "watsan:toilet_public": "yes"}}, {"type": "node", "id": 803882130, "lat": 0.902606, "lon": 34.7731809, "tags": {"alt_name": "BONDENI TRADING CTR.", "amenity": "school", "constituency": "Kaptama", "education:type": "primary", "media:camera_number": "DSCN2555", "mobile:safaricom": "Null", "mobile:zain": "Medium", "name": "Bondeni Trading Center (Primary School)", "operational_status:electricity": "never", "polling_station": "yes", "polling_station:id": "168/116", "polling_station:number": "116", "practicability:4wd": "yes", "practicability:foot": "yes", "practicability:motorbike": "yes", "watsan:toilet_public": "yes"}}, {"type": "node", "id": 803882132, "lat": 0.9245785, "lon": 34.7476156, "tags": {"alt_name": "KABOYWO PR.SCH.", "amenity": "school", "constituency": "Kaboywo", "education:description": "Also Nursery", "education:type": "primary", "media:camera_number": "DSCN2508, DSCN2509", "name": "Kaboywo F.Y.M. Nursery and Primary School", "operational_status:electricity": "never", "polling_station": "yes", "polling_station:id": "168/059", "polling_station:number": "59", "practicability:4wd": "yes", "practicability:foot": "yes", "practicability:motorbike": "yes", "watsan:toilet_public": "yes"}}, {"type": "node", "id": 1504093874, "lat": 1.0059735, "lon": 34.4018019, "tags": {"addr:city": "Malandu", "addr:county": "Manjiya", "addr:district": "Bududa", "addr:parish": "Bukalasi", "addr:subcounty": "Bukalasi", "amenity": "school", "isced:level": "2;3;4", "name": "Bukalasi Secondary School", "source": "www.ubos.org", "source:date": "2010..2014", "wikidata": "Q23704789"}}, {"type": "node", "id": 1504093881, "lat": 1.0055696, "lon": 34.4021718, "tags": {"addr:city": "Malandu", "addr:county": "Manjiya", "addr:district": "Bududa", "addr:parish": "Bukalasi", "addr:subcounty": "Bukalasi", "amenity": "school", "isced:level": "1", "name": "Bukalasi Primary School", "source": "www.ubos.org", "source:date": "2010..2014", "wikidata": "Q23704792"}}, {"type": "node", "id": 1504093888, "lat": 1.0096398, "lon": 34.3717533, "tags": {"addr:city": "Buwali", "amenity": "school", "isced:level": "1", "name": "Buwali Primary School", "wikidata": "Q23704790"}}, {"type": "node", "id": 1504278900, "lat": 0.8588444, "lon": 34.3986863, "tags": {"addr:city": "Bukiabi", "addr:county": "Bubulo", "addr:district": "Manafwa", "addr:parish": "Bumwoni", "addr:street": "Lwakaka Bumbo Road", "addr:subcounty": "Bumwoni", "amenity": "school", "isced:level": "2;3;4", "name": "Bumbo Senior Secondary School", "note:code": "Secondary School", "source": "www.ubos.org", "source:date": "2010..2014", "wikidata": "Q22296194"}}, {"type": "node", "id": 1504278923, "lat": 0.8618305, "lon": 34.3857385, "tags": {"addr:city": "Namwenula", "addr:county": "Bubulo", "addr:district": "Manafwa", "addr:parish": "Bunanyama", "addr:subcounty": "Bumbo", "amenity": "school", "isced:level": "1", "name": "Buteteya Primary School", "note:code": "Primary School", "note:remarks": "Gov't Aided", "operator:type": "public", "source": "www.ubos.org", "source:date": "2010..2014", "wikidata": "Q22295802"}}, {"type": "node", "id": 1714450920, "lat": 1.0493623, "lon": 34.3880113, "tags": {"amenity": "school", "name": "Bushiyi Vocational School", "wikidata": "Q23704664"}}, {"type": "node", "id": 1714450924, "lat": 1.049597, "lon": 34.3875999, "tags": {"addr:city": "Biwawa", "addr:county": "Manjiya", "addr:district": "Bududa", "addr:parish": "Burafula", "addr:subcounty": "Bushiyi", "amenity": "school", "isced:level": "1", "name": "Foot Primary School", "operator:type": "public", "source": "www.ubos.org", "source:date": "2010..2014", "wikidata": "Q23704668"}}, {"type": "node", "id": 1773900473, "lat": 1.05194, "lon": 34.37873, "tags": {"amenity": "school", "name": "Arlington Academy of Hope"}}, {"type": "node", "id": 1773900487, "lat": 1.0246694, "lon": 34.3531897, "tags": {"addr:city": "Bumakhase", "addr:county": "Manjiya", "addr:district": "Bududa", "addr:parish": "Butiriku", "addr:subcounty": "Bukigai", "amenity": "school", "isced:level": "1", "name": "Bumakhase Primary School", "source": "www.ubos.org", "source:date": "2010..2014", "wikidata": "Q23704784"}}, {"type": "node", "id": 1805173631, "lat": 1.0476836, "lon": 34.3730561, "tags": {"addr:city": "Mafura", "addr:county": "Manjiya", "addr:district": "Bududa", "addr:parish": "Bumwalukani", "addr:subcounty": "Bulucheke", "amenity": "school", "isced:level": "1", "name": "Bumwalukani Primary School", "operator:type": "public", "source": "www.ubos.org", "source:date": "2010..2014", "wikidata": "Q23704636"}}, {"type": "node", "id": 3953636042, "lat": 1.153272, "lon": 34.3677664, "tags": {"addr:city": "Busulani", "amenity": "school", "isced:level": "1", "name": "Budeda Primary School", "wikidata": "Q22680464"}}, {"type": "node", "id": 3953637063, "lat": 1.1556005, "lon": 34.3594415, "tags": {"addr:city": "Busulani", "amenity": "school", "name": "Makuyo Primary School"}}, {"type": "node", "id": 3953637066, "lat": 1.1544108, "lon": 34.3654782, "tags": {"addr:city": "Busulani", "amenity": "school", "isced:level": "0;1", "name": "Mount Zion Nursery and Primary School", "wikidata": "Q22680463"}}, {"type": "node", "id": 3953637073, "lat": 1.1552672, "lon": 34.3592691, "tags": {"addr:city": "Busulani", "amenity": "school", "name": "Seeds of Hope Primary school"}}, {"type": "node", "id": 3953772750, "lat": 0.9200917, "lon": 34.3577981, "tags": {"addr:city": "Wekele", "addr:county": "Bubulo", "addr:district": "Manafwa", "addr:parish": "Buwasu", "addr:subcounty": "Buwabwala", "amenity": "school", "isced:level": "1", "name": "Wekele Primary School", "opening_hours": "Mo-Fr 09:00-17:00", "operator:type": "public", "source": "www.ubos.org", "source:date": "2010..2014", "wikidata": "Q23704778"}}, {"type": "node", "id": 3953786378, "lat": 0.9627143, "lon": 34.373564, "tags": {"addr:city": "Lusalangye", "addr:county": "Bubulo", "addr:district": "Manafwa", "addr:parish": "Bunambale", "addr:subcounty": "Tsekululu", "amenity": "school", "isced:level": "1", "name": "Bunambale Primary School", "opening_hours": "Mo-Fr 08:00-17:00", "operator:type": "public", "source": "www.ubos.org", "source:date": "2010..2014", "wikidata": "Q23704793"}}, {"type": "node", "id": 3954014982, "lat": 1.1292039, "lon": 34.3663898, "tags": {"addr:city": "Zesui", "amenity": "school", "opening_hours": "Mo-Sa 08:00-18:00"}}, {"type": "node", "id": 3954015000, "lat": 1.1255842, "lon": 34.351597, "tags": {"addr:city": "Zesui", "amenity": "school", "opening_hours": "Mo-Sa 08:00-18:00"}}, {"type": "node", "id": 3954015003, "lat": 1.1267019, "lon": 34.3640971, "tags": {"addr:city": "Zesui", "amenity": "school"}}, {"type": "node", "id": 3954015008, "lat": 1.1299297, "lon": 34.3656725, "tags": {"addr:city": "Zesui", "amenity": "school", "opening_hours": "Mo-Sa 08:00-18:00"}}, {"type": "node", "id": 3954783296, "lat": 1.0439052, "lon": 34.3737482, "tags": {"addr:city": "Soola", "addr:county": "Manjiya", "addr:district": "Bududa", "addr:parish": "Bumasata", "addr:subcounty": "Bulucheke", "amenity": "school", "isced:level": "1", "name": "Bumasata Primary School", "operator:type": "public", "source": "www.ubos.org", "source:date": "2010..2014", "wikidata": "Q23704843"}}, {"type": "node", "id": 3954783300, "lat": 1.0327708, "lon": 34.3706423, "tags": {"addr:city": "Bumwalye TRC", "addr:county": "Manjiya", "addr:district": "Bududa", "addr:parish": "Bumwalye", "addr:subcounty": "Bulucheke", "amenity": "school", "isced:level": "1", "name": "Bumwalye Primary School", "operator:type": "public", "religion": "muslim", "source": "www.ubos.org", "source:date": "2010..2014", "wikidata": "Q23704827"}}, {"type": "node", "id": 3954783301, "lat": 0.9984179, "lon": 34.3879795, "tags": {"addr:city": "Bunabumali Lower", "addr:county": "Manjiya", "addr:district": "Bududa", "addr:parish": "Buwali", "addr:subcounty": "Buwali", "amenity": "school", "isced:level": "1", "name": "Bunabumali Good Samaritan Primary School", "opening_hours": "Mo-Fr 09:00-17:00", "operator": "private", "operator:type": "private", "source": "www.ubos.org", "source:date": "2010..2014", "wikidata": "Q23704832"}}, {"type": "node", "id": 3954783302, "lat": 1.0006055, "lon": 34.3872942, "tags": {"addr:city": "Bunabumali Lower", "addr:county": "Manjiya", "addr:district": "Bududa", "addr:parish": "Buwali", "addr:subcounty": "Buwali", "amenity": "school", "building": "school", "building:levels": "1", "building:material": "cement_block", "isced:level": "1", "name": "Bunabumali Primary School", "opening_hours": "Mo-Fr 09:00-17:00", "operator:type": "public", "source": "www.ubos.org", "source:date": "2010..2014", "wikidata": "Q23704830"}}, {"type": "node", "id": 3954783304, "lat": 1.0275921, "lon": 34.3917315, "tags": {"addr:city": "Bumayoka", "addr:street": "Mabono Road", "amenity": "school", "isced:level": "1", "name": "Bunamusi Primary School", "opening_hours": "Mo-Sa 08:00-18:00", "wikidata": "Q23704834"}}, {"type": "node", "id": 3954783305, "lat": 1.0549181, "lon": 34.3549551, "tags": {"addr:city": "Bushika", "amenity": "school", "isced:level": "1", "name": "Busanza Primary School", "opening_hours": "Mo-Sa 08:00-18:00", "wikidata": "Q23675235"}}, {"type": "node", "id": 3954783315, "lat": 0.9955394, "lon": 34.3885272, "tags": {"addr:city": "Bubiita", "addr:county": "Manjiya", "addr:district": "Bududa", "addr:parish": "Shikhulusi", "addr:subcounty": "Bubiita", "amenity": "school", "isced:level": "1", "name": "Busooto Primary School", "opening_hours": "Mo-Fr 09:00-17:00", "source": "www.ubos.org", "source:date": "2010..2014", "wikidata": "Q23704808"}}, {"type": "node", "id": 3954783317, "lat": 1.0007323, "lon": 34.3879474, "tags": {"addr:city": "Buwali", "amenity": "school", "building": "school", "building:levels": "1", "building:material": "cement_block", "isced:level": "1", "name": "Buwali Primary School", "opening_hours": "Mo-Fr 09:00-17:00", "wikidata": "Q23704790"}}, {"type": "node", "id": 3954783322, "lat": 1.0224701, "lon": 34.3773219, "tags": {"addr:city": "Bulukecheke", "amenity": "school", "name": "Green Valley Primary School", "opening_hours": "Mo-Sa 08:00-18:00"}}, {"type": "node", "id": 3954783328, "lat": 1.0597769, "lon": 34.354248, "tags": {"addr:city": "Bushika", "amenity": "school", "isced:level": "1", "name": "Lwaha Primary School", "opening_hours": "Mo-Sa 08:00-18:00", "wikidata": "Q23675228"}}, {"type": "node", "id": 3954783347, "lat": 1.0093381, "lon": 34.3710709, "tags": {"addr:city": "Buwali", "amenity": "school", "building": "school", "building:levels": "1", "building:material": "cement_block", "isced:level": "0;1", "name": "Royal Nursery and Primary School", "opening_hours": "Mo-Fr 09:00-17:00", "wikidata": "Q23704773"}}, {"type": "node", "id": 3954783350, "lat": 1.0225853, "lon": 34.3811262, "tags": {"addr:city": "Bumayoka", "addr:street": "Mabono Road", "amenity": "school", "isced:level": "0;1", "name": "Saint ar Nursery and Primary", "opening_hours": "Mo-Fr 09:00-17:00", "wikidata": "Q23704774"}}, {"type": "node", "id": 3955210555, "lat": 1.1506578, "lon": 34.3863417, "tags": {"addr:city": "Bugitimwa Sub County", "addr:street": "Bugitimwa Road", "amenity": "school", "isced:level": "1", "name": "Bugitimwa Primary School", "opening_hours": "Mo-Fr 09:00-17:00", "wikidata": "Q22680462"}}, {"type": "node", "id": 3955214091, "lat": 0.8316728, "lon": 34.4038697, "tags": {"addr:city": "Khabutayi", "addr:county": "Bubulo", "addr:district": "Manafwa", "addr:parish": "Makhonge", "addr:street": "Manafa road", "addr:subcounty": "Bukiabi", "amenity": "school", "isced:level": "1", "name": "Nabutaro Primary School", "source": "www.ubos.org", "source:date": "2010..2014", "wikidata": "Q22302384"}}, {"type": "node", "id": 3955214094, "lat": 0.8303373, "lon": 34.4040291, "tags": {"addr:city": "Bukiabi", "addr:street": "Leakage Bumbo", "amenity": "school", "name": "Saint Peter and Paul Infant School"}}, {"type": "node", "id": 3955215557, "lat": 1.1550966, "lon": 34.4004939, "tags": {"addr:city": "Bugitimwa Sub County", "addr:street": "Bugoboni Road", "amenity": "school", "name": "Bugoboni Primary School", "opening_hours": "Mo-Fr 09:00-17:00"}}, {"type": "node", "id": 3955247620, "lat": 0.8305685, "lon": 34.3638716, "tags": {"addr:city": "Bumwoni", "addr:street": "Bumomi", "amenity": "school", "isced:level": "2;3;4", "name": "Africana Secondary", "opening_hours": "Mo-Sa 08:00-18:00;24/7"}}, {"type": "node", "id": 3955247627, "lat": 0.833168, "lon": 34.3645565, "tags": {"addr:city": "Bumwoni", "addr:street": "Bumomi", "amenity": "school", "building": "school", "name": "Magale Parents Secondary", "opening_hours": "Mo-Sa 08:00-18:00"}}, {"type": "node", "id": 3955247629, "lat": 0.8679922, "lon": 34.3652232, "tags": {"addr:city": "Magale", "addr:street": "Magale", "amenity": "school", "name": "Magale Royal Secondary", "opening_hours": "Mo-Sa 08:00-18:00"}}, {"type": "node", "id": 3955247635, "lat": 0.7988893, "lon": 34.3793227, "tags": {"addr:city": "Lwakhakha Town Council", "addr:street": "Market road", "amenity": "school", "name": "Mercy Nursery and Primary", "opening_hours": "Mo-Fr 09:00-17:00"}}, {"type": "node", "id": 3955247642, "lat": 0.7975305, "lon": 34.380447, "tags": {"addr:city": "Lwakhakha Town Council", "addr:street": "Lwakhakha", "amenity": "school", "name": "St Denis Primary", "opening_hours": "Mo-Fr 09:00-17:00"}}, {"type": "node", "id": 3955247643, "lat": 0.8395855, "lon": 34.371649, "tags": {"addr:city": "Bumwoni", "addr:street": "Bumwoni", "amenity": "school", "building": "school", "name": "Sunlight", "opening_hours": "Mo-Sa 08:00-18:00"}}, {"type": "node", "id": 3955286734, "lat": 0.8417022, "lon": 34.409442, "tags": {"addr:city": "Bukoyi", "addr:county": "Bubulo", "addr:district": "Manafwa", "addr:parish": "Laaso", "addr:subcounty": "Bukiabi", "amenity": "school", "isced:level": "1", "name": "Bukooyi Primary School", "opening_hours": "Mo-Sa 08:00-18:00", "source": "www.ubos.org", "source:date": "2010..2014", "wikidata": "Q22296040"}}, {"type": "node", "id": 3955286738, "lat": 0.8730355, "lon": 34.4361326, "tags": {"addr:city": "Kaabole", "amenity": "school", "isced:level": "1", "name": "Kaabole Primary school", "opening_hours": "Mo-Sa 08:00-18:00", "wikidata": "Q22296109"}}, {"type": "node", "id": 3955286743, "lat": 0.8354077, "lon": 34.4096395, "tags": {"addr:city": "Bukiabi", "amenity": "school", "name": "Mama Emma Junior Academy", "opening_hours": "Mo-Sa 08:00-17:00"}}, {"type": "node", "id": 3955286749, "lat": 0.8641017, "lon": 34.3922248, "tags": {"addr:city": "Bumbo", "amenity": "school", "name": "Sky", "opening_hours": "Mo-Fr 09:00-17:00"}}, {"type": "node", "id": 3966910814, "lat": 0.8370644, "lon": 34.3710024, "tags": {"addr:city": "Namasiu", "addr:county": "Bubulo", "addr:district": "Manafwa", "addr:parish": "Kaboyi", "addr:subcounty": "Bumwoni", "amenity": "school", "isced:level": "1", "name": "Africana Primary School", "operator:type": "private", "source": "www.ubos.org", "source:date": "2010..2014", "wikidata": "Q22295844"}}, {"type": "node", "id": 3966910819, "lat": 0.8388565, "lon": 34.3952434, "tags": {"addr:city": "Bukhayaki", "addr:county": "Bubulo", "addr:district": "Manafwa", "addr:parish": "Bukiabi", "addr:subcounty": "Bukiabi", "amenity": "school", "isced:level": "1", "name": "Bukhayaki Primary School", "operator:type": "public", "source": "www.ubos.org", "source:date": "2010..2014", "wikidata": "Q22319997"}}, {"type": "node", "id": 3966910822, "lat": 0.856287, "lon": 34.4159304, "tags": {"addr:city": "Bukokho", "addr:county": "Bubulo", "addr:district": "Manafwa", "addr:parish": "Bukokho", "addr:subcounty": "Bukokho", "amenity": "school", "isced:level": "1", "name": "Bukokho Primary School", "source": "www.ubos.org", "source:date": "2010..2014", "wikidata": "Q22320258"}}, {"type": "node", "id": 3966910825, "lat": 0.8678643, "lon": 34.3928972, "tags": {"addr:city": "Mutongo", "addr:county": "Bubulo", "addr:district": "Manafwa", "addr:parish": "Buwundu", "addr:subcounty": "Bumbo", "amenity": "school", "isced:level": "2;3;4", "source": "www.ubos.org", "source:date": "2010..2014", "wikidata": "Q22320311"}}, {"type": "node", "id": 3966910827, "lat": 0.8097565, "lon": 34.4028821, "tags": {"addr:city": "Busereli A", "addr:county": "Bubulo", "addr:district": "Manafwa", "addr:parish": "Busereli", "addr:subcounty": "Bukiabi", "amenity": "school", "isced:level": "1", "name": "Busereli Primary School", "source": "www.ubos.org", "source:date": "2010..2014", "wikidata": "Q22320274"}}, {"type": "node", "id": 3966910832, "lat": 0.8660029, "lon": 34.3536353, "tags": {"addr:city": "Buwambingwa", "addr:county": "Bubulo", "addr:district": "Manafwa", "addr:parish": "Busimaolya", "addr:subcounty": "Magale", "amenity": "school", "isced:level": "1", "name": "Buwambingwa Primary School", "source": "www.ubos.org", "source:date": "2010..2014", "wikidata": "Q22320423"}}, {"type": "node", "id": 3966910833, "lat": 0.827655, "lon": 34.3819668, "tags": {"addr:city": "Bwiri", "addr:county": "Bubulo", "addr:district": "Manafwa", "addr:parish": "Bwiri", "addr:subcounty": "Bumwoni", "amenity": "school", "isced:level": "1", "name": "Bwiri Primary School", "source": "www.ubos.org", "source:date": "2010..2014", "wikidata": "Q22318833"}}, {"type": "node", "id": 3966910834, "lat": 0.7986467, "lon": 34.3784209, "tags": {"addr:city": "Bamboo", "addr:county": "Bubulo", "addr:district": "Manafwa", "addr:parish": "Lwakhakha", "addr:subcounty": "Lwakhakha Town Council", "amenity": "school", "isced:level": "1", "name": "Clevers Origin Nursery and Primary School", "source": "www.ubos.org", "source:date": "2010..2014", "wikidata": "Q22318919"}}, {"type": "node", "id": 3966910836, "lat": 0.8653436, "lon": 34.3799452, "tags": {"addr:city": "Musitati", "addr:county": "Bubulo", "addr:district": "Manafwa", "addr:parish": "Bunanyama", "addr:subcounty": "Bumbo", "amenity": "school", "isced:level": "1", "name": "Ebenezer Primary School", "operator:type": "private", "source": "www.ubos.org", "source:date": "2010..2014", "wikidata": "Q22318547"}}, {"type": "node", "id": 3966910839, "lat": 0.8260121, "lon": 34.3582015, "tags": {"addr:city": "Bumusomi Ii", "addr:county": "Bubulo", "addr:district": "Manafwa", "addr:parish": "Butemulani", "addr:subcounty": "Bumwoni", "amenity": "school", "isced:level": "1", "name": "Huruma Primary School", "source": "www.ubos.org", "source:date": "2010..2014", "wikidata": "Q22319001"}}, {"type": "node", "id": 3966910843, "lat": 0.8082809, "lon": 34.3632667, "tags": {"addr:city": "Bukhalungu", "addr:county": "Bubulo", "addr:district": "Manafwa", "addr:parish": "Kisawayi", "addr:subcounty": "Bumwoni", "amenity": "school", "isced:level": "1", "name": "Kisawayi Primary School", "operator:type": "public", "source": "www.ubos.org", "source:date": "2010..2014", "wikidata": "Q22319404"}}, {"type": "node", "id": 3966910845, "lat": 0.8477256, "lon": 34.3864362, "tags": {"addr:city": "Lukhendu", "addr:county": "Bubulo", "addr:district": "Manafwa", "addr:parish": "Bukisasati", "addr:subcounty": "Bumwoni", "amenity": "school", "isced:level": "1", "name": "Lukhendu Primary School", "source": "www.ubos.org", "source:date": "2010..2014", "wikidata": "Q22319939"}}, {"type": "node", "id": 3966910846, "lat": 0.8051469, "lon": 34.3782144, "tags": {"addr:city": "Bukeemo B", "addr:county": "Bubulo", "addr:district": "Manafwa", "addr:parish": "Bukeemo", "addr:subcounty": "Lwakhakha Town Council", "amenity": "school", "isced:level": "1", "name": "Lwakhakha Primary School", "source": "www.ubos.org", "source:date": "2010..2014", "wikidata": "Q22319975"}}, {"type": "node", "id": 3966910847, "lat": 0.8056878, "lon": 34.3787518, "tags": {"addr:city": "Bukeemo B", "addr:county": "Bubulo", "addr:district": "Manafwa", "addr:parish": "Bukeemo", "addr:subcounty": "Lwakhakha Town Council", "amenity": "school", "isced:level": "2;3;4", "name": "Lwakhakha Secondary School", "source": "www.ubos.org", "source:date": "2010..2014", "wikidata": "Q22319890"}}, {"type": "node", "id": 3966915560, "lat": 0.8731155, "lon": 34.3536852, "tags": {"addr:city": "Makunya", "addr:county": "Bubulo", "addr:district": "Manafwa", "addr:parish": "Makunya", "addr:subcounty": "Magale", "amenity": "school", "isced:level": "1", "name": "Makunya Primary School", "source": "www.ubos.org", "source:date": "2010..2014", "wikidata": "Q22312766"}}, {"type": "node", "id": 3966915561, "lat": 0.7955799, "lon": 34.3758973, "tags": {"addr:city": "Namawanga", "addr:county": "Bubulo", "addr:district": "Manafwa", "addr:parish": "Bukibayi", "addr:subcounty": "Lwakhakha Town Council", "amenity": "school", "isced:level": "2;3;4", "name": "Mandela Comprehensive High School", "source": "www.ubos.org", "source:date": "2010..2014", "wikidata": "Q22313599"}}, {"type": "node", "id": 3966915563, "lat": 0.7971138, "lon": 34.3779126, "tags": {"addr:city": "Kibayi", "addr:county": "Bubulo", "addr:district": "Manafwa", "addr:parish": "Lwakhakha", "addr:subcounty": "Lwakhakha Town Council", "amenity": "school", "isced:level": "1", "name": "Masij Noor Primary School", "source": "www.ubos.org", "source:date": "2010..2014", "wikidata": "Q22313328"}}, {"type": "node", "id": 3966915567, "lat": 0.8046549, "lon": 34.3972665, "tags": {"addr:city": "Nabini", "addr:county": "Bubulo", "addr:district": "Manafwa", "addr:parish": "Sabino", "addr:subcounty": "Bukiabi", "amenity": "school", "isced:level": "1", "name": "Nabini Primary School", "operator:type": "community", "source": "www.ubos.org", "source:date": "2010..2014", "wikidata": "Q22313739"}}, {"type": "node", "id": 3966915570, "lat": 0.8470749, "lon": 34.360499, "tags": {"addr:city": "Bumulika", "addr:county": "Bubulo", "addr:district": "Manafwa", "addr:parish": "Bukibeti", "addr:subcounty": "Magale", "amenity": "school", "isced:level": "1", "name": "Nasele Primary School", "source": "www.ubos.org", "source:date": "2010..2014", "wikidata": "Q22302385"}}, {"type": "node", "id": 3966915572, "lat": 0.8642521, "lon": 34.3951614, "tags": {"addr:city": "Mutongo", "addr:county": "Bubulo", "addr:district": "Manafwa", "addr:parish": "Buwundu", "addr:subcounty": "Bumbo", "amenity": "school", "isced:level": "1", "name": "New Generation Primary School", "operator:type": "private", "source": "www.ubos.org", "source:date": "2010..2014", "wikidata": "Q22302380"}}, {"type": "node", "id": 3966915574, "lat": 0.8122171, "lon": 34.3900864, "tags": {"addr:city": "Sabino", "addr:county": "Bubulo", "addr:district": "Manafwa", "addr:parish": "Sabino", "addr:subcounty": "Bukiabi", "amenity": "school", "isced:level": "1", "name": "Sabino Primary School", "source": "www.ubos.org", "source:date": "2010..2014", "wikidata": "Q22302794"}}, {"type": "node", "id": 3966915577, "lat": 0.86798, "lon": 34.361414, "tags": {"addr:city": "Bukuto", "addr:county": "Bubulo", "addr:district": "Manafwa", "addr:parish": "Busimaolya", "addr:subcounty": "Magale", "amenity": "school", "isced:level": "1", "name": "Saint Charles Primary School", "operator:type": "private", "source": "www.ubos.org", "source:date": "2010..2014", "wikidata": "Q22302918"}}, {"type": "node", "id": 3966915580, "lat": 0.8210534, "lon": 34.404069, "tags": {"addr:city": "Lyambalayi", "addr:county": "Bubulo", "addr:district": "Manafwa", "addr:parish": "Bukhokho", "addr:subcounty": "Bukiabi", "amenity": "school", "isced:level": "1", "name": "Saint Kizito Primary School", "source": "www.ubos.org", "source:date": "2010..2014", "wikidata": "Q22302818"}}, {"type": "node", "id": 3966915584, "lat": 0.8234423, "lon": 34.3538328, "tags": {"addr:city": "Buwetsalo", "addr:county": "Bubulo", "addr:district": "Manafwa", "addr:parish": "Bumuyonga Parish", "addr:subcounty": "Bubutu", "amenity": "school", "isced:level": "1", "name": "Sibuse Friends Primary School", "source": "www.ubos.org", "source:date": "2010..2014", "wikidata": "Q22309246"}}, {"type": "node", "id": 3966915586, "lat": 0.8613073, "lon": 34.4108219, "tags": {"addr:city": "Bukokho Trc", "addr:county": "Bubulo", "addr:district": "Manafwa", "addr:parish": "Bukokho", "addr:subcounty": "Bukokho", "amenity": "school", "isced:level": "1", "name": "Sky Primary School", "source": "www.ubos.org", "source:date": "2010..2014", "wikidata": "Q22302298"}}, {"type": "node", "id": 3966915588, "lat": 0.7950325, "lon": 34.3833983, "tags": {"addr:city": "Lukoki B", "addr:county": "Bubulo", "addr:district": "Manafwa", "addr:parish": "Bukeemo", "addr:subcounty": "Lwakhakha Town Council", "amenity": "school", "isced:level": "1", "name": "Top Care Primary School", "source": "www.ubos.org", "source:date": "2010..2014", "wikidata": "Q22302293"}}, {"type": "node", "id": 3966915589, "lat": 0.8591539, "lon": 34.3982424, "tags": {"addr:city": "Bukiabi", "addr:county": "Bubulo", "addr:district": "Namisindwa", "addr:parish": "Bumwoni", "addr:subcounty": "Bukiabi", "amenity": "school", "isced:level": "0;1", "name": "Victory Nursery & Primary School", "source": "www.ubos.org", "source:date": "2010..2014", "wikidata": "Q22296200"}}, {"type": "node", "id": 3969938617, "lat": 0.8628511, "lon": 34.3696084}, {"type": "node", "id": 3969938626, "lat": 0.8630361, "lon": 34.369775}, {"type": "node", "id": 3969938631, "lat": 0.8631097, "lon": 34.3697335}, {"type": "node", "id": 3971595211, "lat": 0.7996419, "lon": 34.3734012}, {"type": "node", "id": 3995884070, "lat": 0.998659, "lon": 34.3611397, "tags": {"addr:city": "Nalwanza", "addr:county": "Manjiya", "addr:district": "Bududa", "addr:parish": "Bumakita", "addr:subcounty": "Nalwanza", "amenity": "school", "isced:level": "0;1", "name": "Agape Nursery and Primary School", "source": "www.ubos.org", "source:date": "2010..2014", "wikidata": "Q23704709"}}, {"type": "node", "id": 3995884072, "lat": 1.0517551, "lon": 34.3786264, "tags": {"addr:city": "Nabutsiba", "addr:county": "Manjiya", "addr:district": "Bududa", "addr:parish": "Bumwalukani", "addr:subcounty": "Bulucheke", "amenity": "school", "fixme": "please, check the position of the node", "isced:level": "1", "name": "Arlington Junior Primary School", "operator": "private", "operator:type": "private", "source": "www.ubos.org", "source:date": "2010..2014", "wikidata": "Q23704710"}}, {"type": "node", "id": 3995884073, "lat": 1.0008476, "lon": 34.364987, "tags": {"addr:city": "Lunza Main", "addr:county": "Manjiya", "addr:district": "Bududa", "addr:parish": "Shishendu", "addr:subcounty": "Bubiita", "amenity": "school", "isced:level": "1", "name": "Bubiita Primary School", "source": "www.ubos.org", "source:date": "2010..2014", "wikidata": "Q23704704"}}, {"type": "node", "id": 3995884079, "lat": 1.0540037, "lon": 34.366738, "tags": {"addr:city": "Makubiri", "addr:county": "Manjiya", "addr:district": "Bududa", "addr:parish": "Bushunya", "addr:subcounty": "Nakatsi", "amenity": "school", "isced:level": "1", "name": "Buchunya Primary School", "source": "www.ubos.org", "source:date": "2010..2014", "wikidata": "Q23704703"}}, {"type": "node", "id": 3995884082, "lat": 1.047468, "lon": 34.4078553, "tags": {"addr:city": "Nakalwa", "addr:county": "Manjiya", "addr:district": "Bududa", "addr:parish": "Bufuma", "addr:subcounty": "Bumayoka", "amenity": "school", "isced:level": "1", "name": "Bufuma Primary School", "source": "www.ubos.org", "source:date": "2010..2014", "wikidata": "Q23704722"}}, {"type": "node", "id": 3995884086, "lat": 0.9998326, "lon": 34.4143178, "tags": {"addr:city": "Bukhalera Upper", "addr:county": "Manjiya", "addr:district": "Bududa", "addr:parish": "Nabulalo", "addr:subcounty": "Bukalasi", "amenity": "school", "isced:level": "1", "name": "Bukharela Primary School", "source": "www.ubos.org", "source:date": "2010..2014", "wikidata": "Q23704719"}}, {"type": "node", "id": 3995884087, "lat": 0.9920545, "lon": 34.3580244, "tags": {"addr:city": "Bukhatelemwa", "addr:county": "Manjiya", "addr:district": "Bududa", "addr:parish": "Bumusi", "addr:subcounty": "Nalwanza", "amenity": "school", "isced:level": "1", "name": "Bukhatelema Primary School", "source": "www.ubos.org", "source:date": "2010..2014", "wikidata": "Q23704720"}}, {"type": "node", "id": 3995884095, "lat": 1.0155079, "lon": 34.4163561, "tags": {"addr:city": "Bukibaleba Main", "addr:county": "Manjiya", "addr:district": "Bududa", "addr:parish": "Maika", "addr:subcounty": "Bukalasi", "amenity": "school", "isced:level": "1", "name": "Bukibalela Primary School", "source": "www.ubos.org", "source:date": "2010..2014", "wikidata": "Q23704713"}}, {"type": "node", "id": 3995884097, "lat": 1.0015612, "lon": 34.4028705, "tags": {"addr:city": "Bukibumbi Lower", "addr:county": "Manjiya", "addr:district": "Bududa", "addr:parish": "Bukibumbi", "addr:subcounty": "Bukalasi", "amenity": "school", "isced:level": "1", "name": "Bukibumbi Primary School", "source": "www.ubos.org", "source:date": "2010..2014", "wikidata": "Q23704683"}},