{"version": 0.6, "generator": "Overpass API 0.7.61.5 4133829e", "osm3s": {"timestamp_osm_base": "2024-03-06T11:46:14Z", "copyright": "The data included in this document is from www.openstreetmap.org. The data is made available under ODbL."}, "elements": [{"type": "node", "id": 311727206, "lat": 1.347405, "lon": 34.044521, "tags": {"name": "Bukedea", "place": "town", "wikidata": "Q4986830"}}, {"type": "node", "id": 538026582, "lat": 1.1707805, "lon": 34.3355344, "tags": {"name": "Budadiri", "place": "village", "wikidata": "Q4984009", "wikipedia": "en:Budadiri"}}, {"type": "node", "id": 562728993, "lat": 1.2016879, "lon": 34.3097043, "tags": {"name": "Buhugu", "place": "village", "wikidata": "Q86756725"}}, {"type": "node", "id": 938641746, "lat": 1.2315295, "lon": 34.2457702, "tags": {"name": "Sironko", "name:ru": "\u0421\u0438\u0440\u043e\u043d\u043a\u043e", "place": "town", "wikidata": "Q2252605"}}, {"type": "node", "id": 1426079844, "lat": 1.2137443, "lon": 34.1203893, "tags": {"name": "Kachumbala", "place": "village"}}, {"type": "node", "id": 1655767165, "lat": 1.4121093, "lon": 33.9910496, "tags": {"name": "Atutur", "place": "town"}}, {"type": "node", "id": 2229099752, "lat": 1.333333, "lon": 33.95, "tags": {"GNS:dsg_code": "PPL", "GNS:dsg_string": "populated place", "GNS:id": "-1725756", "fixme": "no population estimate available, defaulted to village", "is_in:country": "Uganda", "name": "Adadoi", "place": "village", "source": "GNS"}}, {"type": "node", "id": 2229099870, "lat": 1.383333, "lon": 33.966667, "tags": {"GNS:dsg_code": "PPL", "GNS:dsg_string": "populated place", "GNS:id": "-1725888", "fixme": "no population estimate available, defaulted to village", "is_in:country": "Uganda", "name": "Ajuket", "place": "village", "source": "GNS"}}, {"type": "node", "id": 2229099905, "lat": 1.333333, "lon": 34.1, "tags": {"GNS:dsg_code": "PPL", "GNS:dsg_string": "populated place", "GNS:id": "-1734265", "fixme": "no population estimate available, defaulted to village", "is_in:country": "Uganda", "name": "Akworo", "place": "village", "source": "GNS"}}, {"type": "node", "id": 2229100176, "lat": 1.433333, "lon": 33.983333, "tags": {"GNS:dsg_code": "PPL", "GNS:dsg_string": "populated place", "GNS:id": "-1726155", "fixme": "no population estimate available, defaulted to village", "is_in:country": "Uganda", "name": "Apapai", "place": "village", "source": "GNS"}}, {"type": "node", "id": 2229100379, "lat": 1.45, "lon": 33.983333, "tags": {"GNS:dsg_code": "PPL", "GNS:dsg_string": "populated place", "GNS:id": "-1726315", "fixme": "no population estimate available, defaulted to village", "is_in:country": "Uganda", "name": "Aturituri", "place": "village", "source": "GNS"}}, {"type": "node", "id": 2229100385, "lat": 1.316667, "lon": 33.95, "tags": {"GNS:dsg_code": "PPL", "GNS:dsg_string": "populated place", "GNS:id": "-1726314", "fixme": "no population estimate available, defaulted to village", "is_in:country": "Uganda", "name": "Atutur", "place": "village", "source": "GNS"}}, {"type": "node", "id": 2229101322, "lat": 1.3, "lon": 34.333333, "tags": {"GNS:dsg_code": "PPL", "GNS:dsg_string": "populated place", "GNS:id": "-1726782", "fixme": "no population estimate available, defaulted to village", "is_in:country": "Uganda", "name": "Bugwa", "place": "village", "source": "GNS"}}, {"type": "node", "id": 2229101397, "lat": 1.3, "lon": 34.25, "tags": {"GNS:dsg_code": "PPL", "GNS:dsg_string": "populated place", "GNS:id": "-1726888", "fixme": "no population estimate available, defaulted to village", "is_in:country": "Uganda", "name": "Bukhalu", "place": "village", "source": "GNS"}}, {"type": "node", "id": 2229101475, "lat": 1.25, "lon": 34.35, "tags": {"GNS:dsg_code": "PPL", "GNS:dsg_string": "populated place", "GNS:id": "-1726971", "fixme": "no population estimate available, defaulted to village", "is_in:country": "Uganda", "name": "Bulago", "place": "village", "source": "GNS"}}, {"type": "node", "id": 2229101507, "lat": 1.3, "lon": 34.316667, "tags": {"GNS:dsg_code": "PPL", "GNS:dsg_string": "populated place", "GNS:id": "-1727017", "fixme": "no population estimate available, defaulted to village", "is_in:country": "Uganda", "name": "Buligenyi", "place": "village", "source": "GNS"}}, {"type": "node", "id": 2229101595, "lat": 1.219722, "lon": 34.347778, "tags": {"GNS:dsg_code": "PPL", "GNS:dsg_string": "populated place", "GNS:id": "-1727048", "fixme": "no population estimate available, defaulted to village", "is_in:country": "Uganda", "name": "Buluganya", "place": "village", "source": "GNS"}}, {"type": "node", "id": 2229101834, "lat": 1.183333, "lon": 34.35, "tags": {"GNS:dsg_code": "PPL", "GNS:dsg_string": "populated place", "GNS:id": "-1727084", "fixme": "no population estimate available, defaulted to village", "is_in:country": "Uganda", "name": "Bumasifwa", "place": "village", "source": "GNS"}}, {"type": "node", "id": 2229101990, "lat": 1.4, "lon": 34.35, "tags": {"GNS:dsg_code": "PPL", "GNS:dsg_string": "populated place", "GNS:id": "-1727109", "fixme": "no population estimate available, defaulted to village", "is_in:country": "Uganda", "name": "Bunambutye", "place": "village", "source": "GNS"}}, {"type": "node", "id": 2229102811, "lat": 1.166667, "lon": 34.35, "tags": {"GNS:dsg_code": "PPL", "GNS:dsg_string": "populated place", "GNS:id": "-1727262", "fixme": "no population estimate available, defaulted to village", "is_in:country": "Uganda", "name": "Busulani", "place": "village", "source": "GNS"}}, {"type": "node", "id": 2229104782, "lat": 1.266667, "lon": 34.283333, "tags": {"GNS:dsg_code": "PPL", "GNS:dsg_string": "populated place", "GNS:id": "-1727427", "fixme": "no population estimate available, defaulted to village", "is_in:country": "Uganda", "name": "Buyaga", "place": "village", "source": "GNS"}}, {"type": "node", "id": 2229105264, "lat": 1.1656667, "lon": 34.2832579, "tags": {"GNS:dsg_code": "PPL", "GNS:dsg_string": "populated place", "GNS:id": "-1727458", "fixme": "no population estimate available, defaulted to village", "is_in:country": "Uganda", "name": "Buyobo", "place": "village", "source": "GNS"}}, {"type": "node", "id": 2229106644, "lat": 1.383611, "lon": 34.346944, "tags": {"GNS:dsg_code": "PPL", "GNS:dsg_string": "populated place", "GNS:id": "-1727614", "fixme": "no population estimate available, defaulted to village", "is_in:country": "Uganda", "name": "Cheptui", "place": "village", "source": "GNS"}}, {"type": "node", "id": 2229109165, "lat": 1.453611, "lon": 34.162778, "tags": {"GNS:dsg_code": "PPL", "GNS:dsg_string": "populated place", "GNS:id": "-1728263", "fixme": "no population estimate available, defaulted to village", "is_in:country": "Uganda", "name": "Kabarwa", "place": "village", "source": "GNS"}}, {"type": "node", "id": 2229109518, "lat": 1.183333, "lon": 33.95, "tags": {"GNS:dsg_code": "PPL", "GNS:dsg_string": "populated place", "GNS:id": "-1728382", "fixme": "no population estimate available, defaulted to village", "is_in:country": "Uganda", "name": "Kabyayi", "place": "village", "source": "GNS"}}, {"type": "node", "id": 2229109594, "lat": 1.183333, "lon": 34.1, "tags": {"GNS:dsg_code": "PPL", "GNS:dsg_string": "populated place", "GNS:id": "-1728401", "fixme": "no population estimate available, defaulted to village", "is_in:country": "Uganda", "name": "Kachong", "place": "village", "source": "GNS"}}, {"type": "node", "id": 2229109627, "lat": 1.205556, "lon": 34.106667, "tags": {"GNS:dsg_code": "PPL", "GNS:dsg_string": "populated place", "GNS:id": "-1728405", "fixme": "no population estimate available, defaulted to village", "is_in:country": "Uganda", "name": "Kachumbala", "place": "village", "source": "GNS"}}, {"type": "node", "id": 2229109663, "lat": 1.416667, "lon": 34.216667, "tags": {"GNS:dsg_code": "PPL", "GNS:dsg_string": "populated place", "GNS:id": "-1728414", "fixme": "no population estimate available, defaulted to village", "is_in:country": "Uganda", "name": "Kachus", "place": "village", "source": "GNS"}}, {"type": "node", "id": 2229110052, "lat": 1.25, "lon": 33.966667, "tags": {"GNS:dsg_code": "PPL", "GNS:dsg_string": "populated place", "GNS:id": "-1728573", "fixme": "no population estimate available, defaulted to village", "is_in:country": "Uganda", "name": "Kaijamaka", "place": "village", "source": "GNS"}}, {"type": "node", "id": 2229110143, "lat": 1.416667, "lon": 33.95, "tags": {"GNS:dsg_code": "PPL", "GNS:dsg_string": "populated place", "GNS:id": "-1728590", "fixme": "no population estimate available, defaulted to village", "is_in:country": "Uganda", "name": "Kajamaka", "place": "village", "source": "GNS"}}, {"type": "node", "id": 2229110503, "lat": 1.416667, "lon": 34.133333, "tags": {"GNS:dsg_code": "PPL", "GNS:dsg_string": "populated place", "GNS:id": "-1728675", "fixme": "no population estimate available, defaulted to village", "is_in:country": "Uganda", "name": "Kakori", "place": "village", "source": "GNS"}}, {"type": "node", "id": 2229110555, "lat": 1.183333, "lon": 34.033333, "tags": {"GNS:dsg_code": "PPL", "GNS:dsg_string": "populated place", "GNS:id": "-1728752", "fixme": "no population estimate available, defaulted to village", "is_in:country": "Uganda", "name": "Kalekeru", "place": "village", "source": "GNS"}}, {"type": "node", "id": 2229110643, "lat": 1.333333, "lon": 33.966667, "tags": {"GNS:dsg_code": "PPL", "GNS:dsg_string": "populated place", "GNS:id": "-1728846", "fixme": "no population estimate available, defaulted to village", "is_in:country": "Uganda", "name": "Kamachya", "place": "village", "source": "GNS"}}, {"type": "node", "id": 2229110706, "lat": 1.366667, "lon": 34.216667, "tags": {"GNS:dsg_code": "PPL", "GNS:dsg_string": "populated place", "GNS:id": "-1728939", "fixme": "no population estimate available, defaulted to village", "is_in:country": "Uganda", "name": "Kamutur", "place": "village", "source": "GNS"}}, {"type": "node", "id": 2229110778, "lat": 1.283333, "lon": 33.966667, "tags": {"GNS:dsg_code": "PPL", "GNS:dsg_string": "populated place", "GNS:id": "-1729037", "fixme": "no population estimate available, defaulted to village", "is_in:country": "Uganda", "name": "Kanyamutam", "place": "village", "source": "GNS"}}, {"type": "node", "id": 2229110814, "lat": 1.416667, "lon": 34.0, "tags": {"GNS:dsg_code": "PPL", "GNS:dsg_string": "populated place", "GNS:id": "-1726187", "fixme": "no population estimate available, defaulted to village", "is_in:country": "Uganda", "name": "Kapokina", "place": "village", "source": "GNS"}}, {"type": "node", "id": 2229112864, "lat": 1.216667, "lon": 34.033333, "tags": {"GNS:dsg_code": "PPL", "GNS:dsg_string": "populated place", "GNS:id": "-1729403", "fixme": "no population estimate available, defaulted to village", "is_in:country": "Uganda", "name": "Katikwan", "place": "village", "source": "GNS"}}, {"type": "node", "id": 2229114927, "lat": 1.236111, "lon": 33.975, "tags": {"GNS:dsg_code": "PPL", "GNS:dsg_string": "populated place", "GNS:id": "-1729840", "fixme": "no population estimate available, defaulted to village", "is_in:country": "Uganda", "name": "Kidongole", "place": "village", "source": "GNS"}}, {"type": "node", "id": 2229115319, "lat": 1.333333, "lon": 34.35, "tags": {"GNS:dsg_code": "PPL", "GNS:dsg_string": "populated place", "GNS:id": "-1729912", "fixme": "no population estimate available, defaulted to village", "is_in:country": "Uganda", "name": "Kiguli", "place": "village", "source": "GNS"}}, {"type": "node", "id": 2229117350, "lat": 1.233333, "lon": 34.066667, "tags": {"GNS:dsg_code": "PPL", "GNS:dsg_string": "populated place", "GNS:id": "-1729076", "fixme": "no population estimate available, defaulted to village", "is_in:country": "Uganda", "name": "Koa", "place": "village", "source": "GNS"}}, {"type": "node", "id": 2229117475, "lat": 1.301944, "lon": 34.163056, "tags": {"GNS:dsg_code": "PPL", "GNS:dsg_string": "populated place", "GNS:id": "-1730653", "fixme": "no population estimate available, defaulted to village", "is_in:country": "Uganda", "name": "Koliri", "place": "village", "source": "GNS"}}, {"type": "node", "id": 2229117484, "lat": 1.533333, "lon": 34.15, "tags": {"GNS:dsg_code": "PPL", "GNS:dsg_string": "populated place", "GNS:id": "-1728986", "fixme": "no population estimate available, defaulted to village", "is_in:country": "Uganda", "name": "Kongole", "place": "village", "source": "GNS"}}, {"type": "node", "id": 2229117489, "lat": 1.478085, "lon": 34.0910316, "tags": {"GNS:dsg_code": "PPL", "GNS:dsg_string": "populated place", "GNS:id": "-1730699", "fixme": "no population estimate available, defaulted to village", "is_in:country": "Uganda", "name": "Koreng", "place": "village", "source": "GNS"}}, {"type": "node", "id": 2229117500, "lat": 1.4, "lon": 34.15, "tags": {"GNS:dsg_code": "PPL", "GNS:dsg_string": "populated place", "GNS:id": "-1730719", "fixme": "no population estimate available, defaulted to village", "is_in:country": "Uganda", "name": "Kotiokot", "place": "village", "source": "GNS"}}, {"type": "node", "id": 2229117896, "lat": 1.5, "lon": 33.983333, "tags": {"GNS:dsg_code": "PPL", "GNS:dsg_string": "populated place", "GNS:id": "-1731022", "fixme": "no population estimate available, defaulted to village", "is_in:country": "Uganda", "name": "Kyelim", "place": "village", "source": "GNS"}}, {"type": "node", "id": 2229118880, "lat": 1.408889, "lon": 34.053333, "tags": {"GNS:dsg_code": "PPL", "GNS:dsg_string": "populated place", "GNS:id": "-1731920", "fixme": "no population estimate available, defaulted to village", "is_in:country": "Uganda", "name": "Malera", "place": "village", "source": "GNS"}}, {"type": "node", "id": 2229119812, "lat": 1.266667, "lon": 34.15, "tags": {"GNS:dsg_code": "PPL", "GNS:dsg_string": "populated place", "GNS:id": "-1732191", "fixme": "no population estimate available, defaulted to village", "is_in:country": "Uganda", "name": "Miroi", "place": "village", "source": "GNS"}}, {"type": "node", "id": 2229119850, "lat": 1.316667, "lon": 34.066667, "tags": {"GNS:dsg_code": "PPL", "GNS:dsg_string": "populated place", "GNS:id": "-1732241", "fixme": "no population estimate available, defaulted to village", "is_in:country": "Uganda", "name": "Momeri", "place": "village", "source": "GNS"}}, {"type": "node", "id": 2229119851, "lat": 1.333333, "lon": 34.166667, "tags": {"GNS:dsg_code": "PPL", "GNS:dsg_string": "populated place", "GNS:id": "-1732715", "fixme": "no population estimate available, defaulted to village", "is_in:country": "Uganda", "name": "Momeri", "place": "village", "source": "GNS"}}, {"type": "node", "id": 2229120310, "lat": 1.216667, "lon": 34.3, "tags": {"GNS:dsg_code": "PPL", "GNS:dsg_string": "populated place", "GNS:id": "-1732666", "fixme": "no population estimate available, defaulted to village", "is_in:country": "Uganda", "name": "Mutufu", "place": "village", "source": "GNS", "wikidata": "Q22082396"}}, {"type": "node", "id": 2229120321, "lat": 1.299722, "lon": 34.301667, "tags": {"GNS:dsg_code": "PPL", "GNS:dsg_string": "populated place", "GNS:id": "-1732693", "fixme": "no population estimate available, defaulted to village", "is_in:country": "Uganda", "name": "Muyembe", "place": "village", "source": "GNS"}}, {"type": "node", "id": 2229120666, "lat": 1.4, "lon": 34.3, "tags": {"GNS:dsg_code": "PPL", "GNS:dsg_string": "populated place", "GNS:id": "-1733065", "fixme": "no population estimate available, defaulted to village", "is_in:country": "Uganda", "name": "Nalondo", "place": "village", "source": "GNS"}}, {"type": "node", "id": 2229120884, "lat": 1.3, "lon": 34.35, "tags": {"GNS:dsg_code": "PPL", "GNS:dsg_string": "populated place", "GNS:id": "-1733206", "fixme": "no population estimate available, defaulted to village", "is_in:country": "Uganda", "name": "Namisuni", "place": "village", "source": "GNS"}}, {"type": "node", "id": 2229120890, "lat": 1.183333, "lon": 34.183333, "tags": {"GNS:dsg_code": "PPL", "GNS:dsg_string": "populated place", "GNS:id": "-1733213", "fixme": "no population estimate available, defaulted to village", "is_in:country": "Uganda", "name": "Nampanga", "place": "village", "source": "GNS"}}, {"type": "node", "id": 2229120896, "lat": 1.183333, "lon": 34.2, "tags": {"GNS:dsg_code": "PPL", "GNS:dsg_string": "populated place", "GNS:id": "-1733214", "fixme": "no population estimate available, defaulted to village", "is_in:country": "Uganda", "name": "Nampanga", "place": "village", "source": "GNS"}}, {"type": "node", "id": 2229123125, "lat": 1.3, "lon": 34.083333, "tags": {"GNS:dsg_code": "PPL", "GNS:dsg_string": "populated place", "GNS:id": "-1730646", "fixme": "no population estimate available, defaulted to village", "is_in:country": "Uganda", "name": "Okutu", "place": "village", "source": "GNS"}}, {"type": "node", "id": 2229123128, "lat": 1.55, "lon": 33.95, "tags": {"GNS:dsg_code": "PPL", "GNS:dsg_string": "populated place", "GNS:id": "-1734245", "fixme": "no population estimate available, defaulted to village", "is_in:country": "Uganda", "name": "Okuba", "place": "village", "source": "GNS"}}, {"type": "node", "id": 2229123132, "lat": 1.25, "lon": 34.2, "tags": {"GNS:dsg_code": "PPL", "GNS:dsg_string": "populated place", "GNS:id": "-1734249", "fixme": "no population estimate available, defaulted to village", "is_in:country": "Uganda", "name": "Okum", "place": "village", "source": "GNS"}}, {"type": "node", "id": 2229123267, "lat": 1.514444, "lon": 33.989167, "tags": {"GNS:dsg_code": "PPL", "GNS:dsg_string": "populated place", "GNS:id": "-1734386", "fixme": "no population estimate available, defaulted to village", "is_in:country": "Uganda", "name": "Ongino", "place": "village", "source": "GNS"}}, {"type": "node", "id": 2229123268, "lat": 1.516667, "lon": 34.05, "tags": {"GNS:dsg_code": "PPL", "GNS:dsg_string": "populated place", "GNS:id": "-1734385", "fixme": "no population estimate available, defaulted to village", "is_in:country": "Uganda", "name": "Ongino", "place": "village", "source": "GNS"}}, {"type": "node", "id": 2229123506, "lat": 1.35, "lon": 33.966667, "tags": {"GNS:dsg_code": "PPL", "GNS:dsg_string": "populated place", "GNS:id": "-1734421", "fixme": "no population estimate available, defaulted to village", "is_in:country": "Uganda", "name": "Oputi", "place": "village", "source": "GNS"}}, {"type": "node", "id": 2229127941, "lat": 1.3, "lon": 34.3, "tags": {"GNS:dsg_code": "PPL", "GNS:dsg_string": "populated place", "GNS:id": "-1735110", "fixme": "no population estimate available, defaulted to village", "is_in:country": "Uganda", "name": "Simu", "place": "village", "source": "GNS"}}, {"type": "node", "id": 2229129344, "lat": 1.183333, "lon": 34.233333, "tags": {"GNS:dsg_code": "PPL", "GNS:dsg_string": "populated place", "GNS:id": "-1727377", "fixme": "no population estimate available, defaulted to village", "is_in:country": "Uganda", "name": "Walasi", "place": "village", "source": "GNS"}}, {"type": "node", "id": 3858750357, "lat": 1.281121, "lon": 34.346612, "tags": {"name": "Buginyanya", "place": "village"}}, {"type": "node", "id": 3858750367, "lat": 1.3271743, "lon": 34.2930758, "tags": {"name": "Muyembe", "place": "village"}}, {"type": "node", "id": 3949277637, "lat": 1.3044098, "lon": 34.3222412, "tags": {"name": "Kamu", "place": "village"}}, {"type": "node", "id": 3956651972, "lat": 1.440004, "lon": 34.1291218, "tags": {"name": "Kabarwa Trading Centre", "place": "town"}}, {"type": "node", "id": 3956651975, "lat": 1.4787205, "lon": 34.0881997, "tags": {"name": "Koreng Trading Centre", "place": "town"}}, {"type": "node", "id": 3956651977, "lat": 1.3961137, "lon": 34.1422376, "tags": {"name": "Kotiokot Trading Centre", "place": "town"}}, {"type": "node", "id": 3978443242, "lat": 1.3203215, "lon": 34.1649737, "tags": {"name": "Kolir", "place": "town"}}, {"type": "node", "id": 4533245422, "lat": 1.462821, "lon": 33.9844035}, {"type": "node", "id": 4533245425, "lat": 1.4635074, "lon": 33.9823436}, {"type": "node", "id": 4533245427, "lat": 1.4611908, "lon": 33.9831161}, {"type": "node", "id": 9756968705, "lat": 1.1587878, "lon": 34.1566721, "tags": {"is_in:country": "Uganda", "name": "Kireka Mailo Six", "place": "village", "source": "UBOS_2014"}}, {"type": "node", "id": 9756987729, "lat": 1.1598022, "lon": 34.1635046, "tags": {"is_in:country": "Uganda", "name": "Wajambuka", "place": "village", "source": "UBOS_2014"}}, {"type": "node", "id": 9763618320, "lat": 1.1595458, "lon": 34.2191052, "tags": {"is_in:country": "Uganda", "name": "Kifafa Upper", "place": "village", "source": "UBOS_2014"}}, {"type": "node", "id": 9883226451, "lat": 1.3115061, "lon": 34.3487108, "tags": {"name": "Kasus", "place": "village", "source": "UBOS 2014"}}, {"type": "node", "id": 9883226452, "lat": 1.3088919, "lon": 34.3465287, "tags": {"name": "Kapwirkwor", "place": "village", "source": "UBOS 2014"}}, {"type": "node", "id": 9883226455, "lat": 1.3089054, "lon": 34.3292435, "tags": {"name": "Kapsoyoy", "place": "village", "source": "UBOS 2014"}}, {"type": "node", "id": 9883226456, "lat": 1.3035004, "lon": 34.3510302, "tags": {"name": "Kamogoyon", "place": "village", "source": "UBOS 2014"}}, {"type": "node", "id": 9883226457, "lat": 1.3107252, "lon": 34.3439018, "tags": {"name": "Kapnabendu", "place": "village", "source": "UBOS 2014"}}, {"type": "node", "id": 9883226459, "lat": 1.3040854, "lon": 34.343734, "tags": {"name": "Chebelong", "place": "village", "source": "UBOS 2014"}}, {"type": "node", "id": 9883226460, "lat": 1.3086381, "lon": 34.3451031, "tags": {"name": "Roberwo", "place": "village", "source": "UBOS 2014"}}, {"type": "node", "id": 9883226461, "lat": 1.3076405, "lon": 34.3425048, "tags": {"name": "Rorok", "place": "village", "source": "UBOS 2014"}}, {"type": "node", "id": 9883226462, "lat": 1.3081952, "lon": 34.3438788, "tags": {"name": "Kapchelegat", "place": "village", "source": "UBOS 2014"}}, {"type": "node", "id": 9883226463, "lat": 1.3052329, "lon": 34.3425612, "tags": {"name": "Bukonio", "place": "village", "source": "UBOS 2014"}}, {"type": "node", "id": 9883226464, "lat": 1.3082838, "lon": 34.3290711, "tags": {"name": "Kakumolon", "place": "village", "source": "UBOS 2014"}}, {"type": "node", "id": 9883226466, "lat": 1.3047823, "lon": 34.3404287, "tags": {"name": "Kapkwalya", "place": "village", "source": "UBOS 2014"}}, {"type": "node", "id": 9883226467, "lat": 1.3090258, "lon": 34.3351643, "tags": {"name": "Kabonoshwo", "place": "village", "source": "UBOS 2014"}}, {"type": "node", "id": 9883226469, "lat": 1.3056734, "lon": 34.3373335, "tags": {"name": "Kapchuik", "place": "village", "source": "UBOS 2014"}}, {"type": "node", "id": 9883226472, "lat": 1.3074105, "lon": 34.3303355, "tags": {"name": "Kween", "place": "village", "source": "UBOS 2014"}}, {"type": "node", "id": 9883226473, "lat": 1.3059584, "lon": 34.3506366, "tags": {"name": "Chepteret", "place": "village", "source": "UBOS 2014"}}, {"type": "node", "id": 9883226474, "lat": 1.3115047, "lon": 34.3465432, "tags": {"name": "Cheptikit", "place": "village", "source": "UBOS 2014"}}, {"type": "node", "id": 9883226477, "lat": 1.3044035, "lon": 34.3462225, "tags": {"name": "Kangaramu", "place": "village", "source": "UBOS 2014"}}, {"type": "node", "id": 9883226478, "lat": 1.3072414, "lon": 34.332523, "tags": {"name": "Kapchemong", "place": "village", "source": "UBOS 2014"}}, {"type": "node", "id": 9883226479, "lat": 1.3060422, "lon": 34.33449, "tags": {"name": "Seretyo", "place": "village", "source": "UBOS 2014"}}, {"type": "node", "id": 9883226480, "lat": 1.309824, "lon": 34.3297915, "tags": {"name": "Oniomushembu", "place": "village", "source": "UBOS 2014"}}, {"type": "node", "id": 9883226482, "lat": 1.3046414, "lon": 34.3473514, "tags": {"name": "Seep", "place": "village", "source": "UBOS 2014"}}, {"type": "node", "id": 9883226483, "lat": 1.3088187, "lon": 34.3399362, "tags": {"name": "Chesangam", "place": "village", "source": "UBOS 2014"}}, {"type": "node", "id": 9883226485, "lat": 1.3088413, "lon": 34.3479974, "tags": {"name": "Kamoko", "place": "village", "source": "UBOS 2014"}}, {"type": "node", "id": 9883226487, "lat": 1.3047497, "lon": 34.3451664, "tags": {"name": "Kabwanbel", "place": "village", "source": "UBOS 2014"}}, {"type": "node", "id": 9883226488, "lat": 1.3096294, "lon": 34.3320494, "tags": {"name": "Kween", "place": "village", "source": "UBOS 2014"}}, {"type": "node", "id": 9889511850, "lat": 1.3576201, "lon": 34.348516, "tags": {"name": "Chemwaram", "place": "village", "source": "UBOS 2014"}}, {"type": "node", "id": 9889511857, "lat": 1.3643585, "lon": 34.3431212, "tags": {"name": "Kapsabuko", "place": "village", "source": "UBOS 2014"}}, {"type": "node", "id": 9889511861, "lat": 1.3859217, "lon": 34.3451746, "tags": {"name": "Kibilat", "place": "village", "source": "UBOS 2014"}}, {"type": "node", "id": 9889511868, "lat": 1.3576551, "lon": 34.3454175, "tags": {"name": "Chemwaram", "place": "village", "source": "UBOS 2014"}}, {"type": "node", "id": 9889511876, "lat": 1.3753602, "lon": 34.3440024, "tags": {"name": "Sirinda", "place": "village", "source": "UBOS 2014"}}, {"type": "node", "id": 9889530690, "lat": 1.3291255, "lon": 34.3146428, "tags": {"name": "Namaiga", "place": "village", "source": "UBOS 2014"}}, {"type": "node", "id": 9889530691, "lat": 1.3612163, "lon": 34.3186623, "tags": {"name": "Rwenda", "place": "village", "source": "UBOS 2014"}}, {"type": "node", "id": 9889530692, "lat": 1.3427133, "lon": 34.3195274, "tags": {"name": "Chemangalal", "place": "village", "source": "UBOS 2014"}}, {"type": "node", "id": 9889530693, "lat": 1.3368292, "lon": 34.3216949, "tags": {"name": "Chekwatit", "place": "village", "source": "UBOS 2014"}}, {"type": "node", "id": 9889530694, "lat": 1.3826086, "lon": 34.3260965, "tags": {"name": "Kapsinda", "place": "village", "source": "UBOS 2014"}}, {"type": "node", "id": 9889530695, "lat": 1.3543517, "lon": 34.3214562, "tags": {"name": "Kapchela", "place": "village", "source": "UBOS 2014"}}, {"type": "node", "id": 9889530696, "lat": 1.3506685, "lon": 34.333637, "tags": {"name": "Mondin", "place": "village", "source": "UBOS 2014"}}, {"type": "node", "id": 9889530697, "lat": 1.3483188, "lon": 34.3502777, "tags": {"name": "Kawowo", "place": "village", "source": "UBOS 2014"}}, {"type": "node", "id": 9889530698, "lat": 1.3316391, "lon": 34.3294668, "tags": {"name": "Walwal", "place": "village", "source": "UBOS 2014"}}, {"type": "node", "id": 9889530699, "lat": 1.3357713, "lon": 34.3438051, "tags": {"name": "Kangura", "place": "village", "source": "UBOS 2014"}}, {"type": "node", "id": 9889530700, "lat": 1.3492551, "lon": 34.320363, "tags": {"name": "Namugimba", "place": "village", "source": "UBOS 2014"}}, {"type": "node", "id": 9889530701, "lat": 1.3484197, "lon": 34.3432053, "tags": {"name": "Tolosho", "place": "village", "source": "UBOS 2014"}}, {"type": "node", "id": 9889530702, "lat": 1.3353474, "lon": 34.3367409, "tags": {"name": "Kumunda", "place": "village", "source": "UBOS 2014"}}, {"type": "node", "id": 9889530703, "lat": 1.3239763, "lon": 34.3151671, "tags": {"name": "Sukut", "place": "village", "source": "UBOS 2014"}}, {"type": "node", "id": 9889530704, "lat": 1.3595337, "lon": 34.3308761, "tags": {"name": "Kakarwa", "place": "village", "source": "UBOS 2014"}}, {"type": "node", "id": 9889530705, "lat": 1.3448349, "lon": 34.3252546, "tags": {"name": "Kapcheka", "place": "village", "source": "UBOS 2014"}}, {"type": "node", "id": 9889530706, "lat": 1.3522532, "lon": 34.3315488, "tags": {"name": "Ngerep", "place": "village", "source": "UBOS 2014"}}, {"type": "node", "id": 9889530707, "lat": 1.3524787, "lon": 34.3270068, "tags": {"name": "Wanjoro", "place": "village", "source": "UBOS 2014"}}, {"type": "node", "id": 9889530708, "lat": 1.3377977, "lon": 34.3367688, "tags": {"name": "Asikenwo", "place": "village", "source": "UBOS 2014"}}, {"type": "node", "id": 9889530709, "lat": 1.349255, "lon": 34.3203623, "tags": {"name": "Namugimba", "place": "village", "source": "UBOS 2014"}}, {"type": "node", "id": 9889530710, "lat": 1.3515334, "lon": 34.3466569, "tags": {"name": "Kamsurubu", "place": "village", "source": "UBOS 2014"}}, {"type": "node", "id": 9889530711, "lat": 1.3302334, "lon": 34.3348323, "tags": {"name": "Wariso", "place": "village", "source": "UBOS 2014"}}, {"type": "node", "id": 9889530712, "lat": 1.3393872, "lon": 34.349314, "tags": {"name": "Chekwanda", "place": "village", "source": "UBOS 2014"}}, {"type": "node", "id": 9889530713, "lat": 1.3528283, "lon": 34.3361639, "tags": {"name": "Mondin", "place": "village", "source": "UBOS 2014"}}, {"type": "node", "id": 9889530714, "lat": 1.3281861, "lon": 34.339726, "tags": {"name": "Natema", "place": "village", "source": "UBOS 2014"}}, {"type": "node", "id": 9889530715, "lat": 1.3328553, "lon": 34.3371002, "tags": {"name": "Kapnandi", "place": "village", "source": "UBOS 2014"}}, {"type": "node", "id": 9889530716, "lat": 1.3590388, "lon": 34.3352, "tags": {"name": "Bomet", "place": "village", "source": "UBOS 2014"}}, {"type": "node", "id": 9889556946, "lat": 1.3247064, "lon": 34.3395128, "tags": {"name": "Loch", "place": "village", "source": "UBOS 2014"}}, {"type": "node", "id": 9889556947, "lat": 1.315193, "lon": 34.3252251, "tags": {"name": "Chesum West", "place": "village", "source": "UBOS 2014"}}, {"type": "node", "id": 9889556948, "lat": 1.317499, "lon": 34.3504205, "tags": {"name": "Kaplebete", "place": "village", "source": "UBOS 2014"}}, {"type": "node", "id": 9889556949, "lat": 1.3200675, "lon": 34.3398485, "tags": {"name": "Taramasiga Central", "place": "village", "source": "UBOS 2014"}}, {"type": "node", "id": 9889556950, "lat": 1.3154484, "lon": 34.3437547, "tags": {"name": "Cherubei", "place": "village", "source": "UBOS 2014"}}, {"type": "node", "id": 9889556951, "lat": 1.3180828, "lon": 34.3422313, "tags": {"name": "Were", "place": "village", "source": "UBOS 2014"}}, {"type": "node", "id": 9889556952, "lat": 1.3211772, "lon": 34.3387685, "tags": {"name": "Taramasiga West", "place": "village", "source": "UBOS 2014"}}, {"type": "node", "id": 9889556953, "lat": 1.327188, "lon": 34.3221305, "tags": {"name": "Kamalaisumbet", "place": "village", "source": "UBOS 2014"}}, {"type": "node", "id": 9889556955, "lat": 1.3217219, "lon": 34.3309937, "tags": {"name": "Asikenwo", "place": "village", "source": "UBOS 2014"}}, {"type": "node", "id": 9889556956, "lat": 1.3272797, "lon": 34.3307967, "tags": {"name": "Kapkwitabes", "place": "village", "source": "UBOS 2014"}}, {"type": "node", "id": 9889556957, "lat": 1.3186648, "lon": 34.3278648, "tags": {"name": "Bonyo", "place": "village", "source": "UBOS 2014"}}, {"type": "node", "id": 9889556958, "lat": 1.3121454, "lon": 34.3398904, "tags": {"name": "Kapmworyemwo", "place": "village", "source": "UBOS 2014"}}, {"type": "node", "id": 9889556959, "lat": 1.3179881, "lon": 34.338463, "tags": {"name": "Chesongol", "place": "village", "source": "UBOS 2014"}}, {"type": "node", "id": 9889556960, "lat": 1.3235341, "lon": 34.3275692, "tags": {"name": "Narubanga", "place": "village", "source": "UBOS 2014"}}, {"type": "node", "id": 9889556961, "lat": 1.3255422, "lon": 34.3351887, "tags": {"name": "Reberwo", "place": "village", "source": "UBOS 2014"}}, {"type": "node", "id": 9889556962, "lat": 1.3138709, "lon": 34.3359005, "tags": {"name": "Chemuron", "place": "village", "source": "UBOS 2014"}}, {"type": "node", "id": 9889556963, "lat": 1.3238555, "lon": 34.3378806, "tags": {"name": "Menwo", "place": "village", "source": "UBOS 2014"}}, {"type": "node", "id": 9889556964, "lat": 1.3149252, "lon": 34.3323333, "tags": {"name": "Kangaramu", "place": "village", "source": "UBOS 2014"}}, {"type": "node", "id": 9889556965, "lat": 1.3157374, "lon": 34.3507508, "tags": {"name": "Bosha", "place": "village", "source": "UBOS 2014"}}, {"type": "node", "id": 9889556966, "lat": 1.3157133, "lon": 34.3408384, "tags": {"name": "Kapnatuwe", "place": "village", "source": "UBOS 2014"}}, {"type": "node", "id": 9889556967, "lat": 1.3168435, "lon": 34.3460889, "tags": {"name": "Loch", "place": "village", "source": "UBOS 2014"}}, {"type": "node", "id": 9889556968, "lat": 1.3237721, "lon": 34.3427312, "tags": {"name": "Kubonyo", "place": "village", "source": "UBOS 2014"}}, {"type": "node", "id": 9889556969, "lat": 1.312418, "lon": 34.3297746, "tags": {"name": "Chesum Central", "place": "village", "source": "UBOS 2014"}}, {"type": "node", "id": 9889556971, "lat": 1.3256603, "lon": 34.3328728, "tags": {"name": "Nagoigoi", "place": "village", "source": "UBOS 2014"}}, {"type": "node", "id": 9889556972, "lat": 1.3229482, "lon": 34.3208552, "tags": {"name": "Ngerep", "place": "village", "source": "UBOS 2014"}}, {"type": "node", "id": 9889556973, "lat": 1.3137175, "lon": 34.346453, "tags": {"name": "Chelawai", "place": "village", "source": "UBOS 2014"}}, {"type": "node", "id": 9889556974, "lat": 1.3202761, "lon": 34.3419909, "tags": {"name": "Taramasiga East", "place": "village", "source": "UBOS 2014"}}, {"type": "node", "id": 9889556975, "lat": 1.3277155, "lon": 34.3257555, "tags": {"name": "Kaptono", "place": "village", "source": "UBOS 2014"}}, {"type": "node", "id": 9889556976, "lat": 1.3291316, "lon": 34.3280162, "tags": {"name": "Walwal", "place": "village", "source": "UBOS 2014"}}, {"type": "node", "id": 9889556977, "lat": 1.3118054, "lon": 34.3332978, "tags": {"name": "Chesum East", "place": "village", "source": "UBOS 2014"}}, {"type": "node", "id": 9889556978, "lat": 1.3201575, "lon": 34.3347259, "tags": {"name": "Kubilat Central", "place": "village", "source": "UBOS 2014"}}, {"type": "node", "id": 9889556979, "lat": 1.3259952, "lon": 34.3371658, "tags": {"name": "Ngesi", "place": "village", "source": "UBOS 2014"}}, {"type": "node", "id": 9889556980, "lat": 1.3160825, "lon": 34.3367898, "tags": {"name": "Kapchoron", "place": "village", "source": "UBOS 2014"}}, {"type": "node", "id": 9889556981, "lat": 1.3176651, "lon": 34.3480381, "tags": {"name": "Kaplebete Central", "place": "village", "source": "UBOS 2014"}}, {"type": "node", "id": 9889556982, "lat": 1.3174204, "lon": 34.3341184, "tags": {"name": "Kapsirikwo", "place": "village", "source": "UBOS 2014"}}, {"type": "node", "id": 9889556983, "lat": 1.3197179, "lon": 34.3368468, "tags": {"name": "Kubilat", "place": "village", "source": "UBOS 2014"}}, {"type": "node", "id": 9889592817, "lat": 1.3461382, "lon": 34.3324685, "tags": {"name": "Kamugoyon", "place": "village", "source": "UBOS 2014"}}, {"type": "node", "id": 9889592818, "lat": 1.3513469, "lon": 34.333675, "tags": {"name": "Ngerep", "place": "village", "source": "UBOS 2014"}}, {"type": "node", "id": 9889592819, "lat": 1.3401516, "lon": 34.340514, "tags": {"name": "Kapkwosho", "place": "village", "source": "UBOS 2014"}}, {"type": "node", "id": 9889592820, "lat": 1.3414819, "lon": 34.3439142, "tags": {"name": "Kitany", "place": "village", "source": "UBOS 2014"}}, {"type": "node", "id": 9889592821, "lat": 1.3167989, "lon": 34.3192907, "tags": {"name": "Kangaria", "place": "village", "source": "UBOS 2014"}}, {"type": "node", "id": 9889592822, "lat": 1.3528407, "lon": 34.3440818, "tags": {"name": "Kapweni", "place": "village", "source": "UBOS 2014"}}, {"type": "node", "id": 9889592823, "lat": 1.3325598, "lon": 34.3221978, "tags": {"name": "Kapchogo", "place": "village", "source": "UBOS 2014"}}, {"type": "node", "id": 9889592825, "lat": 1.345384, "lon": 34.3429165, "tags": {"name": "Chemusabu", "place": "village", "source": "UBOS 2014"}}, {"type": "node", "id": 9889592826, "lat": 1.3322456, "lon": 34.3354598, "tags": {"name": "Kamurogo", "place": "village", "source": "UBOS 2014"}}, {"type": "node", "id": 9889592827, "lat": 1.3349993, "lon": 34.3292117, "tags": {"name": "Kamugongen", "place": "village", "source": "UBOS 2014"}}, {"type": "node", "id": 9889592828, "lat": 1.3687062, "lon": 34.3333426, "tags": {"name": "Kasongo", "place": "village", "source": "UBOS 2014"}}, {"type": "node", "id": 9889592829, "lat": 1.3428561, "lon": 34.3307414, "tags": {"name": "Chekwanda", "place": "village", "source": "UBOS 2014"}}, {"type": "node", "id": 9889592830, "lat": 1.3545905, "lon": 34.333517, "tags": {"name": "Ngerep", "place": "village", "source": "UBOS 2014"}}, {"type": "node", "id": 9889592831, "lat": 1.3672126, "lon": 34.3252103, "tags": {"name": "Chemare", "place": "village", "source": "UBOS 2014"}}, {"type": "node", "id": 9889592832, "lat": 1.3391727, "lon": 34.3386134, "tags": {"name": "Kapsakaik", "place": "village", "source": "UBOS 2014"}}, {"type": "node", "id": 9889592833, "lat": 1.333642, "lon": 34.3424057, "tags": {"name": "Woryondet", "place": "village", "source": "UBOS 2014"}}, {"type": "node", "id": 9889592834, "lat": 1.3501192, "lon": 34.3256215, "tags": {"name": "Namugimba", "place": "village", "source": "UBOS 2014"}}, {"type": "node", "id": 9889592835, "lat": 1.3545226, "lon": 34.3407907, "tags": {"name": "Kuryondet", "place": "village", "source": "UBOS 2014"}}, {"type": "node", "id": 9889592836, "lat": 1.3289305, "lon": 34.3415492, "tags": {"name": "Loch", "place": "village", "source": "UBOS 2014"}}, {"type": "node", "id": 9889592837, "lat": 1.3389479, "lon": 34.332552, "tags": {"name": "Cheptilyal", "place": "village", "source": "UBOS 2014"}}, {"type": "node", "id": 9889592838, "lat": 1.3348972, "lon": 34.3136094, "tags": {"name": "Chekwatit", "place": "village", "source": "UBOS 2014"}}, {"type": "node", "id": 9889592839, "lat": 1.3441174, "lon": 34.3489807, "tags": {"name": "Kaptito", "place": "village", "source": "UBOS 2014"}}, {"type": "node", "id": 9889592840, "lat": 1.3384657, "lon": 34.3270358, "tags": {"name": "Kapchekubwa", "place": "village", "source": "UBOS 2014"}}, {"type": "node", "id": 9889592841, "lat": 1.3757872, "lon": 34.3333821, "tags": {"name": "Sirinda", "place": "village", "source": "UBOS 2014"}}, {"type": "node", "id": 9889592842, "lat": 1.3528284, "lon": 34.3361641, "tags": {"name": "Mondin", "place": "village", "source": "UBOS 2014"}}, {"type": "node", "id": 9889592843, "lat": 1.3547442, "lon": 34.3334749, "tags": {"name": "Mondin", "place": "village", "source": "UBOS 2014"}}, {"type": "node", "id": 9889592844, "lat": 1.3556641, "lon": 34.3332079, "tags": {"name": "Ngerep", "place": "village", "source": "UBOS 2014"}}, {"type": "node", "id": 9889592845, "lat": 1.3383175, "lon": 34.3376985, "tags": {"name": "Kamaido", "place": "village", "source": "UBOS 2014"}}, {"type": "node", "id": 9889592846, "lat": 1.3368462, "lon": 34.3465406, "tags": {"name": "Kabukole", "place": "village", "source": "UBOS 2014"}}, {"type": "node", "id": 9889592847, "lat": 1.3492551, "lon": 34.3203627, "tags": {"name": "Namugimba", "place": "village", "source": "UBOS 2014"}}, {"type": "node", "id": 9889592848, "lat": 1.3470489, "lon": 34.3381905, "tags": {"name": "Kapkwombolo", "place": "village", "source": "UBOS 2014"}}, {"type": "node", "id": 9889592849, "lat": 1.3299156, "lon": 34.3432171, "tags": {"name": "Kapseber", "place": "village", "source": "UBOS 2014"}}, {"type": "node", "id": 9889592850, "lat": 1.3454989, "lon": 34.3458954, "tags": {"name": "Reberwo", "place": "village", "source": "UBOS 2014"}}, {"type": "node", "id": 10202111157, "lat": 1.2485598, "lon": 34.329996, "tags": {"is_in:country_code": "UG", "name": "Kiyanza(namwenje)", "place": "village", "source": "Ubos 2014"}}, {"type": "node", "id": 10202111158, "lat": 1.2870763, "lon": 34.2970789, "tags": {"is_in:country_code": "UG", "name": "Buwanyama A", "place": "village", "source": "Ubos 2014"}}, {"type": "node", "id": 10202111159, "lat": 1.2724335, "lon": 34.2818415, "tags": {"is_in:country_code": "UG", "name": "Kokoto", "place": "village", "source": "Ubos 2014"}}, {"type": "node", "id": 10202111160, "lat": 1.1610851, "lon": 34.2642935, "tags": {"is_in:country_code": "UG", "name": "Kigunga", "place": "village", "source": "Ubos 2014"}}, {"type": "node", "id": 10202111161, "lat": 1.2403354, "lon": 34.2242358, "tags": {"is_in:country_code": "UG", "name": "Kirombe", "place": "village", "source": "Ubos 2014"}}, {"type": "node", "id": 10202111162, "lat": 1.1814248, "lon": 34.3446285, "tags": {"is_in:country_code": "UG", "name": "Kirali", "place": "village", "source": "Ubos 2014"}}, {"type": "node", "id": 10202111166, "lat": 1.2359685, "lon": 34.238571, "tags": {"is_in:country_code": "UG", "name": "Special Area", "place": "village", "source": "Ubos 2014"}}, {"type": "node", "id": 10202111167, "lat": 1.2341667, "lon": 34.247251, "tags": {"is_in:country_code": "UG", "name": "Wabwemi Cell", "place": "village", "source": "Ubos 2014"}}, {"type": "node", "id": 10202111168, "lat": 1.2318728, "lon": 34.2486794, "tags": {"is_in:country_code": "UG", "name": "Centre Cell", "place": "village", "source": "Ubos 2014"}}, {"type": "node", "id": 10202111169, "lat": 1.2333096, "lon": 34.2428478, "tags": {"is_in:country_code": "UG", "name": "Masaba Cell", "place": "village", "source": "Ubos 2014"}}, {"type": "node", "id": 10202111170, "lat": 1.2358917, "lon": 34.2419215, "tags": {"is_in:country_code": "UG", "name": "Wereba", "place": "village", "source": "Ubos 2014"}}, {"type": "node", "id": 10202111171, "lat": 1.2455945, "lon": 34.229332, "tags": {"is_in:country_code": "UG", "name": "Bulucheka", "place": "village", "source": "Ubos 2014"}}, {"type": "node", "id": 10202111173, "lat": 1.1633528, "lon": 34.2473919, "tags": {"is_in:country_code": "UG", "name": "Bunabujuko", "place": "village", "source": "Ubos 2014"}}, {"type": "node", "id": 10202111174, "lat": 1.2212965, "lon": 34.2085486, "tags": {"is_in:country_code": "UG", "name": "Buhumwa", "place": "village", "source": "Ubos 2014"}}, {"type": "node", "id": 10202111189, "lat": 1.2219783, "lon": 34.2492636, "tags": {"is_in:country_code": "UG", "name": "Elgon Cell", "place": "village", "source": "Ubos 2014"}}, {"type": "node", "id": 10202111192, "lat": 1.2403196, "lon": 34.2420921, "tags": {"is_in:country_code": "UG", "name": "Jewa(kibira Ward)", "place": "village", "source": "Ubos 2014"}}, {"type": "node", "id": 10202111193, "lat": 1.2366827, "lon": 34.2492056, "tags": {"is_in:country_code": "UG", "name": "Budoba Cell", "place": "village", "source": "Ubos 2014"}}, {"type": "node", "id": 10202111194, "lat": 1.2427, "lon": 34.2476558, "tags": {"is_in:country_code": "UG", "name": "Jambuli Cell", "place": "village", "source": "Ubos 2014"}}, {"type": "node", "id": 10202111195, "lat": 1.2485645, "lon": 34.2407346, "tags": {"is_in:country_code": "UG", "name": "Abbatoir Cell", "place": "village", "source": "Ubos 2014"}}, {"type": "node", "id": 10202111196, "lat": 1.2624399, "lon": 34.2373864, "tags": {"is_in:country_code": "UG", "name": "Nabirende Cell", "place": "village", "source": "Ubos 2014"}}, {"type": "node", "id": 10202111197, "lat": 1.2705441, "lon": 34.2475229, "tags": {"is_in:country_code": "UG", "name": "Kibira Cell", "place": "village", "source": "Ubos 2014"}}, {"type": "node", "id": 10202111198, "lat": 1.2527718, "lon": 34.2524078, "tags": {"is_in:country_code": "UG", "name": "Bikajjo Cell", "place": "village", "source": "Ubos 2014"}}, {"type": "node", "id": 10202111199, "lat": 1.2244257, "lon": 34.2397468, "tags": {"is_in:country_code": "UG", "name": "Masola Cell", "place": "village", "source": "Ubos 2014"}}, {"type": "node", "id": 10202111200, "lat": 1.2292997, "lon": 34.2443521, "tags": {"is_in:country_code": "UG", "name": "Land Cell", "place": "village", "source": "Ubos 2014"}}, {"type": "node", "id": 10202111201, "lat": 1.2267927, "lon": 34.2453859, "tags": {"is_in:country_code": "UG", "name": "West Inn Cell", "place": "village", "source": "Ubos 2014"}}, {"type": "node", "id": 10202111202, "lat": 1.2262942, "lon": 34.2485767, "tags": {"is_in:country_code": "UG", "name": "Salikwa Cell", "place": "village", "source": "Ubos 2014"}}, {"type": "node", "id": 10202111203, "lat": 1.2269171, "lon": 34.243062, "tags": {"is_in:country_code": "UG", "name": "Busiu Cell", "place": "village", "source": "Ubos 2014"}}, {"type": "node", "id": 10202111204, "lat": 1.2273337, "lon": 34.246877, "tags": {"is_in:country_code": "UG", "name": "West Inn Cell", "place": "village", "source": "Ubos 2014"}}, {"type": "node", "id": 10202111205, "lat": 1.2285944, "lon": 34.2475751, "tags": {"is_in:country_code": "UG", "name": "Salikwa Cell", "place": "village", "source": "Ubos 2014"}}, {"type": "node", "id": 10202111206, "lat": 1.2300849, "lon": 34.2460762, "tags": {"is_in:country_code": "UG", "name": "Lufula", "place": "village", "source": "Ubos 2014"}}, {"type": "node", "id": 10202111207, "lat": 1.2388961, "lon": 34.2520583, "tags": {"is_in:country_code": "UG", "name": "Sironko Cell", "place": "village", "source": "Ubos 2014"}}, {"type": "node", "id": 10202111208, "lat": 1.239562, "lon": 34.2562632, "tags": {"is_in:country_code": "UG", "name": "Bridge Cell", "place": "village", "source": "Ubos 2014"}}, {"type": "node", "id": 10202111209, "lat": 1.2364883, "lon": 34.2538951, "tags": {"is_in:country_code": "UG", "name": "Ginnery Cell", "place": "village", "source": "Ubos 2014"}}, {"type": "node", "id": 10202111210, "lat": 1.2322274, "lon": 34.2507275, "tags": {"is_in:country_code": "UG", "name": "East Inn Cell", "place": "village", "source": "Ubos 2014"}}, {"type": "node", "id": 10202111211, "lat": 1.2286969, "lon": 34.2527589, "tags": {"is_in:country_code": "UG", "name": "Dubana Cell", "place": "village", "source": "Ubos 2014"}}, {"type": "node", "id": 10202111212, "lat": 1.2451197, "lon": 34.2534093, "tags": {"is_in:country_code": "UG", "name": "Valley Cell", "place": "village", "source": "Ubos 2014"}}, {"type": "node", "id": 10202111213, "lat": 1.2282265, "lon": 34.2502698, "tags": {"is_in:country_code": "UG", "name": "Dubana Cell", "place": "village", "source": "Ubos 2014"}}, {"type": "node", "id": 10202111214, "lat": 1.2253515, "lon": 34.253587, "tags": {"is_in:country_code": "UG", "name": "Tesso Inn Cell", "place": "village", "source": "Ubos 2014"}}, {"type": "node", "id": 10202111215, "lat": 1.2126672, "lon": 34.2450634, "tags": {"is_in:country_code": "UG", "name": "Mujini Cell", "place": "village", "source": "Ubos 2014"}}, {"type": "node", "id": 10202111216, "lat": 1.2183017, "lon": 34.2520325, "tags": {"is_in:country_code": "UG", "name": "Busano Cell", "place": "village", "source": "Ubos 2014"}}, {"type": "node", "id": 10202129817, "lat": 1.2122545, "lon": 34.2600951, "tags": {"is_in:country_code": "UG", "name": "Makhonje Cell", "place": "village", "source": "Ubos 2014"}}, {"type": "node", "id": 10202129818, "lat": 1.2291452, "lon": 34.2371806, "tags": {"is_in:country_code": "UG", "name": "Bunanimi Cell", "place": "village", "source": "Ubos 2014"}}, {"type": "node", "id": 10202129819, "lat": 1.2125571, "lon": 34.2523447, "tags": {"is_in:country_code": "UG", "name": "Mahempe Cell", "place": "village", "source": "Ubos 2014"}}, {"type": "node", "id": 10202129820, "lat": 1.2189064, "lon": 34.2436369, "tags": {"is_in:country_code": "UG", "name": "Naluwali Cell", "place": "village", "source": "Ubos 2014"}}, {"type": "node", "id": 10202129821, "lat": 1.205409, "lon": 34.2528963, "tags": {"is_in:country_code": "UG", "name": "Namiini Cell", "place": "village", "source": "Ubos 2014"}}, {"type": "node", "id": 10202129822, "lat": 1.1748241, "lon": 34.259509, "tags": {"is_in:country_code": "UG", "name": "Makonge", "place": "village", "source": "Ubos 2014"}}, {"type": "node", "id": 10202129824, "lat": 1.1728731, "lon": 34.3382677, "tags": {"is_in:country_code": "UG", "name": "Kisenyi B(nakiwondwe Ward)", "place": "village", "source": "Ubos 2014"}}, {"type": "node", "id": 10202129825, "lat": 1.1662866, "lon": 34.3422467, "tags": {"is_in:country_code": "UG", "name": "Bumanza(nakiwondwe Ward)", "place": "village", "source": "Ubos 2014"}}, {"type": "node", "id": 10202129826, "lat": 1.1702966, "lon": 34.3390455, "tags": {"is_in:country_code": "UG", "name": "Wagagai B", "place": "village", "source": "Ubos 2014"}}, {"type": "node", "id": 10202129827, "lat": 1.1709707, "lon": 34.337248, "tags": {"is_in:country_code": "UG", "name": "Wagagai A", "place": "village", "source": "Ubos 2014"}}, {"type": "node", "id": 10202129828, "lat": 1.1718873, "lon": 34.3362461, "tags": {"is_in:country_code": "UG", "name": "Nakiwondwe", "place": "village", "source": "Ubos 2014"}}, {"type": "node", "id": 10202129829, "lat": 1.174362, "lon": 34.3372665, "tags": {"is_in:country_code": "UG", "name": "Kisenyi A(nakiwondwe Ward)", "place": "village", "source": "Ubos 2014"}}, {"type": "node", "id": 10202129830, "lat": 1.1740136, "lon": 34.3355532, "tags": {"is_in:country_code": "UG", "name": "Leo Wagunya Memorial", "place": "village", "source": "Ubos 2014"}}, {"type": "node", "id": 10202129831, "lat": 1.1663674, "lon": 34.3398944, "tags": {"is_in:country_code": "UG", "name": "Masebe", "place": "village", "source": "Ubos 2014"}}, {"type": "node", "id": 10202129832, "lat": 1.1742869, "lon": 34.3337608, "tags": {"is_in:country_code": "UG", "name": "Namasanda B", "place": "village", "source": "Ubos 2014"}}, {"type": "node", "id": 10202129833, "lat": 1.1633135, "lon": 34.3397639, "tags": {"is_in:country_code": "UG", "name": "Bukabombwe", "place": "village", "source": "Ubos 2014"}}, {"type": "node", "id": 10202129834, "lat": 1.1618933, "lon": 34.3387771, "tags": {"is_in:country_code": "UG", "name": "Tank Hill", "place": "village", "source": "Ubos 2014"}}, {"type": "node", "id": 10202129835, "lat": 1.1675305, "lon": 34.3376938, "tags": {"is_in:country_code": "UG", "name": "Bujuwumi A", "place": "village", "source": "Ubos 2014"}}, {"type": "node", "id": 10202129836, "lat": 1.1669169, "lon": 34.3350991, "tags": {"is_in:country_code": "UG", "name": "Bujuwumi B", "place": "village", "source": "Ubos 2014"}}, {"type": "node", "id": 10202129837, "lat": 1.1694923, "lon": 34.335458, "tags": {"is_in:country_code": "UG", "name": "Nabisokwe", "place": "village", "source": "Ubos 2014"}}, {"type": "node", "id": 10202129838, "lat": 1.1717139, "lon": 34.3339258, "tags": {"is_in:country_code": "UG", "name": "Namasanda A", "place": "village", "source": "Ubos 2014"}}, {"type": "node", "id": 10202129839, "lat": 1.1678806, "lon": 34.332246, "tags": {"is_in:country_code": "UG", "name": "Dwaliro", "place": "village", "source": "Ubos 2014"}}, {"type": "node", "id": 10202129840, "lat": 1.1669588, "lon": 34.3269121, "tags": {"is_in:country_code": "UG", "name": "Lukayi(bunyodde Ward)", "place": "village", "source": "Ubos 2014"}}, {"type": "node", "id": 10202129841, "lat": 1.1594743, "lon": 34.3313396, "tags": {"is_in:country_code": "UG", "name": "Bunyodde B", "place": "village", "source": "Ubos 2014"}}, {"type": "node", "id": 10202129842, "lat": 1.1614088, "lon": 34.3325563, "tags": {"is_in:country_code": "UG", "name": "Bunyodde A", "place": "village", "source": "Ubos 2014"}}, {"type": "node", "id": 10202129843, "lat": 1.1758833, "lon": 34.3231363, "tags": {"is_in:country_code": "UG", "name": "Bumatofu", "place": "village", "source": "Ubos 2014"}}, {"type": "node", "id": 10202129844, "lat": 1.1740993, "lon": 34.3316415, "tags": {"is_in:country_code": "UG", "name": "Gibinda East", "place": "village", "source": "Ubos 2014"}}, {"type": "node", "id": 10202129845, "lat": 1.1796417, "lon": 34.3295722, "tags": {"is_in:country_code": "UG", "name": "Gibinda North", "place": "village", "source": "Ubos 2014"}}, {"type": "node", "id": 10202129846, "lat": 1.1769593, "lon": 34.3287631, "tags": {"is_in:country_code": "UG", "name": "Gibinda West", "place": "village", "source": "Ubos 2014"}}, {"type": "node", "id": 10202129847, "lat": 1.1706031, "lon": 34.3299253, "tags": {"is_in:country_code": "UG", "name": "Muganza", "place": "village", "source": "Ubos 2014"}}, {"type": "node", "id": 10202129848, "lat": 1.1710327, "lon": 34.3255731, "tags": {"is_in:country_code": "UG", "name": "Kalawa", "place": "village", "source": "Ubos 2014"}}, {"type": "node", "id": 10202129849, "lat": 1.1752192, "lon": 34.3187066, "tags": {"is_in:country_code": "UG", "name": "Nadaki", "place": "village", "source": "Ubos 2014"}}, {"type": "node", "id": 10202129850, "lat": 1.1785286, "lon": 34.3128895, "tags": {"is_in:country_code": "UG", "name": "Bubuyi(kalawa Ward)", "place": "village", "source": "Ubos 2014"}}, {"type": "node", "id": 10202129851, "lat": 1.1768153, "lon": 34.3259934, "tags": {"is_in:country_code": "UG", "name": "Nakidoowa", "place": "village", "source": "Ubos 2014"}}, {"type": "node", "id": 10202129852, "lat": 1.1816201, "lon": 34.3219132, "tags": {"is_in:country_code": "UG", "name": "Buwesonga(kalawa Ward)", "place": "village", "source": "Ubos 2014"}}, {"type": "node", "id": 10202129853, "lat": 1.1834056, "lon": 34.3115323, "tags": {"is_in:country_code": "UG", "name": "Bunatanyo", "place": "village", "source": "Ubos 2014"}}, {"type": "node", "id": 10202129854, "lat": 1.1725411, "lon": 34.321765, "tags": {"is_in:country_code": "UG", "name": "Kaluwoli", "place": "village", "source": "Ubos 2014"}}, {"type": "node", "id": 10202129855, "lat": 1.164806, "lon": 34.3373888, "tags": {"is_in:country_code": "UG", "name": "Nakifumbuko", "place": "village", "source": "Ubos 2014"}}, {"type": "node", "id": 10202129857, "lat": 1.1592998, "lon": 34.3392369, "tags": {"is_in:country_code": "UG", "name": "Nabini(bumba)", "place": "village", "source": "Ubos 2014"}}, {"type": "node", "id": 10202129861, "lat": 1.1634917, "lon": 34.334227, "tags": {"is_in:country_code": "UG", "name": "Suguta(bukyambi)", "place": "village", "source": "Ubos 2014"}}, {"type": "node", "id": 10202129862, "lat": 1.1609661, "lon": 34.336426, "tags": {"is_in:country_code": "UG", "name": "Kibezu", "place": "village", "source": "Ubos 2014"}}, {"type": "node", "id": 10202129867, "lat": 1.1598167, "lon": 34.328279, "tags": {"is_in:country_code": "UG", "name": "Kirugu", "place": "village", "source": "Ubos 2014"}}, {"type": "node", "id": 10202129908, "lat": 1.1593227, "lon": 34.3497703, "tags": {"is_in:country_code": "UG", "name": "Namasiya(namweje)", "place": "village", "source": "Ubos 2014"}}, {"type": "node", "id": 10202129911, "lat": 1.1603932, "lon": 34.3477616, "tags": {"is_in:country_code": "UG", "name": "Nazu", "place": "village", "source": "Ubos 2014"}}, {"type": "node", "id": 10202129912, "lat": 1.161673, "lon": 34.3450238, "tags": {"is_in:country_code": "UG", "name": "Kiduwa", "place": "village", "source": "Ubos 2014"}}, {"type": "node", "id": 10202130146, "lat": 1.1647986, "lon": 34.3484568, "tags": {"is_in:country_code": "UG", "name": "Tasale", "place": "village", "source": "Ubos 2014"}}, {"type": "node", "id": 10202130239, "lat": 1.1601857, "lon": 34.3221945, "tags": {"is_in:country_code": "UG", "name": "Bumutongole", "place": "village", "source": "Ubos 2014"}}, {"type": "node", "id": 10202130240, "lat": 1.1630237, "lon": 34.3207052, "tags": {"is_in:country_code": "UG", "name": "Bunabeha", "place": "village", "source": "Ubos 2014"}}, {"type": "node", "id": 10202130242, "lat": 1.1670426, "lon": 34.3183432, "tags": {"is_in:country_code": "UG", "name": "Kisoso", "place": "village", "source": "Ubos 2014"}}, {"type": "node", "id": 10202130243, "lat": 1.1668621, "lon": 34.31542, "tags": {"is_in:country_code": "UG", "name": "Buweri A", "place": "village", "source": "Ubos 2014"}}, {"type": "node", "id": 10202130244, "lat": 1.1705529, "lon": 34.316466, "tags": {"is_in:country_code": "UG", "name": "Buyi", "place": "village", "source": "Ubos 2014"}}, {"type": "node", "id": 10202130245, "lat": 1.1730714, "lon": 34.3115007, "tags": {"is_in:country_code": "UG", "name": "Kishuli", "place": "village", "source": "Ubos 2014"}}, {"type": "node", "id": 10202130246, "lat": 1.1700328, "lon": 34.3098901, "tags": {"is_in:country_code": "UG", "name": "Wosita", "place": "village", "source": "Ubos 2014"}}, {"type": "node", "id": 10202130247, "lat": 1.1652115, "lon": 34.3148562, "tags": {"is_in:country_code": "UG", "name": "Buweri B", "place": "village", "source": "Ubos 2014"}}, {"type": "node", "id": 10202130248, "lat": 1.1633751, "lon": 34.3023866, "tags": {"is_in:country_code": "UG", "name": "Bumusi B", "place": "village", "source": "Ubos 2014"}}, {"type": "node", "id": 10202130249, "lat": 1.1652317, "lon": 34.3109434, "tags": {"is_in:country_code": "UG", "name": "Mutumba", "place": "village", "source": "Ubos 2014"}}, {"type": "node", "id": 10202130250, "lat": 1.16311, "lon": 34.3073222, "tags": {"is_in:country_code": "UG", "name": "Mabbiga", "place": "village", "source": "Ubos 2014"}}, {"type": "node", "id": 10202130251, "lat": 1.1595204, "lon": 34.3041351, "tags": {"is_in:country_code": "UG", "name": "Bumusi A", "place": "village", "source": "Ubos 2014"}}, {"type": "node", "id": 10202130268, "lat": 1.1598994, "lon": 34.2863045, "tags": {"is_in:country_code": "UG", "name": "Bumayamba A", "place": "village", "source": "Ubos 2014"}}, {"type": "node", "id": 10202130270, "lat": 1.1605997, "lon": 34.2826635, "tags": {"is_in:country_code": "UG", "name": "Dunga(bumayamba)", "place": "village", "source": "Ubos 2014"}}, {"type": "node", "id": 10202130275, "lat": 1.1631626, "lon": 34.2976948, "tags": {"is_in:country_code": "UG", "name": "Bulumolo", "place": "village", "source": "Ubos 2014"}}, {"type": "node", "id": 10202130276, "lat": 1.1595914, "lon": 34.2932898, "tags": {"is_in:country_code": "UG", "name": "Bulambuli", "place": "village", "source": "Ubos 2014"}}, {"type": "node", "id": 10202130277, "lat": 1.1684671, "lon": 34.2905687, "tags": {"is_in:country_code": "UG", "name": "Bunamakongo A", "place": "village", "source": "Ubos 2014"}}, {"type": "node", "id": 10202130278, "lat": 1.1608815, "lon": 34.2906813, "tags": {"is_in:country_code": "UG", "name": "Buwadika", "place": "village", "source": "Ubos 2014"}}, {"type": "node", "id": 10202130280, "lat": 1.183107, "lon": 34.2885796, "tags": {"is_in:country_code": "UG", "name": "Bunyifu", "place": "village", "source": "Ubos 2014"}}, {"type": "node", "id": 10202130281, "lat": 1.1687515, "lon": 34.3032622, "tags": {"is_in:country_code": "UG", "name": "Nesome", "place": "village", "source": "Ubos 2014"}}, {"type": "node", "id": 10202130282, "lat": 1.1755837, "lon": 34.2991986, "tags": {"is_in:country_code": "UG", "name": "Takye", "place": "village", "source": "Ubos 2014"}}, {"type": "node", "id": 10202130283, "lat": 1.1855319, "lon": 34.297106, "tags": {"is_in:country_code": "UG", "name": "Womuyemba A", "place": "village", "source": "Ubos 2014"}}, {"type": "node", "id": 10202130284, "lat": 1.1807082, "lon": 34.2987909, "tags": {"is_in:country_code": "UG", "name": "Womuyemba B", "place": "village", "source": "Ubos 2014"}}, {"type": "node", "id": 10202130285, "lat": 1.1966629, "lon": 34.2917762, "tags": {"is_in:country_code": "UG", "name": "Bunazeba", "place": "village", "source": "Ubos 2014"}}, {"type": "node", "id": 10202130286, "lat": 1.1889319, "lon": 34.3015776, "tags": {"is_in:country_code": "UG", "name": "Bugibuni", "place": "village", "source": "Ubos 2014"}}, {"type": "node", "id": 10202130287, "lat": 1.1699715, "lon": 34.2966924, "tags": {"is_in:country_code": "UG", "name": "Buyola", "place": "village", "source": "Ubos 2014"}}, {"type": "node", "id": 10202130288, "lat": 1.1767703, "lon": 34.2889697, "tags": {"is_in:country_code": "UG", "name": "Nakidega", "place": "village", "source": "Ubos 2014"}}, {"type": "node", "id": 10202130289, "lat": 1.211781, "lon": 34.3459471, "tags": {"is_in:country_code": "UG", "name": "Mani", "place": "village", "source": "Ubos 2014"}}, {"type": "node", "id": 10202130290, "lat": 1.2132665, "lon": 34.3430406, "tags": {"is_in:country_code": "UG", "name": "Gimbiri", "place": "village", "source": "Ubos 2014"}}, {"type": "node", "id": 10202130291, "lat": 1.215261, "lon": 34.3426348, "tags": {"is_in:country_code": "UG", "name": "Nagudi(kikolo)", "place": "village", "source": "Ubos 2014"}}, {"type": "node", "id": 10202130292, "lat": 1.2165698, "lon": 34.3412668, "tags": {"is_in:country_code": "UG", "name": "Kibanda(kikolo)", "place": "village", "source": "Ubos 2014"}}, {"type": "node", "id": 10202130293, "lat": 1.2089879, "lon": 34.3453256, "tags": {"is_in:country_code": "UG", "name": "Kikolo(kikolo)", "place": "village", "source": "Ubos 2014"}}, {"type": "node", "id": 10202130294, "lat": 1.2198789, "lon": 34.3393413, "tags": {"is_in:country_code": "UG", "name": "Namasiya(kikolo)", "place": "village", "source": "Ubos 2014"}}, {"type": "node", "id": 10202130295, "lat": 1.2180464, "lon": 34.3398751, "tags": {"is_in:country_code": "UG", "name": "Buwobudulo", "place": "village", "source": "Ubos 2014"}}, {"type": "node", "id": 10202130303, "lat": 1.2143136, "lon": 34.35082, "tags": {"is_in:country_code": "UG", "name": "Namawugutu", "place": "village", "source": "Ubos 2014"}}, {"type": "node", "id": 10202130304, "lat": 1.2155228, "lon": 34.3503439, "tags": {"is_in:country_code": "UG", "name": "Kigomu", "place": "village", "source": "Ubos 2014"}}, {"type": "node", "id": 10202130305, "lat": 1.2164189, "lon": 34.3489381, "tags": {"is_in:country_code": "UG", "name": "Nakitali", "place": "village", "source": "Ubos 2014"}}, {"type": "node", "id": 10202130306, "lat": 1.2211556, "lon": 34.349583, "tags": {"is_in:country_code": "UG", "name": "Mbala", "place": "village", "source": "Ubos 2014"}}, {"type": "node", "id": 10202130308, "lat": 1.2183929, "lon": 34.3479405, "tags": {"is_in:country_code": "UG", "name": "Togi", "place": "village", "source": "Ubos 2014"}}, {"type": "node", "id": 10202130309, "lat": 1.2203199, "lon": 34.3467711, "tags": {"is_in:country_code": "UG", "name": "Lwanda(butandiga)", "place": "village", "source": "Ubos 2014"}}, {"type": "node", "id": 10202130310, "lat": 1.2215946, "lon": 34.3449464, "tags": {"is_in:country_code": "UG", "name": "Lula", "place": "village", "source": "Ubos 2014"}}, {"type": "node", "id": 10202130311, "lat": 1.2225716, "lon": 34.3475231, "tags": {"is_in:country_code": "UG", "name": "Kilindi", "place": "village", "source": "Ubos 2014"}}, {"type": "node", "id": 10202130312, "lat": 1.223893, "lon": 34.3439756, "tags": {"is_in:country_code": "UG", "name": "Kiddodo", "place": "village", "source": "Ubos 2014"}}, {"type": "node", "id": 10202130313, "lat": 1.2249387, "lon": 34.3414278, "tags": {"is_in:country_code": "UG", "name": "Gabaji", "place": "village", "source": "Ubos 2014"}}, {"type": "node", "id": 10202130314, "lat": 1.2278469, "lon": 34.337832, "tags": {"is_in:country_code": "UG", "name": "Bunabususu Trc", "place": "village", "source": "Ubos 2014"}}, {"type": "node", "id": 10202130315, "lat": 1.2278144, "lon": 34.3405034, "tags": {"is_in:country_code": "UG", "name": "Nalutaso(butandiga)", "place": "village", "source": "Ubos 2014"}}, {"type": "node", "id": 10202130316, "lat": 1.2260199, "lon": 34.3388749, "tags": {"is_in:country_code": "UG", "name": "Bunabususu", "place": "village", "source": "Ubos 2014"}}, {"type": "node", "id": 10202130317, "lat": 1.2319367, "lon": 34.3360441, "tags": {"is_in:country_code": "UG", "name": "Kalaza", "place": "village", "source": "Ubos 2014"}}, {"type": "node", "id": 10202130318, "lat": 1.2301405, "lon": 34.3374388, "tags": {"is_in:country_code": "UG", "name": "Zelele", "place": "village", "source": "Ubos 2014"}}, {"type": "node", "id": 10202130320, "lat": 1.2292633, "lon": 34.3351206, "tags": {"is_in:country_code": "UG", "name": "Gibutogwa", "place": "village", "source": "Ubos 2014"}}, {"type": "node", "id": 10202130321, "lat": 1.2335657, "lon": 34.3347756, "tags": {"is_in:country_code": "UG", "name": "Mayiyi(butandiga)", "place": "village", "source": "Ubos 2014"}}, {"type": "node", "id": 10202130322, "lat": 1.2323271, "lon": 34.3348985, "tags": {"is_in:country_code": "UG", "name": "Tombo", "place": "village", "source": "Ubos 2014"}}, {"type": "node", "id": 10202130323, "lat": 1.2336954, "lon": 34.3298493, "tags": {"is_in:country_code": "UG", "name": "Lusha(butandiga)", "place": "village", "source": "Ubos 2014"}}, {"type": "node", "id": 10202130325, "lat": 1.2359415, "lon": 34.3328519, "tags": {"is_in:country_code": "UG", "name": "Nambogo", "place": "village", "source": "Ubos 2014"}}, {"type": "node", "id": 10202130326, "lat": 1.2370023, "lon": 34.3306092, "tags": {"is_in:country_code": "UG", "name": "Sigindi", "place": "village", "source": "Ubos 2014"}}, {"type": "node", "id": 10202130327, "lat": 1.2372178, "lon": 34.3325839, "tags": {"is_in:country_code": "UG", "name": "Busoliti", "place": "village", "source": "Ubos 2014"}}, {"type": "node", "id": 10202130328, "lat": 1.2370247, "lon": 34.3285849, "tags": {"is_in:country_code": "UG", "name": "Buwambwa", "place": "village", "source": "Ubos 2014"}}, {"type": "node", "id": 10202130329, "lat": 1.2381804, "lon": 34.3267416, "tags": {"is_in:country_code": "UG", "name": "Kilongo", "place": "village", "source": "Ubos 2014"}}, {"type": "node", "id": 10202130330, "lat": 1.2391053, "lon": 34.3245062, "tags": {"is_in:country_code": "UG", "name": "Nadiso", "place": "village", "source": "Ubos 2014"}}, {"type": "node", "id": 10202130331, "lat": 1.2407044, "lon": 34.3221048, "tags": {"is_in:country_code": "UG", "name": "Gombe(mbaya)", "place": "village", "source": "Ubos 2014"}}, {"type": "node", "id": 10202130332, "lat": 1.2345439, "lon": 34.3337037, "tags": {"is_in:country_code": "UG", "name": "Kikuyu(mbaya)", "place": "village", "source": "Ubos 2014"}}, {"type": "node", "id": 10202130333, "lat": 1.2422953, "lon": 34.3203966, "tags": {"is_in:country_code": "UG", "name": "Bunamahe(mbaya)", "place": "village", "source": "Ubos 2014"}}, {"type": "node", "id": 10202130334, "lat": 1.2436196, "lon": 34.3185033, "tags": {"is_in:country_code": "UG", "name": "Bunashembe", "place": "village", "source": "Ubos 2014"}}, {"type": "node", "id": 10202130335, "lat": 1.2409797, "lon": 34.3153514, "tags": {"is_in:country_code": "UG", "name": "Bumagaba", "place": "village", "source": "Ubos 2014"}}, {"type": "node", "id": 10202130336, "lat": 1.2392228, "lon": 34.3220569, "tags": {"is_in:country_code": "UG", "name": "Sebeli", "place": "village", "source": "Ubos 2014"}}, {"type": "node", "id": 10202130337, "lat": 1.2419016, "lon": 34.313881, "tags": {"is_in:country_code": "UG", "name": "Siimi", "place": "village", "source": "Ubos 2014"}}, {"type": "node", "id": 10202130338, "lat": 1.243376, "lon": 34.3131477, "tags": {"is_in:country_code": "UG", "name": "Salo", "place": "village", "source": "Ubos 2014"}}, {"type": "node", "id": 10202130339, "lat": 1.2446977, "lon": 34.3122648, "tags": {"is_in:country_code": "UG", "name": "Bukirindya", "place": "village", "source": "Ubos 2014"}}, {"type": "node", "id": 10202130340, "lat": 1.2465254, "lon": 34.3104688, "tags": {"is_in:country_code": "UG", "name": "Zemugugoni", "place": "village", "source": "Ubos 2014"}}, {"type": "node", "id": 10202130341, "lat": 1.2495259, "lon": 34.3124789, "tags": {"is_in:country_code": "UG", "name": "Kisabasi", "place": "village", "source": "Ubos 2014"}}, {"type": "node", "id": 10202130342, "lat": 1.2530239, "lon": 34.3082631, "tags": {"is_in:country_code": "UG", "name": "Mbatta", "place": "village", "source": "Ubos 2014"}}, {"type": "node", "id": 10202130343, "lat": 1.2521237, "lon": 34.3123106, "tags": {"is_in:country_code": "UG", "name": "Gabuyokyi(mbaya)", "place": "village", "source": "Ubos 2014"}}, {"type": "node", "id": 10202130344, "lat": 1.2517408, "lon": 34.3097341, "tags": {"is_in:country_code": "UG", "name": "Zemedeni", "place": "village", "source": "Ubos 2014"}}, {"type": "node", "id": 10202130345, "lat": 1.2487658, "lon": 34.3061761, "tags": {"is_in:country_code": "UG", "name": "Bunagudi(bukirindya)", "place": "village", "source": "Ubos 2014"}}, {"type": "node", "id": 10202130346, "lat": 1.2538183, "lon": 34.3071828, "tags": {"is_in:country_code": "UG", "name": "Gayoni", "place": "village", "source": "Ubos 2014"}}, {"type": "node", "id": 10202130347, "lat": 1.24588, "lon": 34.315845, "tags": {"is_in:country_code": "UG", "name": "Lutale(mbaya)", "place": "village", "source": "Ubos 2014"}}, {"type": "node", "id": 10202130348, "lat": 1.2520014, "lon": 34.3027063, "tags": {"is_in:country_code": "UG", "name": "Gangali(bukirindya)", "place": "village", "source": "Ubos 2014"}}, {"type": "node", "id": 10202130349, "lat": 1.2543696, "lon": 34.3008727, "tags": {"is_in:country_code": "UG", "name": "Zebugyira", "place": "village", "source": "Ubos 2014"}}, {"type": "node", "id": 10202130350, "lat": 1.2567481, "lon": 34.3045989, "tags": {"is_in:country_code": "UG", "name": "Gangali(mbaya)", "place": "village", "source": "Ubos 2014"}}, {"type": "node", "id": 10202130351, "lat": 1.2575844, "lon": 34.303654, "tags": {"is_in:country_code": "UG", "name": "Kibei", "place": "village", "source": "Ubos 2014"}}, {"type": "node", "id": 10202130352, "lat": 1.2598996, "lon": 34.2966931, "tags": {"is_in:country_code": "UG", "name": "Giramiko", "place": "village", "source": "Ubos 2014"}}, {"type": "node", "id": 10202130353, "lat": 1.2596998, "lon": 34.3011275, "tags": {"is_in:country_code": "UG", "name": "Mabale(mbaya)", "place": "village", "source": "Ubos 2014"}}, {"type": "node", "id": 10202130354, "lat": 1.2443584, "lon": 34.3273671, "tags": {"is_in:country_code": "UG", "name": "Kifundi", "place": "village", "source": "Ubos 2014"}}, {"type": "node", "id": 10202130355, "lat": 1.2449698, "lon": 34.325554, "tags": {"is_in:country_code": "UG", "name": "Shongo", "place": "village", "source": "Ubos 2014"}}, {"type": "node", "id": 10202130356, "lat": 1.2466203, "lon": 34.3230162, "tags": {"is_in:country_code": "UG", "name": "Ngwele(sigwa)", "place": "village", "source": "Ubos 2014"}}, {"type": "node", "id": 10202130357, "lat": 1.2479409, "lon": 34.3200988, "tags": {"is_in:country_code": "UG", "name": "Lukobo(sigwa)", "place": "village", "source": "Ubos 2014"}}, {"type": "node", "id": 10202130358, "lat": 1.2488889, "lon": 34.3178663, "tags": {"is_in:country_code": "UG", "name": "Sigwa", "place": "village", "source": "Ubos 2014"}}, {"type": "node", "id": 10202130359, "lat": 1.2510395, "lon": 34.3170304, "tags": {"is_in:country_code": "UG", "name": "Maluku(sigwa)", "place": "village", "source": "Ubos 2014"}}, {"type": "node", "id": 10202130360, "lat": 1.2530752, "lon": 34.3154198, "tags": {"is_in:country_code": "UG", "name": "Gabuyokyi(sigwa)", "place": "village", "source": "Ubos 2014"}}, {"type": "node", "id": 10202130361, "lat": 1.255934, "lon": 34.3137322, "tags": {"is_in:country_code": "UG", "name": "Kidega(sigwa)", "place": "village", "source": "Ubos 2014"}}, {"type": "node", "id": 10202130362, "lat": 1.2576904, "lon": 34.3112797, "tags": {"is_in:country_code": "UG", "name": "Jewa(sigwa)", "place": "village", "source": "Ubos 2014"}}, {"type": "node", "id": 10202130363, "lat": 1.2590318, "lon": 34.3086487, "tags": {"is_in:country_code": "UG", "name": "Naludoyi", "place": "village", "source": "Ubos 2014"}}, {"type": "node", "id": 10202130364, "lat": 1.262916, "lon": 34.3012996, "tags": {"is_in:country_code": "UG", "name": "Zelembu", "place": "village", "source": "Ubos 2014"}}, {"type": "node", "id": 10202130365, "lat": 1.2323617, "lon": 34.3323562, "tags": {"is_in:country_code": "UG", "name": "Gibutele", "place": "village", "source": "Ubos 2014"}}, {"type": "node", "id": 10202130366, "lat": 1.255173, "lon": 34.3057571, "tags": {"is_in:country_code": "UG", "name": "Kijewa(mbaya)", "place": "village", "source": "Ubos 2014"}}, {"type": "node", "id": 10202130367, "lat": 1.236637, "lon": 34.3218114, "tags": {"is_in:country_code": "UG", "name": "Washongo", "place": "village", "source": "Ubos 2014"}}, {"type": "node", "id": 10202130382, "lat": 1.2020347, "lon": 34.3497661, "tags": {"is_in:country_code": "UG", "name": "Masaka", "place": "village", "source": "Ubos 2014"}}, {"type": "node", "id": 10202130383, "lat": 1.2067336, "lon": 34.3482521, "tags": {"is_in:country_code": "UG", "name": "Namwenje(busahe)", "place": "village", "source": "Ubos 2014"}}, {"type": "node", "id": 10202130384, "lat": 1.2058048, "lon": 34.3430196, "tags": {"is_in:country_code": "UG", "name": "Busahe", "place": "village", "source": "Ubos 2014"}}, {"type": "node", "id": 10202130385, "lat": 1.2043712, "lon": 34.3426864, "tags": {"is_in:country_code": "UG", "name": "Kituti(busahe)", "place": "village", "source": "Ubos 2014"}}, {"type": "node", "id": 10202130387, "lat": 1.1888507, "lon": 34.3444422, "tags": {"is_in:country_code": "UG", "name": "Kwana", "place": "village", "source": "Ubos 2014"}}, {"type": "node", "id": 10202130388, "lat": 1.1960077, "lon": 34.3511529, "tags": {"is_in:country_code": "UG", "name": "Goimo", "place": "village", "source": "Ubos 2014"}}, {"type": "node", "id": 10202130391, "lat": 1.1927794, "lon": 34.3451319, "tags": {"is_in:country_code": "UG", "name": "Kuusi", "place": "village", "source": "Ubos 2014"}}, {"type": "node", "id": 10202130392, "lat": 1.1953096, "lon": 34.345536, "tags": {"is_in:country_code": "UG", "name": "Bunamwamba", "place": "village", "source": "Ubos 2014"}}, {"type": "node", "id": 10202130393, "lat": 1.1963074, "lon": 34.3408491, "tags": {"is_in:country_code": "UG", "name": "Gimeyeze", "place": "village", "source": "Ubos 2014"}}, {"type": "node", "id": 10202130394, "lat": 1.19207, "lon": 34.3486965, "tags": {"is_in:country_code": "UG", "name": "Makande", "place": "village", "source": "Ubos 2014"}}, {"type": "node", "id": 10202130395, "lat": 1.2008874, "lon": 34.3432352, "tags": {"is_in:country_code": "UG", "name": "Wdida", "place": "village", "source": "Ubos 2014"}}, {"type": "node", "id": 10202130396, "lat": 1.1876917, "lon": 34.3513293, "tags": {"is_in:country_code": "UG", "name": "Bunabukonde", "place": "village", "source": "Ubos 2014"}}, {"type": "node", "id": 10202130424, "lat": 1.1866574, "lon": 34.3436008, "tags": {"is_in:country_code": "UG", "name": "Lundu", "place": "village", "source": "Ubos 2014"}}, {"type": "node", "id": 10202130425, "lat": 1.2506667, "lon": 34.3278773, "tags": {"is_in:country_code": "UG", "name": "Namwenje(namwenje)", "place": "village", "source": "Ubos 2014"}}, {"type": "node", "id": 10202130426, "lat": 1.2530935, "lon": 34.3242322, "tags": {"is_in:country_code": "UG", "name": "Ngwele(namwenje)", "place": "village", "source": "Ubos 2014"}}, {"type": "node", "id": 10202130429, "lat": 1.2197631, "lon": 34.3185047, "tags": {"is_in:country_code": "UG", "name": "Namanje", "place": "village", "source": "Ubos 2014"}}, {"type": "node", "id": 10202130430, "lat": 1.2195482, "lon": 34.3133154, "tags": {"is_in:country_code": "UG", "name": "Maluku(bumulisya)", "place": "village", "source": "Ubos 2014"}}, {"type": "node", "id": 10202130431, "lat": 1.2168308, "lon": 34.3179916, "tags": {"is_in:country_code": "UG", "name": "Lubondo", "place": "village", "source": "Ubos 2014"}}, {"type": "node", "id": 10202130432, "lat": 1.2170395, "lon": 34.3139844, "tags": {"is_in:country_code": "UG", "name": "Lubidyo(bumulisya)", "place": "village", "source": "Ubos 2014"}}, {"type": "node", "id": 10202130434, "lat": 1.2131393, "lon": 34.3174341, "tags": {"is_in:country_code": "UG", "name": "Dokoli", "place": "village", "source": "Ubos 2014"}}, {"type": "node", "id": 10202130435, "lat": 1.2061967, "lon": 34.3324988, "tags": {"is_in:country_code": "UG", "name": "Kigomu Trc", "place": "village", "source": "Ubos 2014"}}, {"type": "node", "id": 10202130436, "lat": 1.2083445, "lon": 34.3290626, "tags": {"is_in:country_code": "UG", "name": "Ganga-dyani", "place": "village", "source": "Ubos 2014"}}, {"type": "node", "id": 10202130437, "lat": 1.2049956, "lon": 34.329927, "tags": {"is_in:country_code": "UG", "name": "Bumudoma", "place": "village", "source": "Ubos 2014"}}, {"type": "node", "id": 10202130438, "lat": 1.2072082, "lon": 34.3273283, "tags": {"is_in:country_code": "UG", "name": "Zebobeni", "place": "village", "source": "Ubos 2014"}}, {"type": "node", "id": 10202130439, "lat": 1.2027443, "lon": 34.3289083, "tags": {"is_in:country_code": "UG", "name": "Lukayi(bumalimba)", "place": "village", "source": "Ubos 2014"}}, {"type": "node", "id": 10202130440, "lat": 1.2055906, "lon": 34.335514, "tags": {"is_in:country_code": "UG", "name": "Mawo", "place": "village", "source": "Ubos 2014"}}, {"type": "node", "id": 10202130441, "lat": 1.2023281, "lon": 34.3348623, "tags": {"is_in:country_code": "UG", "name": "Gamalongo", "place": "village", "source": "Ubos 2014"}}, {"type": "node", "id": 10202130442, "lat": 1.198275, "lon": 34.3276857, "tags": {"is_in:country_code": "UG", "name": "Maniaku", "place": "village", "source": "Ubos 2014"}}, {"type": "node", "id": 10202130443, "lat": 1.2003578, "lon": 34.3352076, "tags": {"is_in:country_code": "UG", "name": "Store Trc", "place": "village", "source": "Ubos 2014"}}, {"type": "node", "id": 10202130444, "lat": 1.1984109, "lon": 34.3325533, "tags": {"is_in:country_code": "UG", "name": "Suguta(bumalimba)", "place": "village", "source": "Ubos 2014"}}, {"type": "node", "id": 10202130445, "lat": 1.2092343, "lon": 34.3382208, "tags": {"is_in:country_code": "UG", "name": "Kalitusi", "place": "village", "source": "Ubos 2014"}}, {"type": "node", "id": 10202130446, "lat": 1.2121184, "lon": 34.335446, "tags": {"is_in:country_code": "UG", "name": "Magikiri", "place": "village", "source": "Ubos 2014"}}, {"type": "node", "id": 10202130447, "lat": 1.2021972, "lon": 34.3403242, "tags": {"is_in:country_code": "UG", "name": "Kituti(bumalimba)", "place": "village", "source": "Ubos 2014"}}, {"type": "node", "id": 10202130448, "lat": 1.2034704, "lon": 34.3386825, "tags": {"is_in:country_code": "UG", "name": "Nambalenze(bumalimba)", "place": "village", "source": "Ubos 2014"}}, {"type": "node", "id": 10202130449, "lat": 1.2023321, "lon": 34.3321451, "tags": {"is_in:country_code": "UG", "name": "Zehugu", "place": "village", "source": "Ubos 2014"}}, {"type": "node", "id": 10202130450, "lat": 1.2091707, "lon": 34.3359629, "tags": {"is_in:country_code": "UG", "name": "Kifulo", "place": "village", "source": "Ubos 2014"}}, {"type": "node", "id": 10202130451, "lat": 1.2088416, "lon": 34.3315248, "tags": {"is_in:country_code": "UG", "name": "Namakolo", "place": "village", "source": "Ubos 2014"}}, {"type": "node", "id": 10202130452, "lat": 1.2133817, "lon": 34.3337305, "tags": {"is_in:country_code": "UG", "name": "Kisinyo", "place": "village", "source": "Ubos 2014"}}, {"type": "node", "id": 10202130453, "lat": 1.2126546, "lon": 34.3300488, "tags": {"is_in:country_code": "UG", "name": "Kikuyu(bumalimba)", "place": "village", "source": "Ubos 2014"}}, {"type": "node", "id": 10202130454, "lat": 1.2149963, "lon": 34.3289039, "tags": {"is_in:country_code": "UG", "name": "Bumaludye", "place": "village", "source": "Ubos 2014"}}, {"type": "node", "id": 10202130460, "lat": 1.1722383, "lon": 34.3506808, "tags": {"is_in:country_code": "UG", "name": "Nanyinya(busiita)", "place": "village", "source": "Ubos 2014"}}, {"type": "node", "id": 10202130461, "lat": 1.1772313, "lon": 34.3486151, "tags": {"is_in:country_code": "UG", "name": "Kisaali(busiita)", "place": "village", "source": "Ubos 2014"}}, {"type": "node", "id": 10202130462, "lat": 1.1706809, "lon": 34.3471682, "tags": {"is_in:country_code": "UG", "name": "Nasekye", "place": "village", "source": "Ubos 2014"}}, {"type": "node", "id": 10202130463, "lat": 1.1725987, "lon": 34.345676, "tags": {"is_in:country_code": "UG", "name": "Nakitembwe", "place": "village", "source": "Ubos 2014"}}, {"type": "node", "id": 10202130464, "lat": 1.1733621, "lon": 34.3474384, "tags": {"is_in:country_code": "UG", "name": "Bubbi", "place": "village", "source": "Ubos 2014"}}, {"type": "node", "id": 10202130465, "lat": 1.1734802, "lon": 34.3439371, "tags": {"is_in:country_code": "UG", "name": "Lulemba", "place": "village", "source": "Ubos 2014"}}, {"type": "node", "id": 10202130466, "lat": 1.1751859, "lon": 34.3481081, "tags": {"is_in:country_code": "UG", "name": "Napumbira", "place": "village", "source": "Ubos 2014"}}, {"type": "node", "id": 10202130467, "lat": 1.1738459, "lon": 34.3492374, "tags": {"is_in:country_code": "UG", "name": "Tulutulu", "place": "village", "source": "Ubos 2014"}}, {"type": "node", "id": 10202130468, "lat": 1.1752263, "lon": 34.3503933, "tags": {"is_in:country_code": "UG", "name": "Bunabende", "place": "village", "source": "Ubos 2014"}}, {"type": "node", "id": 10202130470, "lat": 1.1760476, "lon": 34.3466522, "tags": {"is_in:country_code": "UG", "name": "Gogoki", "place": "village", "source": "Ubos 2014"}}, {"type": "node", "id": 10202130471, "lat": 1.1754589, "lon": 34.3453073, "tags": {"is_in:country_code": "UG", "name": "Nabukalu", "place": "village", "source": "Ubos 2014"}}, {"type": "node", "id": 10202130472, "lat": 1.1686047, "lon": 34.345777, "tags": {"is_in:country_code": "UG", "name": "Suguta(bumugwedi)", "place": "village", "source": "Ubos 2014"}}, {"type": "node", "id": 10202130486, "lat": 1.1744888, "lon": 34.3423951, "tags": {"is_in:country_code": "UG", "name": "Bumadyemu", "place": "village", "source": "Ubos 2014"}}, {"type": "node", "id": 10202130487, "lat": 1.1746472, "lon": 34.3398863, "tags": {"is_in:country_code": "UG", "name": "Mayiiyi", "place": "village", "source": "Ubos 2014"}}, {"type": "node", "id": 10202130488, "lat": 1.1757346, "lon": 34.3435205, "tags": {"is_in:country_code": "UG", "name": "Kololo", "place": "village", "source": "Ubos 2014"}}, {"type": "node", "id": 10202130489, "lat": 1.1759662, "lon": 34.3412787, "tags": {"is_in:country_code": "UG", "name": "Matati", "place": "village", "source": "Ubos 2014"}}, {"type": "node", "id": 10202130490, "lat": 1.1794609, "lon": 34.3385583, "tags": {"is_in:country_code": "UG", "name": "Namabungu(bumadyemu)", "place": "village", "source": "Ubos 2014"}}, {"type": "node", "id": 10202130491, "lat": 1.1734617, "lon": 34.3399757, "tags": {"is_in:country_code": "UG", "name": "Nangongo", "place": "village", "source": "Ubos 2014"}}, {"type": "node", "id": 10202130492, "lat": 1.1873675, "lon": 34.3468831, "tags": {"is_in:country_code": "UG", "name": "Bunanzofu", "place": "village", "source": "Ubos 2014"}}, {"type": "node", "id": 10202130494, "lat": 1.184407, "lon": 34.3415515, "tags": {"is_in:country_code": "UG", "name": "Namiluga(kirali)", "place": "village", "source": "Ubos 2014"}}, {"type": "node", "id": 10202130495, "lat": 1.1810792, "lon": 34.3500538, "tags": {"is_in:country_code": "UG", "name": "Mawupu", "place": "village", "source": "Ubos 2014"}}, {"type": "node", "id": 10202130496, "lat": 1.190217, "lon": 34.3422959, "tags": {"is_in:country_code": "UG", "name": "Nayaya", "place": "village", "source": "Ubos 2014"}}, {"type": "node", "id": 10202130497, "lat": 1.1864912, "lon": 34.3383293, "tags": {"is_in:country_code": "UG", "name": "Bunejesa(kibolo)", "place": "village", "source": "Ubos 2014"}}, {"type": "node", "id": 10202130498, "lat": 1.1872837, "lon": 34.3354694, "tags": {"is_in:country_code": "UG", "name": "Kiniganigo", "place": "village", "source": "Ubos 2014"}}, {"type": "node", "id": 10202130499, "lat": 1.1900974, "lon": 34.332537, "tags": {"is_in:country_code": "UG", "name": "Kisumu(kibolo)", "place": "village", "source": "Ubos 2014"}}, {"type": "node", "id": 10202130500, "lat": 1.193439, "lon": 34.3310442, "tags": {"is_in:country_code": "UG", "name": "Lufumi", "place": "village", "source": "Ubos 2014"}}, {"type": "node", "id": 10202130501, "lat": 1.1944356, "lon": 34.3384707, "tags": {"is_in:country_code": "UG", "name": "Gombe(kibolo)", "place": "village", "source": "Ubos 2014"}}, {"type": "node", "id": 10202130502, "lat": 1.1944521, "lon": 34.3353722, "tags": {"is_in:country_code": "UG", "name": "Budindi", "place": "village", "source": "Ubos 2014"}}, {"type": "node", "id": 10202130503, "lat": 1.1904489, "lon": 34.3396192, "tags": {"is_in:country_code": "UG", "name": "Kibira(kibolo)", "place": "village", "source": "Ubos 2014"}}, {"type": "node", "id": 10202130504, "lat": 1.1955943, "lon": 34.3300542, "tags": {"is_in:country_code": "UG", "name": "Lukobo(kibolo)", "place": "village", "source": "Ubos 2014"}}, {"type": "node", "id": 10202130505, "lat": 1.1838425, "lon": 34.3360458, "tags": {"is_in:country_code": "UG", "name": "Kikolo(kibolo)", "place": "village", "source": "Ubos 2014"}}, {"type": "node", "id": 10202130506, "lat": 1.1942115, "lon": 34.3110944, "tags": {"is_in:country_code": "UG", "name": "Biwa", "place": "village", "source": "Ubos 2014"}}, {"type": "node", "id": 10202130507, "lat": 1.1936685, "lon": 34.318598, "tags": {"is_in:country_code": "UG", "name": "Bukyagwe", "place": "village", "source": "Ubos 2014"}}, {"type": "node", "id": 10202130508, "lat": 1.1920107, "lon": 34.3208932, "tags": {"is_in:country_code": "UG", "name": "Buwesonga(bumatofu)", "place": "village", "source": "Ubos 2014"}}, {"type": "node", "id": 10202130509, "lat": 1.1903126, "lon": 34.3233289, "tags": {"is_in:country_code": "UG", "name": "Bukitemu", "place": "village", "source": "Ubos 2014"}}, {"type": "node", "id": 10202130510, "lat": 1.1889147, "lon": 34.3198914, "tags": {"is_in:country_code": "UG", "name": "Miwu Fr", "place": "village", "source": "Ubos 2014"}}, {"type": "node", "id": 10202130511, "lat": 1.1984014, "lon": 34.3152038, "tags": {"is_in:country_code": "UG", "name": "Namiri", "place": "village", "source": "Ubos 2014"}}, {"type": "node", "id": 10202130512, "lat": 1.20759, "lon": 34.2983962, "tags": {"is_in:country_code": "UG", "name": "Kidago", "place": "village", "source": "Ubos 2014"}}, {"type": "node", "id": 10202130513, "lat": 1.2038644, "lon": 34.2940416, "tags": {"is_in:country_code": "UG", "name": "Nangisilili", "place": "village", "source": "Ubos 2014"}}, {"type": "node", "id": 10202130514, "lat": 1.2035886, "lon": 34.3021756, "tags": {"is_in:country_code": "UG", "name": "Masabasi(mutufu)", "place": "village", "source": "Ubos 2014"}}, {"type": "node", "id": 10202130515, "lat": 1.1963443, "lon": 34.3038967, "tags": {"is_in:country_code": "UG", "name": "Bunandasa", "place": "village", "source": "Ubos 2014"}}, {"type": "node", "id": 10202130516, "lat": 1.1991377, "lon": 34.3007744, "tags": {"is_in:country_code": "UG", "name": "Nabidago", "place": "village", "source": "Ubos 2014"}}, {"type": "node", "id": 10202130517, "lat": 1.207287, "lon": 34.3111573, "tags": {"is_in:country_code": "UG", "name": "Kibizi", "place": "village", "source": "Ubos 2014"}}, {"type": "node", "id": 10202130518, "lat": 1.2051268, "lon": 34.3114601, "tags": {"is_in:country_code": "UG", "name": "Kibizi", "place": "village", "source": "Ubos 2014"}}, {"type": "node", "id": 10202130519, "lat": 1.2027128, "lon": 34.3103353, "tags": {"is_in:country_code": "UG", "name": "Mutufu Trc", "place": "village", "source": "Ubos 2014"}}, {"type": "node", "id": 10202130520, "lat": 1.2087495, "lon": 34.3047315, "tags": {"is_in:country_code": "UG", "name": "Buyama", "place": "village", "source": "Ubos 2014"}}, {"type": "node", "id": 10202130521, "lat": 1.1976191, "lon": 34.3115825, "tags": {"is_in:country_code": "UG", "name": "Namabungu(mutufu)", "place": "village", "source": "Ubos 2014"}}, {"type": "node", "id": 10202130522, "lat": 1.1851305, "lon": 34.3188324, "tags": {"is_in:country_code": "UG", "name": "Namono", "place": "village", "source": "Ubos 2014"}}, {"type": "node", "id": 10202130523, "lat": 1.2057522, "lon": 34.3073657, "tags": {"is_in:country_code": "UG", "name": "Buyama", "place": "village", "source": "Ubos 2014"}}, {"type": "node", "id": 10202130524, "lat": 1.210899, "lon": 34.313395, "tags": {"is_in:country_code": "UG", "name": "Namatondolo", "place": "village", "source": "Ubos 2014"}}, {"type": "node", "id": 10202130525, "lat": 1.1994861, "lon": 34.3386635, "tags": {"is_in:country_code": "UG", "name": "Kizinga(bumalimba)", "place": "village", "source": "Ubos 2014"}}, {"type": "node", "id": 10202130526, "lat": 1.2169934, "lon": 34.3101994, "tags": {"is_in:country_code": "UG", "name": "Madodo", "place": "village", "source": "Ubos 2014"}}, {"type": "node", "id": 10202130527, "lat": 1.2143216, "lon": 34.3106186, "tags": {"is_in:country_code": "UG", "name": "Kyita", "place": "village", "source": "Ubos 2014"}}, {"type": "node", "id": 10202130528, "lat": 1.2171038, "lon": 34.3040637, "tags": {"is_in:country_code": "UG", "name": "Natanyo", "place": "village", "source": "Ubos 2014"}}, {"type": "node", "id": 10202130529, "lat": 1.2144448, "lon": 34.3017765, "tags": {"is_in:country_code": "UG", "name": "Nandere Lower", "place": "village", "source": "Ubos 2014"}}, {"type": "node", "id": 10202130530, "lat": 1.2172277, "lon": 34.3000963, "tags": {"is_in:country_code": "UG", "name": "Mabale(nandere)", "place": "village", "source": "Ubos 2014"}}, {"type": "node", "id": 10202130531, "lat": 1.22149, "lon": 34.2965349, "tags": {"is_in:country_code": "UG", "name": "Kisenyi(nandere)", "place": "village", "source": "Ubos 2014"}}, {"type": "node", "id": 10202130532, "lat": 1.2115218, "lon": 34.3074582, "tags": {"is_in:country_code": "UG", "name": "Buwetye(nandere)", "place": "village", "source": "Ubos 2014"}}, {"type": "node", "id": 10202130533, "lat": 1.2141667, "lon": 34.2960217, "tags": {"is_in:country_code": "UG", "name": "Kigokye", "place": "village", "source": "Ubos 2014"}}, {"type": "node", "id": 10202130534, "lat": 1.2175781, "lon": 34.2894439, "tags": {"is_in:country_code": "UG", "name": "Kikuyu(nandere)", "place": "village", "source": "Ubos 2014"}}, {"type": "node", "id": 10202130535, "lat": 1.2123482, "lon": 34.301467, "tags": {"is_in:country_code": "UG", "name": "Nandere Upper", "place": "village", "source": "Ubos 2014"}}, {"type": "node", "id": 10202130536, "lat": 1.2100882, "lon": 34.2966203, "tags": {"is_in:country_code": "UG", "name": "Kitagalu(nandere)", "place": "village", "source": "Ubos 2014"}}, {"type": "node", "id": 10202130537, "lat": 1.1869774, "lon": 34.2843796, "tags": {"is_in:country_code": "UG", "name": "Namakago", "place": "village", "source": "Ubos 2014"}}, {"type": "node", "id": 10202130538, "lat": 1.1758758, "lon": 34.2850835, "tags": {"is_in:country_code": "UG", "name": "Bukasaka", "place": "village", "source": "Ubos 2014"}}, {"type": "node", "id": 10202130539, "lat": 1.1653128, "lon": 34.2812167, "tags": {"is_in:country_code": "UG", "name": "Napembo(bugwagi)", "place": "village", "source": "Ubos 2014"}}, {"type": "node", "id": 10202130540, "lat": 1.1696482, "lon": 34.2851516, "tags": {"is_in:country_code": "UG", "name": "Nabitabago", "place": "village", "source": "Ubos 2014"}}, {"type": "node", "id": 10202130541, "lat": 1.169253, "lon": 34.2814834, "tags": {"is_in:country_code": "UG", "name": "Bumutale", "place": "village", "source": "Ubos 2014"}}, {"type": "node", "id": 10202130542, "lat": 1.1690778, "lon": 34.2785111, "tags": {"is_in:country_code": "UG", "name": "Bunandege", "place": "village", "source": "Ubos 2014"}}, {"type": "node", "id": 10202130543, "lat": 1.1751729, "lon": 34.2803828, "tags": {"is_in:country_code": "UG", "name": "Namakale", "place": "village", "source": "Ubos 2014"}}, {"type": "node", "id": 10202130544, "lat": 1.1673263, "lon": 34.2746302, "tags": {"is_in:country_code": "UG", "name": "Bukisa(bugwagi)", "place": "village", "source": "Ubos 2014"}}, {"type": "node", "id": 10202130545, "lat": 1.1610768, "lon": 34.2732079, "tags": {"is_in:country_code": "UG", "name": "Bukalu", "place": "village", "source": "Ubos 2014"}}, {"type": "node", "id": 10202130546, "lat": 1.1640137, "lon": 34.2757776, "tags": {"is_in:country_code": "UG", "name": "Makudu", "place": "village", "source": "Ubos 2014"}}, {"type": "node", "id": 10202130547, "lat": 1.161433, "lon": 34.2708399, "tags": {"is_in:country_code": "UG", "name": "Linda", "place": "village", "source": "Ubos 2014"}}, {"type": "node", "id": 10202130548, "lat": 1.1602535, "lon": 34.277238, "tags": {"is_in:country_code": "UG", "name": "Bukimbo", "place": "village", "source": "Ubos 2014"}}, {"type": "node", "id": 10202130549, "lat": 1.1589996, "lon": 34.2732406, "tags": {"is_in:country_code": "UG", "name": "Dubiki", "place": "village", "source": "Ubos 2014"}}, {"type": "node", "id": 10202130551, "lat": 1.1594065, "lon": 34.2688649, "tags": {"is_in:country_code": "UG", "name": "Wadero", "place": "village", "source": "Ubos 2014"}}, {"type": "node", "id": 10202130563, "lat": 1.1614598, "lon": 34.2804816, "tags": {"is_in:country_code": "UG", "name": "Nanzeyo", "place": "village", "source": "Ubos 2014"}}, {"type": "node", "id": 10202130651, "lat": 1.1660169, "lon": 34.2600189, "tags": {"is_in:country_code": "UG", "name": "Kirongo(bugwagi)", "place": "village", "source": "Ubos 2014"}}, {"type": "node", "id": 10202130652, "lat": 1.1640373, "lon": 34.2578952, "tags": {"is_in:country_code": "UG", "name": "Nakiku", "place": "village", "source": "Ubos 2014"}}, {"type": "node", "id": 10202130653, "lat": 1.1654919, "lon": 34.2634581, "tags": {"is_in:country_code": "UG", "name": "Nakadote", "place": "village", "source": "Ubos 2014"}}, {"type": "node", "id": 10202130654, "lat": 1.1640649, "lon": 34.2681025, "tags": {"is_in:country_code": "UG", "name": "Linda", "place": "village", "source": "Ubos 2014"}}, {"type": "node", "id": 10202130655, "lat": 1.1680981, "lon": 34.2711846, "tags": {"is_in:country_code": "UG", "name": "Nangwe", "place": "village", "source": "Ubos 2014"}}, {"type": "node", "id": 10202130656, "lat": 1.1715938, "lon": 34.2733378, "tags": {"is_in:country_code": "UG", "name": "Kolotosi", "place": "village", "source": "Ubos 2014"}}, {"type": "node", "id": 10202130657, "lat": 1.1768411, "lon": 34.2767312, "tags": {"is_in:country_code": "UG", "name": "Namakago", "place": "village", "source": "Ubos 2014"}}, {"type": "node", "id": 10202130658, "lat": 1.1738486, "lon": 34.2722461, "tags": {"is_in:country_code": "UG", "name": "Kangire", "place": "village", "source": "Ubos 2014"}}, {"type": "node", "id": 10202130659, "lat": 1.1781742, "lon": 34.2735723, "tags": {"is_in:country_code": "UG", "name": "Kiderema", "place": "village", "source": "Ubos 2014"}}, {"type": "node", "id": 10202130660, "lat": 1.1746807, "lon": 34.2685381, "tags": {"is_in:country_code": "UG", "name": "Bukimiya", "place": "village", "source": "Ubos 2014"}}, {"type": "node", "id": 10202130661, "lat": 1.1704848, "lon": 34.2636748, "tags": {"is_in:country_code": "UG", "name": "Kafubi", "place": "village", "source": "Ubos 2014"}}, {"type": "node", "id": 10202130662, "lat": 1.1693221, "lon": 34.2677109, "tags": {"is_in:country_code": "UG", "name": "Bukirya", "place": "village", "source": "Ubos 2014"}}, {"type": "node", "id": 10202130663, "lat": 1.1626658, "lon": 34.2599837, "tags": {"is_in:country_code": "UG", "name": "Buwanyama", "place": "village", "source": "Ubos 2014"}}, {"type": "node", "id": 10202130664, "lat": 1.161934, "lon": 34.2564737, "tags": {"is_in:country_code": "UG", "name": "Kidowa", "place": "village", "source": "Ubos 2014"}}, {"type": "node", "id": 10202130665, "lat": 1.1601131, "lon": 34.2589687, "tags": {"is_in:country_code": "UG", "name": "Napembo(nabubolo)", "place": "village", "source": "Ubos 2014"}}, {"type": "node", "id": 10202130666, "lat": 1.1589308, "lon": 34.2545953, "tags": {"is_in:country_code": "UG", "name": "Maduwa(nabubolo)", "place": "village", "source": "Ubos 2014"}}, {"type": "node", "id": 10202130667, "lat": 1.1629071, "lon": 34.2543278, "tags": {"is_in:country_code": "UG", "name": "Buwabudeya", "place": "village", "source": "Ubos 2014"}}, {"type": "node", "id": 10202130669, "lat": 1.1683609, "lon": 34.2535215, "tags": {"is_in:country_code": "UG", "name": "Bukitabo", "place": "village", "source": "Ubos 2014"}}, {"type": "node", "id": 10202130670, "lat": 1.1649495, "lon": 34.2529203, "tags": {"is_in:country_code": "UG", "name": "Namabasa", "place": "village", "source": "Ubos 2014"}}, {"type": "node", "id": 10202130671, "lat": 1.1716946, "lon": 34.2582632, "tags": {"is_in:country_code": "UG", "name": "Buwozoki A", "place": "village", "source": "Ubos 2014"}}, {"type": "node", "id": 10202130672, "lat": 1.1741786, "lon": 34.2566213, "tags": {"is_in:country_code": "UG", "name": "Luwali", "place": "village", "source": "Ubos 2014"}}, {"type": "node", "id": 10202130673, "lat": 1.1707634, "lon": 34.250721, "tags": {"is_in:country_code": "UG", "name": "Bugainza", "place": "village", "source": "Ubos 2014"}}, {"type": "node", "id": 10202130674, "lat": 1.1741178, "lon": 34.2530784, "tags": {"is_in:country_code": "UG", "name": "Natoli", "place": "village", "source": "Ubos 2014"}}, {"type": "node", "id": 10202130675, "lat": 1.1841173, "lon": 34.2567713, "tags": {"is_in:country_code": "UG", "name": "Majejemu", "place": "village", "source": "Ubos 2014"}}, {"type": "node", "id": 10202130676, "lat": 1.1842216, "lon": 34.2548702, "tags": {"is_in:country_code": "UG", "name": "Bukumusi", "place": "village", "source": "Ubos 2014"}}, {"type": "node", "id": 10202130677, "lat": 1.1829638, "lon": 34.2533524, "tags": {"is_in:country_code": "UG", "name": "Bumwangala", "place": "village", "source": "Ubos 2014"}}, {"type": "node", "id": 10202130678, "lat": 1.1807721, "lon": 34.2581994, "tags": {"is_in:country_code": "UG", "name": "Lyambaga", "place": "village", "source": "Ubos 2014"}}, {"type": "node", "id": 10202130679, "lat": 1.1919351, "lon": 34.2594923, "tags": {"is_in:country_code": "UG", "name": "Mayenze", "place": "village", "source": "Ubos 2014"}}, {"type": "node", "id": 10202130680, "lat": 1.177559, "lon": 34.2508926, "tags": {"is_in:country_code": "UG", "name": "Kyalule", "place": "village", "source": "Ubos 2014"}}, {"type": "node", "id": 10202130681, "lat": 1.1917923, "lon": 34.2571542, "tags": {"is_in:country_code": "UG", "name": "Kondoyi", "place": "village", "source": "Ubos 2014"}}, {"type": "node", "id": 10202130682, "lat": 1.1950384, "lon": 34.2692586, "tags": {"is_in:country_code": "UG", "name": "Nasusi", "place": "village", "source": "Ubos 2014"}}, {"type": "node", "id": 10202130683, "lat": 1.1914843, "lon": 34.2629698, "tags": {"is_in:country_code": "UG", "name": "Makuyu(nalusala)", "place": "village", "source": "Ubos 2014"}}, {"type": "node", "id": 10202130684, "lat": 1.1795404, "lon": 34.2674964, "tags": {"is_in:country_code": "UG", "name": "Napyo", "place": "village", "source": "Ubos 2014"}}, {"type": "node", "id": 10202130685, "lat": 1.1802428, "lon": 34.2638384, "tags": {"is_in:country_code": "UG", "name": "Kisumu(nalusala)", "place": "village", "source": "Ubos 2014"}}, {"type": "node", "id": 10202130686, "lat": 1.195012, "lon": 34.2763999, "tags": {"is_in:country_code": "UG", "name": "Nabwanya(nalusala)", "place": "village", "source": "Ubos 2014"}}, {"type": "node", "id": 10202130687, "lat": 1.1748573, "lon": 34.2634776, "tags": {"is_in:country_code": "UG", "name": "Kiyanja(nalusala)", "place": "village", "source": "Ubos 2014"}}, {"type": "node", "id": 10202130688, "lat": 1.2064617, "lon": 34.2787488, "tags": {"is_in:country_code": "UG", "name": "Jewa(nalusala)", "place": "village", "source": "Ubos 2014"}}, {"type": "node", "id": 10202130689, "lat": 1.2049887, "lon": 34.2853118, "tags": {"is_in:country_code": "UG", "name": "Kibembe(nalusala)", "place": "village", "source": "Ubos 2014"}}, {"type": "node", "id": 10202130690, "lat": 1.2112433, "lon": 34.2804881, "tags": {"is_in:country_code": "UG", "name": "Namili", "place": "village", "source": "Ubos 2014"}}, {"type": "node", "id": 10202130691, "lat": 1.2122233, "lon": 34.2720458, "tags": {"is_in:country_code": "UG", "name": "Nakilimbwa", "place": "village", "source": "Ubos 2014"}}, {"type": "node", "id": 10202130692, "lat": 1.1697099, "lon": 34.2587766, "tags": {"is_in:country_code": "UG", "name": "Buwozoki B", "place": "village", "source": "Ubos 2014"}}, {"type": "node", "id": 10202130693, "lat": 1.180854, "lon": 34.2559218, "tags": {"is_in:country_code": "UG", "name": "Bukumbale Trc", "place": "village", "source": "Ubos 2014"}}, {"type": "node", "id": 10202130694, "lat": 1.1850368, "lon": 34.2663185, "tags": {"is_in:country_code": "UG", "name": "Luseke(nalusala)", "place": "village", "source": "Ubos 2014"}}, {"type": "node", "id": 10202130695, "lat": 1.1685763, "lon": 34.2630364, "tags": {"is_in:country_code": "UG", "name": "Kisanja Trc", "place": "village", "source": "Ubos 2014"}}, {"type": "node", "id": 10202130696, "lat": 1.1864788, "lon": 34.2513405, "tags": {"is_in:country_code": "UG", "name": "Wakine A", "place": "village", "source": "Ubos 2014"}},