{"version": 0.6, "generator": "Overpass API 0.7.61.5 4133829e", "osm3s": {"timestamp_osm_base": "2024-03-05T14:46:30Z", "copyright": "The data included in this document is from www.openstreetmap.org. The data is made available under ODbL."}, "elements": [{"type": "node", "id": 278977579, "lat": 58.9122745, "lon": 11.9337655, "tags": {"amenity": "bank", "atm": "yes", "brand": "SEB", "brand:wikidata": "Q975655", "brand:wikipedia": "sv:Skandinaviska Enskilda Banken", "name": "SEB"}}, {"type": "node", "id": 462244622, "lat": 58.9122482, "lon": 11.9326675, "tags": {"amenity": "bank", "atm": "yes", "brand": "Swedbank", "brand:wikidata": "Q1145493", "brand:wikipedia": "sv:Swedbank", "name": "Swedbank"}}, {"type": "node", "id": 4126279441, "lat": 59.0291091, "lon": 12.2263355}, {"type": "node", "id": 4126279459, "lat": 59.0291544, "lon": 12.2261022}, {"type": "node", "id": 4126279469, "lat": 59.0292073, "lon": 12.2264075}, {"type": "node", "id": 4126279481, "lat": 59.0292606, "lon": 12.2264465}, {"type": "node", "id": 4126279487, "lat": 59.0293058, "lon": 12.2262132}, {"type": "node", "id": 5157771023, "lat": 59.0292864, "lon": 12.2249968, "tags": {"amenity": "bank", "atm": "yes", "name": "Dalslands Sparbank"}}, {"type": "way", "id": 410872455, "nodes": [4126279487, 4126279481, 4126279469, 4126279441, 4126279459, 4126279487], "tags": {"addr:city": "Bengtsfors", "addr:country": "SE", "addr:housenumber": "8", "addr:postcode": "666 30", "addr:street": "Storgatan", "amenity": "bank", "atm": "yes", "branch": "Bengtsfors", "brand": "Nordea", "building": "yes", "name": "Nordea"}}]}