{"version": 0.6, "generator": "Overpass API 0.7.61.5 4133829e", "osm3s": {"timestamp_osm_base": "2024-03-05T11:25:47Z", "copyright": "The data included in this document is from www.openstreetmap.org. The data is made available under ODbL."}, "elements": [{"type": "node", "id": 443367508, "lat": 8.3968648, "lon": -3.0746727, "tags": {"FIXME": "Add the name of this village (with name=*) to this node and make an area (independent of this node) with landuse=residential", "is_in": "Ivory Coast", "is_in:country": "Ivory Coast", "is_in:country_code": "CI", "place": "village"}}, {"type": "node", "id": 443367509, "lat": 8.4128276, "lon": -3.0945854, "tags": {"FIXME": "Add the name of this village (with name=*) to this node and make an area (independent of this node) with landuse=residential", "is_in": "Ivory Coast", "is_in:country": "Ivory Coast", "is_in:country_code": "CI", "place": "village"}}, {"type": "node", "id": 443367592, "lat": 8.3341973, "lon": -3.0686646, "tags": {"is_in": "Ivory Coast", "is_in:country": "Ivory Coast", "is_in:country_code": "CI", "name": "Banhui", "place": "village", "source": "AMS NC 30-14"}}, {"type": "node", "id": 443367593, "lat": 8.3257048, "lon": -3.095787, "tags": {"is_in": "Ivory Coast", "is_in:country": "Ivory Coast", "is_in:country_code": "CI", "name": "Gohondo", "place": "village", "source": "AMS NC 30-14"}}, {"type": "node", "id": 443367596, "lat": 8.3026042, "lon": -3.1139832, "tags": {"is_in": "Ivory Coast", "is_in:country": "Ivory Coast", "is_in:country_code": "CI", "name": "Toro-Sangu\u00e9hi", "place": "village", "source": "AMS NC 30-14"}}, {"type": "node", "id": 443367693, "lat": 8.288451, "lon": -2.960913, "tags": {"is_in": "Ivory Coast", "is_in:country": "Ivory Coast", "is_in:country_code": "CI", "name": "Laoudi-Ba", "place": "village", "wikidata": "Q3217703"}}, {"type": "node", "id": 443367694, "lat": 8.2569968, "lon": -2.9792148, "tags": {"FIXME": "Add the name of this village (with name=*) to this node and make an area (independent of this node) with landuse=residential", "is_in": "Ivory Coast", "is_in:country": "Ivory Coast", "is_in:country_code": "CI", "place": "village"}}, {"type": "node", "id": 443367733, "lat": 8.2526615, "lon": -3.0379372, "tags": {"is_in": "Ivory Coast", "is_in:country": "Ivory Coast", "is_in:country_code": "CI", "name": "Laoudi-Gan", "place": "village", "source": "AMS NC 30-14"}}, {"type": "node", "id": 443367734, "lat": 8.2860033, "lon": -3.0699863, "tags": {"is_in": "Ivory Coast", "is_in:country": "Ivory Coast", "is_in:country_code": "CI", "name": "Niangomani", "place": "village", "source": "AMS NC 30-14"}}, {"type": "node", "id": 443367832, "lat": 8.2511326, "lon": -3.1244545, "tags": {"is_in": "Ivory Coast", "is_in:country": "Ivory Coast", "is_in:country_code": "CI", "name": "L\u00e9di", "place": "village", "source": "GEOnet Names"}}, {"type": "node", "id": 443367847, "lat": 8.26897, "lon": -3.1017952, "tags": {"is_in": "Ivory Coast", "is_in:country": "Ivory Coast", "is_in:country_code": "CI", "name": "Zad\u00e9", "place": "village", "source": "AMS NC 30-14"}}, {"type": "node", "id": 2963884569, "lat": 8.14477, "lon": -2.986273, "tags": {"name": "Sapli", "place": "village", "source": "GEOnet Names"}}, {"type": "node", "id": 2963884571, "lat": 8.155559, "lon": -3.000285, "tags": {"name": "S\u00e9pingo", "place": "village", "source": "GEOnet Names"}}, {"type": "node", "id": 2963884575, "lat": 8.206641, "lon": -2.948122, "tags": {"name": "Y\u00e9zimala", "place": "village", "source": "GEOnet Names"}}, {"type": "node", "id": 3039914976, "lat": 8.1743178, "lon": -3.0325987, "tags": {"place": "hamlet"}}, {"type": "node", "id": 3039914987, "lat": 8.181689, "lon": -3.1053892, "tags": {"name": "Dagbalayo", "place": "hamlet", "source": "GEOnet Names"}}, {"type": "node", "id": 3039914998, "lat": 8.1898755, "lon": -3.0933348, "tags": {"place": "village"}}, {"type": "node", "id": 3039915006, "lat": 8.2023519, "lon": -3.0914661, "tags": {"name": "Boko", "place": "hamlet", "source": "GEOnet Names"}}, {"type": "node", "id": 3040171318, "lat": 8.4048201, "lon": -2.9981018, "tags": {"place": "hamlet"}}, {"type": "node", "id": 3040171326, "lat": 8.4320802, "lon": -2.982984, "tags": {"place": "hamlet"}}, {"type": "node", "id": 3040171433, "lat": 8.4402079, "lon": -2.978242, "tags": {"place": "village"}}, {"type": "node", "id": 3040171440, "lat": 8.4274137, "lon": -2.9617995, "tags": {"place": "village"}}, {"type": "node", "id": 3040171447, "lat": 8.4880098, "lon": -2.9401649, "tags": {"place": "village"}}, {"type": "node", "id": 3040171455, "lat": 8.4838369, "lon": -2.8994917, "tags": {"fixme": "name unknown", "place": "village", "source": "bing"}}, {"type": "node", "id": 3040171462, "lat": 8.4206613, "lon": -2.923519, "tags": {"place": "hamlet"}}, {"type": "node", "id": 3040171467, "lat": 8.4184887, "lon": -2.9012541, "tags": {"place": "hamlet"}}, {"type": "node", "id": 3076864804, "lat": 8.2113328, "lon": -3.0337153, "tags": {"name": "Anponou", "place": "village", "source": "GEOnet Names"}}, {"type": "node", "id": 3076864805, "lat": 8.2952589, "lon": -2.8989054, "tags": {"name": "Babaou", "place": "hamlet", "source": "GEOnet Names"}}, {"type": "node", "id": 3076864806, "lat": 8.1930671, "lon": -2.9058057, "tags": {"name": "Bak\u00e9", "place": "village", "source": "GEOnet Names"}}, {"type": "node", "id": 3076864807, "lat": 8.369487, "lon": -2.9207668, "tags": {"name": "Bana", "place": "village", "source": "GEOnet Names"}}, {"type": "node", "id": 3076864809, "lat": 8.3242135, "lon": -3.0002425, "tags": {"name": "Delkoussou", "place": "village", "source": "GEOnet Names"}}, {"type": "node", "id": 3076864810, "lat": 8.2082618, "lon": -3.0188669, "tags": {"name": "Gankoro", "place": "village", "source": "GEOnet Names"}}, {"type": "node", "id": 3076864812, "lat": 8.20365, "lon": -2.848827, "tags": {"name": "Kouafou", "place": "village", "source": "GEOnet Names"}}, {"type": "node", "id": 3076864814, "lat": 8.2616654, "lon": -2.8790223, "tags": {"name": "Naou", "place": "hamlet", "source": "GEOnet Names"}}, {"type": "node", "id": 3076864815, "lat": 8.394162, "lon": -3.093478, "tags": {"name": "P\u00e9t\u00e9y\u00e9", "place": "village", "source": "GEOnet Names"}}, {"type": "node", "id": 3076864816, "lat": 8.1795003, "lon": -2.8801144, "tags": {"name": "Sabi", "place": "village", "source": "GEOnet Names"}}, {"type": "node", "id": 3076864817, "lat": 8.2385607, "lon": -2.9791071, "tags": {"name": "Saleye", "place": "village", "source": "GEOnet Names"}}, {"type": "node", "id": 3076864818, "lat": 8.4858048, "lon": -3.077492, "tags": {"name": "Sanguita", "place": "village", "source": "GEOnet Names"}}, {"type": "node", "id": 3076864819, "lat": 8.2141701, "lon": -2.9215161, "tags": {"name": "Savagn\u00e9", "place": "hamlet", "source": "GEOnet Names"}}, {"type": "node", "id": 3076864822, "lat": 8.221905, "lon": -3.050541, "tags": {"name": "Wangar\u00e9", "place": "village", "source": "GEOnet Names"}}, {"type": "node", "id": 3076864823, "lat": 8.2218363, "lon": -2.8575142, "tags": {"name": "Wolobidi", "place": "village", "source": "GEOnet Names"}}, {"type": "node", "id": 3076864824, "lat": 8.3572487, "lon": -2.9563933, "tags": {"name": "Ya\u00e9go", "place": "village", "source": "GEOnet Names"}}, {"type": "node", "id": 3076921945, "lat": 8.1358397, "lon": -3.0708531, "tags": {"name": "Amodi", "place": "hamlet", "source": "GEOnet Names"}}, {"type": "node", "id": 3076921946, "lat": 8.0981215, "lon": -3.0843108, "tags": {"name": "Amouat\u00e9n\u00e9", "place": "hamlet", "source": "GEOnet Names"}}, {"type": "node", "id": 3076921949, "lat": 8.1202369, "lon": -2.9491689, "tags": {"name": "Bag\u00e9l\u00e9b\u00e9", "place": "hamlet", "source": "GEOnet Names"}}, {"type": "node", "id": 3076921951, "lat": 8.0993576, "lon": -2.9452292, "tags": {"name": "Bind\u00e8me", "place": "hamlet", "source": "GEOnet Names"}}, {"type": "node", "id": 3076921957, "lat": 8.1707168, "lon": -3.0663693, "tags": {"name": "Br\u00e9da", "place": "hamlet", "source": "GEOnet Names"}}, {"type": "node", "id": 3076921961, "lat": 8.1050956, "lon": -3.0372083, "tags": {"name": "Dingbi", "place": "hamlet", "source": "GEOnet Names"}}, {"type": "node", "id": 3076921964, "lat": 8.0912245, "lon": -2.9918184, "tags": {"name": "Gahimi", "place": "hamlet", "source": "GEOnet Names"}}, {"type": "node", "id": 3076921971, "lat": 8.1560655, "lon": -2.9319028, "tags": {"name": "Kiendi-Ba", "place": "village", "source": "GEOnet Names"}}, {"type": "node", "id": 3076921973, "lat": 8.118477, "lon": -2.910865, "tags": {"name": "Kouassi N'dawa", "name:en": "Kouassi-N'dawa", "place": "village", "source": "GEOnet Names"}}, {"type": "node", "id": 3076921977, "lat": 8.1358497, "lon": -2.9421603, "tags": {"name": "Nagabar\u00e9", "place": "hamlet", "source": "GEOnet Names"}}, {"type": "node", "id": 3076921981, "lat": 8.0880671, "lon": -2.966942, "tags": {"name": "Pougouvagne", "place": "village", "source": "GEOnet Names"}}, {"type": "node", "id": 3076921982, "lat": 8.1171705, "lon": -2.9656106, "tags": {"name": "Sinbilimi", "place": "hamlet", "source": "GEOnet Names"}}, {"type": "node", "id": 3076921984, "lat": 8.1139112, "lon": -2.8796711, "tags": {"name": "Songori", "place": "village", "source": "GEOnet Names"}}, {"type": "node", "id": 3076921985, "lat": 8.0864754, "lon": -2.9795802, "tags": {"name": "Sogobo", "place": "village", "source": "GEOnet Names"}}, {"type": "node", "id": 3087220198, "lat": 8.4017335, "lon": -3.1141124, "tags": {"name": "Bourgodon", "place": "village", "source": "GEOnet Names"}}, {"type": "node", "id": 3087220202, "lat": 8.232398, "lon": -3.121685, "tags": {"is_in": "Bondoukou;Bondo", "name": "Gotia", "place": "hamlet", "population": "116", "source": "GEOnet Names;INS RGPH 2014"}}, {"type": "node", "id": 3088885320, "lat": 8.1098045, "lon": -3.1426383, "tags": {"name": "Wakiala", "place": "village", "source": "GEOnet Names"}}, {"type": "node", "id": 3152782553, "lat": 8.5175168, "lon": -2.952636, "tags": {"place": "hamlet"}}, {"type": "node", "id": 3152782561, "lat": 8.5097644, "lon": -2.9519565, "tags": {"place": "hamlet"}}, {"type": "node", "id": 4868331995, "lat": 8.3729738, "lon": -2.9997677, "tags": {"place": "hamlet"}}, {"type": "node", "id": 4868332006, "lat": 8.3847345, "lon": -2.9845811, "tags": {"place": "hamlet"}}, {"type": "node", "id": 4868332098, "lat": 8.3616825, "lon": -3.0087746, "tags": {"place": "hamlet"}}, {"type": "node", "id": 4922104923, "lat": 8.2382428, "lon": -2.9377892}, {"type": "node", "id": 4922104924, "lat": 8.2374276, "lon": -2.9373674}, {"type": "node", "id": 4922104925, "lat": 8.2372553, "lon": -2.9365437}, {"type": "node", "id": 4922104926, "lat": 8.2382693, "lon": -2.9360548}, {"type": "node", "id": 4922104927, "lat": 8.2390646, "lon": -2.9365839}, {"type": "node", "id": 4922104928, "lat": 8.2396279, "lon": -2.9368249}, {"type": "node", "id": 4922104929, "lat": 8.2397008, "lon": -2.9371464}, {"type": "node", "id": 4922104930, "lat": 8.2392899, "lon": -2.9377156}, {"type": "node", "id": 4922104931, "lat": 8.2385717, "lon": -2.9370368, "tags": {"place": "hamlet"}}, {"type": "node", "id": 4922105048, "lat": 8.5152479, "lon": -3.0129813, "tags": {"place": "hamlet"}}, {"type": "node", "id": 5409097159, "lat": 8.4614591, "lon": -2.8566048, "tags": {"fixme": "name unknown", "place": "village", "source": "bing"}}, {"type": "node", "id": 5409097250, "lat": 8.3978665, "lon": -2.8695009, "tags": {"fixme": "name", "place": "hamlet", "source": "bing"}}, {"type": "node", "id": 5409130609, "lat": 8.3554307, "lon": -2.9916481, "tags": {"fixme": "name", "place": "hamlet", "source": "bing"}}, {"type": "node", "id": 6378898620, "lat": 8.4095615, "lon": -3.108294, "tags": {"fixme": "name this village", "place": "hamlet"}}, {"type": "node", "id": 8544034765, "lat": 8.1503395, "lon": -2.8794178, "tags": {"name": "Assouangui", "place": "village", "population": "500"}}, {"type": "node", "id": 8544034766, "lat": 8.1591272, "lon": -2.8680563, "tags": {"name": "koutouni", "place": "village", "population": "300"}}, {"type": "node", "id": 9577802808, "lat": 8.2386714, "lon": -2.9369718, "tags": {"name": "kogora", "place": "village", "population": "200"}}, {"type": "way", "id": 501386195, "nodes": [4922104923, 4922104924, 4922104925, 4922104926, 4922104927, 4922104928, 4922104929, 4922104930, 4922104923], "tags": {"name": "kogora", "place": "village", "population": "0"}}]}