{"version": 0.6, "generator": "Overpass API 0.7.61.5 4133829e", "osm3s": {"timestamp_osm_base": "2024-03-05T15:10:59Z", "copyright": "The data included in this document is from www.openstreetmap.org. The data is made available under ODbL."}, "elements": [{"type": "node", "id": 282181710, "lat": 62.5461507, "lon": 12.5418262, "tags": {"name": "Fun\u00e4sdalen", "name:sma": "Bienjedaelie", "place": "village", "ref:se:pts:postort": "FUN\u00c4SDALEN", "ref:se:scb": "7828"}}, {"type": "node", "id": 287996271, "lat": 62.4395616, "lon": 12.6849288, "tags": {"name": "T\u00e4nn\u00e4s", "name:sma": "Neassa", "name:sv": "T\u00e4nn\u00e4s", "place": "hamlet", "ref:se:pts:postort": "T\u00c4NN\u00c4S"}}, {"type": "node", "id": 450926000, "lat": 62.5347767, "lon": 12.6104965, "tags": {"name": "Ljusnedal", "name:sma": "Provhke", "place": "hamlet", "ref:se:pts:postort": "LJUSNEDAL"}}, {"type": "node", "id": 452594638, "lat": 62.5423638, "lon": 12.3360263, "tags": {"name": "T\u00e4nndalen", "name:sma": "Teanndaelie", "place": "village", "ref:se:pts:postort": "T\u00c4NNDALEN"}}, {"type": "node", "id": 1253589492, "lat": 62.2998361, "lon": 12.80336, "tags": {"name": "Br\u00e4nd\u00e5sen", "place": "hamlet"}}, {"type": "node", "id": 1253589498, "lat": 62.2883466, "lon": 12.8338263, "tags": {"name": "R\u00e4nningsvallen", "place": "hamlet"}}, {"type": "node", "id": 1253591607, "lat": 62.504658, "lon": 12.6192824, "tags": {"name": "Thorbygget", "place": "hamlet"}}, {"type": "node", "id": 1941307420, "lat": 62.5408626, "lon": 12.3044937, "tags": {"name": "T\u00e4nndalsvallen", "place": "hamlet"}}, {"type": "node", "id": 1952572545, "lat": 62.5414915, "lon": 12.3548138, "tags": {"name": "\u00c5svallen", "place": "village"}}, {"type": "node", "id": 2748152547, "lat": 62.5372469, "lon": 12.3971268, "tags": {"name": "Skarvrus\u00e4tern", "place": "hamlet"}}, {"type": "node", "id": 2748248571, "lat": 62.5389451, "lon": 12.408356, "tags": {"name": "Skarvruet", "place": "hamlet"}}, {"type": "node", "id": 3381514843, "lat": 62.16842, "lon": 12.2392751, "tags": {"name": "Sylen", "old_name": "Sylset", "place": "hamlet", "ssr:stedsnr": "375702"}}, {"type": "node", "id": 4030275946, "lat": 62.2700297, "lon": 12.7083381, "tags": {"name": "Gunnars", "place": "hamlet"}}, {"type": "node", "id": 4587669349, "lat": 62.5403203, "lon": 12.4442512, "tags": {"name": "H\u00e5llan", "place": "hamlet"}}, {"type": "node", "id": 5108125054, "lat": 62.5101975, "lon": 11.9296023, "tags": {"historic": "shieling", "name": "\u00d8ya", "place": "hamlet", "ssr:stedsnr": "315251"}}, {"type": "node", "id": 8425105013, "lat": 62.4227416, "lon": 11.9393153, "tags": {"name": "Nordvika", "place": "hamlet", "ssr:stedsnr": "557496"}}, {"type": "node", "id": 10123841314, "lat": 62.163389, "lon": 12.2459391, "tags": {"name": "Ryvang", "place": "hamlet", "ssr:stedsnr": "496725"}}]}