{"version": 0.6, "generator": "Overpass API 0.7.61.5 4133829e", "osm3s": {"timestamp_osm_base": "2024-03-05T13:43:59Z", "copyright": "The data included in this document is from www.openstreetmap.org. The data is made available under ODbL."}, "elements": [{"type": "node", "id": 1129939903, "lat": 37.1825124, "lon": 68.9131013, "tags": {"alt_name": "Emam Sahib;Khwaja Iman Saiyid;Khwaja;Imam Saheb;Emam Saheb;Khwaja Imam Saiyid;Hazrat", "name": "\u0627\u0645\u0627\u0645 \u0635\u0627\u062d\u0628", "name:en": "Imam Sahib", "name:ja": "\u30a4\u30de\u30fc\u30e0\u30fb\u30b5\u30d2\u30fc\u30d6", "name:ps": "\u0627\u0645\u0627\u0645 \u0635\u0627\u062d\u0628", "name:ru": "\u0418\u043c\u0430\u043c\u0441\u0430\u0445\u0438\u0431", "place": "town", "source:name": "GNS", "wikidata": "Q670101", "wikipedia": "en:Imam Sahib, Kunduz"}}, {"type": "node", "id": 1131271038, "lat": 36.7976682, "lon": 68.8852583, "tags": {"name": "Boz", "place": "hamlet"}}, {"type": "node", "id": 1131426926, "lat": 36.7925229, "lon": 68.9850179, "tags": {"name": "Darwaza Kam", "place": "hamlet"}}, {"type": "node", "id": 1131426978, "lat": 36.790179, "lon": 68.9534494, "tags": {"name": "Kanum", "place": "hamlet"}}, {"type": "node", "id": 1131427409, "lat": 36.7901928, "lon": 69.0023471, "tags": {"name": "Larkhabi", "place": "hamlet"}}, {"type": "node", "id": 3459349968, "lat": 37.065883, "lon": 69.421257, "tags": {"alt_name": "Khvajeh Ghar;Khwaja-i-Ghar;Khwaja-i-Gar;Khwaja Ghar;Khoja-i-Gar;Khwaja Gar;Khodzhagar", "name": "\u062e\u0648\u0627\u062c\u0647 \u063a\u0627\u0631", "name:en": "Khwajah Ghar", "name:ps": "\u062e\u0648\u0627\u062c\u0647 \u063a\u0627\u0631", "name:uk": "\u0425\u043e\u0434\u0436\u0430\u0491\u0430\u0440", "place": "town", "source:name": "GNS"}}, {"type": "node", "id": 3806491257, "lat": 36.8481787, "lon": 69.3693404}, {"type": "node", "id": 3806491258, "lat": 36.8464896, "lon": 69.3687519}, {"type": "node", "id": 3806491259, "lat": 36.8456749, "lon": 69.3689294}, {"type": "node", "id": 3806491260, "lat": 36.8456749, "lon": 69.3700035}, {"type": "node", "id": 3806491261, "lat": 36.8456524, "lon": 69.3721143}, {"type": "node", "id": 3806491262, "lat": 36.8463476, "lon": 69.3724973}, {"type": "node", "id": 3806491263, "lat": 36.8475061, "lon": 69.3724319}, {"type": "node", "id": 3806491264, "lat": 36.8483432, "lon": 69.3722918}, {"type": "node", "id": 3806491265, "lat": 36.8482385, "lon": 69.3708348}, {"type": "node", "id": 3806491266, "lat": 36.8483656, "lon": 69.3698541}, {"type": "node", "id": 3806491267, "lat": 36.8483731, "lon": 69.3694338}, {"type": "node", "id": 4389069368, "lat": 36.808445, "lon": 69.3980404, "tags": {"alt_name": "\u0628\u0647\u0627\u0631\u0643;Bakharak", "name": "\u0628\u0647\u0627\u0631\u06a9", "name:en": "Baharak", "name:ps": "\u0628\u0647\u0627\u0631\u06a9", "name:ru": "\u0411\u0430\u0445\u0430\u0440\u0430\u043a", "place": "town", "source:name": "GNS"}}, {"type": "node", "id": 4389069370, "lat": 36.791687, "lon": 69.412651, "tags": {"alt_name": "\u0686\u064a\u0644\u0647;Cayla", "name": "\u0686\u06cc\u0644\u0647", "name:en": "Chaylah", "name:ps": "\u0686\u06cc\u0644\u0647", "place": "village", "source:name": "GNS"}}, {"type": "node", "id": 4391364160, "lat": 37.070446, "lon": 69.298421, "tags": {"alt_name": "Arci;Cicka;Chichkeh;Chika;Chichka;Chichkah;Dasht-e Archi", "name": "\u0686\u06cc\u0686\u06a9\u0647", "name:en": "Archi", "name:ps": "\u0686\u06cc\u0686\u06a9\u0647", "place": "town", "source:name": "GNS"}}, {"type": "node", "id": 4391364161, "lat": 37.125689, "lon": 69.136649, "tags": {"name": "\u062f\u0644\u0634\u0627\u062f", "name:en": "Dilshad;Delsad;Delshad", "name:ps": "\u062f\u0644\u0634\u0627\u062f", "place": "village", "source:name": "GNS"}}, {"type": "node", "id": 4391364162, "lat": 37.123576, "lon": 69.15567, "tags": {"name": "\u063a\u0631\u0648", "name:en": "Gharow;Gharaw (2)", "name:ps": "\u063a\u0631\u0648", "place": "village", "source:name": "GNS"}}, {"type": "node", "id": 4391364163, "lat": 37.11083, "lon": 69.180582, "tags": {"name": "\u063a\u0631\u0648", "name:en": "Gharow;Gharaw (3)", "name:ps": "\u063a\u0631\u0648", "place": "village", "source:name": "GNS"}}, {"type": "node", "id": 4391364164, "lat": 37.137289, "lon": 69.140219, "tags": {"name": "\u063a\u0631\u0648", "name:en": "Gharow;Gharaw;Gharaw (1)", "name:ps": "\u063a\u0631\u0648", "place": "village", "source:name": "GNS"}}, {"type": "node", "id": 4391364165, "lat": 37.106368, "lon": 69.165543, "tags": {"name": "\u06a9\u0644\u0628\u0627\u062a", "name:en": "Kalbat", "name:ps": "\u06a9\u0644\u0628\u0627\u062a", "place": "village", "source:name": "GNS"}}, {"type": "node", "id": 4391364166, "lat": 37.097204, "lon": 69.283781, "tags": {"name": "\u062e\u0648\u0627\u062c\u0647 \u06af\u0631\u062f\u0627\u0628", "name:en": "Khwajah Gardab;Khvajeh Gardab", "name:ps": "\u062e\u0648\u0627\u062c\u0647 \u06af\u0631\u062f\u0627\u0628", "place": "village", "source:name": "GNS"}}, {"type": "node", "id": 4391364167, "lat": 37.093369, "lon": 69.315364, "tags": {"name": "\u0642\u0631\u0644\u063a", "name:en": "Qarlugh", "name:ps": "\u0642\u0631\u0644\u063a", "place": "village", "source:name": "GNS"}}, {"type": "node", "id": 4391364168, "lat": 37.11773, "lon": 69.136651, "tags": {"name": "\u062a\u0627\u0634 \u06af\u0630\u0631", "name:en": "Tas Guzar;Tash Huzak;Tash Guzar;Tash Gozar", "name:ps": "\u062a\u0627\u0634 \u06af\u0630\u0631", "place": "village", "source:name": "GNS"}}, {"type": "node", "id": 4391364169, "lat": 37.107759, "lon": 69.150927, "tags": {"name": "\u062a\u0627\u0634 \u06af\u0630\u0631", "name:en": "Tash Guzar", "name:ps": "\u062a\u0627\u0634 \u06af\u0630\u0631", "place": "village", "source:name": "GNS"}}, {"type": "way", "id": 377275375, "nodes": [3806491257, 3806491258, 3806491259, 3806491260, 3806491261, 3806491262, 3806491263, 3806491264, 3806491265, 3806491266, 3806491267, 3806491257], "tags": {"name": "\u6751\u838a", "place": "hamlet"}}]}