{"version": 0.6, "generator": "Overpass API 0.7.61.5 4133829e", "osm3s": {"timestamp_osm_base": "2024-03-06T11:26:46Z", "copyright": "The data included in this document is from www.openstreetmap.org. The data is made available under ODbL."}, "elements": [{"type": "node", "id": 6031711562, "lat": -4.056376, "lon": 39.6861758}, {"type": "node", "id": 6038643099, "lat": -4.0503283, "lon": 39.7028156, "tags": {"addr:city": "Mombasa", "addr:street": "Neem Avenue", "amenity": "bank", "name": "KCB Mtaani Hilda Chebichi Keror"}}, {"type": "node", "id": 6039169086, "lat": -4.0369708, "lon": 39.681575, "tags": {"addr:city": "Mombasa", "addr:street": "Nyali road", "amenity": "bank", "name": "Postbank"}}, {"type": "node", "id": 6039169087, "lat": -4.0366854, "lon": 39.6817904, "tags": {"addr:city": "Mombasa", "addr:street": "Malindi Road", "amenity": "bank", "name": "Western Union"}}, {"type": "node", "id": 6041085045, "lat": -4.0357876, "lon": 39.6837189, "tags": {"addr:city": "Mombasa", "addr:street": "Nyali  Road", "amenity": "bank", "name": "Co-op Bank ATM - Nakumatt Nyali Branch"}}, {"type": "node", "id": 11462306938, "lat": -4.0565951, "lon": 39.6861826}, {"type": "node", "id": 11462307449, "lat": -4.056593, "lon": 39.6862523}, {"type": "node", "id": 11462310344, "lat": -4.0563738, "lon": 39.6862454}, {"type": "way", "id": 1234850695, "nodes": [11462307449, 11462310344, 6031711562, 11462306938, 11462307449], "tags": {"addr:city": "Mombasa", "addr:street": "Exhibition Road", "amenity": "bank", "building": "yes", "name": "K C B", "source": "microsoft/BuildingFootprints"}}]}