{"version": 0.6, "generator": "Overpass API 0.7.61.5 4133829e", "osm3s": {"timestamp_osm_base": "2024-03-05T15:06:00Z", "copyright": "The data included in this document is from www.openstreetmap.org. The data is made available under ODbL."}, "elements": [{"type": "node", "id": 111949834, "lat": 57.3569728, "lon": 13.7350863, "tags": {"name": "Gnosj\u00f6", "name:ru": "\u0413\u043d\u043e\u0448\u0451", "name:sv": "Gnosj\u00f6", "place": "town", "population": "4326", "ref:se:pts:postort": "GNOSJ\u00d6", "ref:se:scb": "1488"}}, {"type": "node", "id": 149339656, "lat": 57.4848901, "lon": 13.3518567, "tags": {"name": "Tranemo", "name:sv": "Tranemo", "place": "town", "population": "3168", "ref:se:pts:postort": "TRANEMO", "ref:se:scb": "5080", "wikidata": "Q1864024"}}, {"type": "node", "id": 149387900, "lat": 57.4429883, "lon": 13.5944709, "tags": {"name": "Hestra", "place": "village", "ref:se:pts:postort": "HESTRA", "ref:se:scb": "1504"}}, {"type": "node", "id": 256440771, "lat": 57.6686607, "lon": 13.4331449, "tags": {"name": "G\u00e4llstad", "place": "village", "ref:se:pts:postort": "G\u00c4LLSTAD", "ref:se:scb": "4852", "wikidata": "Q3239727"}}, {"type": "node", "id": 256440777, "lat": 57.5651043, "lon": 13.5833308, "tags": {"name": "Ljungsarp", "place": "village", "ref:se:pts:postort": "LJUNGSARP", "ref:se:scb": "4936", "wikidata": "Q2129530"}}, {"type": "node", "id": 260287599, "lat": 57.4848482, "lon": 13.5519542, "tags": {"name": "Grims\u00e5s", "place": "village", "ref:se:pts:postort": "GRIMS\u00c5S", "ref:se:scb": "4832", "wikidata": "Q2067120"}}, {"type": "node", "id": 260287639, "lat": 57.5479754, "lon": 13.4890342, "tags": {"name": "Nittorp", "place": "hamlet", "population": "168", "ref:se:pts:postort": "NITTORP", "ref:se:scb": "S5175", "wikidata": "Q2698094", "wikipedia": "sv:Nittorp"}}, {"type": "node", "id": 260295437, "lat": 57.7391195, "lon": 13.4196368, "tags": {"name": "Marb\u00e4ck", "place": "village", "ref:se:pts:postort": "MARB\u00c4CK", "ref:se:scb": "4948", "wikidata": "Q2527382"}}, {"type": "node", "id": 260295542, "lat": 57.6213471, "lon": 13.4654719, "tags": {"name": "Torsbo", "place": "hamlet"}}, {"type": "node", "id": 300623267, "lat": 57.6052375, "lon": 13.3466034, "tags": {"name": "M\u00e5nstad", "place": "hamlet", "population": "66", "ref:se:pts:postort": "M\u00c5NSTAD", "ref:se:scb": "S5169"}}, {"type": "node", "id": 300644755, "lat": 57.6788601, "lon": 13.3742261, "tags": {"name": "Vegby", "place": "village", "ref:se:pts:postort": "VEGBY", "ref:se:scb": "5116", "wikidata": "Q3354518"}}, {"type": "node", "id": 300667644, "lat": 57.5373883, "lon": 13.3565985, "tags": {"name": "Limmared", "place": "village", "ref:se:pts:postort": "LIMMARED", "ref:se:scb": "4928", "wikidata": "Q2842587"}}, {"type": "node", "id": 303057459, "lat": 57.4335891, "lon": 13.4449472, "tags": {"name": "Mossebo", "place": "hamlet"}}, {"type": "node", "id": 305773502, "lat": 57.5267735, "lon": 13.3446791, "tags": {"name": "Rosenlund", "place": "village", "ref:se:scb": "4988", "wikidata": "Q3354202"}}, {"type": "node", "id": 308025913, "lat": 57.7695139, "lon": 13.8261337, "tags": {"name": "Bottnaryd", "place": "village", "ref:se:pts:postort": "BOTTNARYD", "ref:se:scb": "1432", "wikidata": "Q3283871"}}, {"type": "node", "id": 322135383, "lat": 57.699341, "lon": 13.2999432, "tags": {"name": "Hulu", "place": "village", "ref:se:scb": "4888", "wikidata": "Q2639642"}}, {"type": "node", "id": 322478183, "lat": 57.6887714, "lon": 13.227561, "tags": {"name": "Dannike", "place": "village", "ref:se:pts:postort": "DANNIKE", "ref:se:scb": "4792", "wikidata": "Q2336555"}}, {"type": "node", "id": 370303530, "lat": 57.3966353, "lon": 13.7501802, "tags": {"name": "G\u00f6tarp", "place": "hamlet"}}, {"type": "node", "id": 417983826, "lat": 57.4213149, "lon": 13.2945589, "tags": {"name": "Ambj\u00f6rnarp", "place": "village", "ref:se:pts:postort": "AMBJ\u00d6RNARP", "ref:se:scb": "4708", "website": "http://www.ambjornarp.se/", "wikidata": "Q2033596"}}, {"type": "node", "id": 462688269, "lat": 57.7667226, "lon": 13.7300605, "tags": {"name": "Torhult", "place": "hamlet"}}, {"type": "node", "id": 470064274, "lat": 57.357705, "lon": 13.2871569, "tags": {"name": "Sj\u00f6tofta", "place": "hamlet", "population": "146", "ref:se:pts:postort": "SJ\u00d6TOFTA", "ref:se:scb": "S4881", "wikidata": "Q3353912"}}, {"type": "node", "id": 470065540, "lat": 57.6416376, "lon": 13.4061892, "tags": {"name": "Toarp", "place": "hamlet"}}, {"type": "node", "id": 521078678, "lat": 57.6331988, "lon": 13.1616838, "tags": {"name": "Hillared", "place": "village", "ref:se:pts:postort": "HILLARED", "ref:se:scb": "4868", "wikidata": "Q3353822"}}, {"type": "node", "id": 521825383, "lat": 57.7551265, "lon": 13.1782274, "tags": {"name": "\u00c4spered", "place": "hamlet", "ref:se:pts:postort": "\u00c4SPERED", "ref:se:scb": "5156", "wikidata": "Q5036"}}, {"type": "node", "id": 534935021, "lat": 57.6011776, "lon": 13.2428893, "tags": {"name": "L\u00e4nghem", "place": "village", "ref:se:pts:postort": "L\u00c4NGHEM", "ref:se:scb": "4940", "wikidata": "Q3301385"}}, {"type": "node", "id": 539145302, "lat": 57.7255232, "lon": 13.8678868, "tags": {"name": "Ryd", "place": "hamlet"}}, {"type": "node", "id": 551152653, "lat": 57.3817955, "lon": 13.8617695, "tags": {"alt_name": "Marieholmsbruk", "name": "Marieholm", "place": "village", "ref:se:pts:postort": "MARIEHOLMSBRUK"}}, {"type": "node", "id": 643085984, "lat": 57.4639167, "lon": 13.1802979, "tags": {"name": "\u00c5starp", "place": "hamlet"}}, {"type": "node", "id": 643783543, "lat": 57.5593041, "lon": 13.289297, "tags": {"name": "Kindsboda", "place": "hamlet"}}, {"type": "node", "id": 773681594, "lat": 57.4583227, "lon": 13.6672043, "tags": {"name": "Hjulfhult", "place": "hamlet"}}, {"type": "node", "id": 831794232, "lat": 57.4207685, "lon": 13.7440585, "tags": {"name": "Kramphult", "place": "hamlet"}}, {"type": "node", "id": 831794255, "lat": 57.4074369, "lon": 13.7959636, "tags": {"name": "\u00c5senh\u00f6ga", "place": "village", "ref:se:pts:postort": "\u00c5SENH\u00d6GA", "ref:se:scb": "1738"}}, {"type": "node", "id": 831794270, "lat": 57.4154255, "lon": 13.7819989, "tags": {"name": "V\u00e4gabo", "place": "hamlet"}}, {"type": "node", "id": 831794351, "lat": 57.4318031, "lon": 13.7374817, "tags": {"name": "Velebo", "place": "hamlet"}}, {"type": "node", "id": 832089467, "lat": 57.3563652, "lon": 13.8849911, "tags": {"name": "Mjogaryd", "place": "hamlet"}}, {"type": "node", "id": 832089610, "lat": 57.3905388, "lon": 13.8359564, "tags": {"name": "Sk\u00e4rvhult", "place": "hamlet"}}, {"type": "node", "id": 832089644, "lat": 57.3380093, "lon": 13.8837076, "tags": {"name": "Slungs\u00e5s", "place": "hamlet"}}, {"type": "node", "id": 861548538, "lat": 57.5031596, "lon": 13.7500642, "tags": {"name": "Valdshult", "place": "hamlet"}}, {"type": "node", "id": 861548571, "lat": 57.6949052, "lon": 13.5745818, "tags": {"name": "K\u00f6ttkulla", "place": "hamlet", "population": "92", "ref:se:scb": "S5117"}}, {"type": "node", "id": 861548767, "lat": 57.3772933, "lon": 13.7643527, "tags": {"name": "Bondarp", "place": "hamlet"}}, {"type": "node", "id": 861549101, "lat": 57.4854856, "lon": 13.8552952, "tags": {"name": "Tranhult", "place": "hamlet"}}, {"type": "node", "id": 861549469, "lat": 57.4959787, "lon": 13.7991337, "tags": {"name": "\u00d6jhult", "place": "hamlet"}}, {"type": "node", "id": 877485260, "lat": 57.4497362, "lon": 13.9333753, "tags": {"name": "Nyholm", "place": "hamlet"}}, {"type": "node", "id": 890923099, "lat": 57.3963832, "lon": 13.7774355, "tags": {"name": "Sl\u00e4tthult", "place": "hamlet"}}, {"type": "node", "id": 890923400, "lat": 57.4341512, "lon": 13.7735837, "tags": {"name": "Ekhult", "place": "hamlet"}}, {"type": "node", "id": 911984879, "lat": 57.3851815, "lon": 13.7905459, "tags": {"name": "Broddhult", "place": "hamlet"}}, {"type": "node", "id": 920824541, "lat": 57.744409, "lon": 13.2264643, "tags": {"name": "Borghult", "place": "hamlet"}}, {"type": "node", "id": 921201655, "lat": 57.6896333, "lon": 13.1876408, "tags": {"name": "Stuvhult", "place": "hamlet"}}, {"type": "node", "id": 1387521603, "lat": 57.4383311, "lon": 13.2601464, "tags": {"name": "Tr\u00f6ssedal", "place": "hamlet"}}, {"type": "node", "id": 1818702940, "lat": 57.407874, "lon": 13.6371419, "tags": {"name": "Nissafors", "place": "village", "population": "285", "ref:se:pts:postort": "NISSAFORS", "ref:se:scb": "1604"}}, {"type": "node", "id": 2124722002, "lat": 57.6768238, "lon": 13.4661333, "tags": {"name": "R\u00e5nnav\u00e4g", "place": "village", "population": "336", "ref:se:scb": "5004", "wikidata": "Q2490875"}}, {"type": "node", "id": 2124722011, "lat": 57.7001639, "lon": 13.4980051, "tags": {"name": "R\u00f6shult", "place": "hamlet", "population": "99", "ref:se:scb": "S5201"}}, {"type": "node", "id": 2124722013, "lat": 57.6057692, "lon": 13.5113863, "tags": {"name": "Dalstorp", "place": "village", "population": "776", "ref:se:pts:postort": "DALSTORP", "ref:se:scb": "4784", "wikidata": "Q2113998"}}, {"type": "node", "id": 2144681078, "lat": 57.6202152, "lon": 13.6195686, "tags": {"name": "\u00d6lsremma", "place": "hamlet", "ref:se:pts:postort": "\u00d6LSREMMA"}}, {"type": "node", "id": 2235762024, "lat": 57.4739744, "lon": 13.26539, "tags": {"name": "Uddebo", "place": "village", "population": "272", "ref:se:pts:postort": "UDDEBO", "ref:se:scb": "5100", "wikidata": "Q1817394"}}, {"type": "node", "id": 2235762098, "lat": 57.6661659, "lon": 13.5952315, "tags": {"name": "Gr\u00f6nah\u00f6g", "place": "hamlet", "ref:se:pts:postort": "GR\u00d6NAH\u00d6G"}}, {"type": "node", "id": 2235762116, "lat": 57.72759, "lon": 13.313141, "tags": {"name": "Tv\u00e4rred", "place": "hamlet", "population": "66", "ref:se:pts:postort": "TV\u00c4RRED", "ref:se:scb": "S5229"}}, {"type": "node", "id": 2284523448, "lat": 57.5961141, "lon": 13.4200083, "tags": {"name": "Hulared", "place": "hamlet", "population": "65", "ref:se:scb": "S5057"}}, {"type": "node", "id": 2292380732, "lat": 57.7206197, "lon": 13.3053242, "tags": {"name": "Folksred", "place": "hamlet", "population": "90", "ref:se:scb": "S4973"}}, {"type": "node", "id": 2292380747, "lat": 57.7490927, "lon": 13.223854, "tags": {"name": "Lerb\u00e4ck", "place": "hamlet", "population": "52", "ref:se:scb": "S5136"}}, {"type": "node", "id": 2292380756, "lat": 57.63335, "lon": 13.6199454, "tags": {"name": "Lindrum", "place": "hamlet", "population": "106", "ref:se:scb": "S5289"}}, {"type": "node", "id": 2292380760, "lat": 57.6933645, "lon": 13.2432861, "tags": {"name": "Sj\u00f6lyckan och Lergered", "place": "hamlet", "population": "65", "ref:se:scb": "S4711"}}, {"type": "node", "id": 2324082982, "lat": 57.4484164, "lon": 13.9300585, "tags": {"name": "Kyllefors", "place": "hamlet"}}, {"type": "node", "id": 2324092595, "lat": 57.4482051, "lon": 13.9515226, "tags": {"name": "S\u00f6rg\u00e5rden", "place": "hamlet"}}, {"type": "node", "id": 2324093902, "lat": 57.4537731, "lon": 13.9528037, "tags": {"name": "Gisslak\u00f6p", "place": "hamlet"}}, {"type": "node", "id": 2324181406, "lat": 57.4637175, "lon": 13.9610833, "tags": {"name": "S\u00e4ldehagen", "place": "hamlet"}}, {"type": "node", "id": 2324204510, "lat": 57.4792595, "lon": 13.9402158, "tags": {"name": "Ugglekull", "place": "hamlet"}}, {"type": "node", "id": 2324205858, "lat": 57.47701, "lon": 13.9259249, "tags": {"name": "Linnebo", "place": "hamlet"}}, {"type": "node", "id": 2757397066, "lat": 57.3739405, "lon": 13.6521115, "tags": {"name": "Hagelstorp", "place": "hamlet"}}, {"type": "node", "id": 2901508271, "lat": 57.3478614, "lon": 13.6907283, "tags": {"name": "Hagshestra", "place": "hamlet"}}, {"type": "node", "id": 2901508272, "lat": 57.3606708, "lon": 13.6629063, "tags": {"name": "\u00c4lghult", "place": "hamlet"}}, {"type": "node", "id": 2901508273, "lat": 57.3563624, "lon": 13.678438, "tags": {"name": "Mj\u00f6hult", "place": "hamlet"}}, {"type": "node", "id": 4557012234, "lat": 57.4241127, "lon": 13.9500647, "tags": {"name": "\u00c5laryd", "place": "village"}}, {"type": "node", "id": 4752605687, "lat": 57.608694, "lon": 13.2584208, "tags": {"name": "R\u00e5dde G\u00e5rd", "place": "hamlet"}}, {"type": "node", "id": 4978193204, "lat": 57.5948853, "lon": 13.7210977, "tags": {"name": "Norra Unnaryd", "place": "hamlet"}}, {"type": "node", "id": 5219760991, "lat": 57.7482249, "lon": 13.3996081, "tags": {"name": "Sj\u00f6gunnarsbo", "place": "hamlet"}}, {"type": "node", "id": 5252387632, "lat": 57.6696337, "lon": 13.9030373, "tags": {"name": "Angerdshestra", "place": "hamlet", "wikidata": "Q10411772"}}, {"type": "node", "id": 5252387633, "lat": 57.6529329, "lon": 13.9223599, "tags": {"name": "Attlabryna", "place": "hamlet"}}, {"type": "node", "id": 6066096332, "lat": 57.7224631, "lon": 13.396883, "tags": {"name": "N\u00e4sboholm", "place": "hamlet"}}, {"type": "node", "id": 6066098452, "lat": 57.6949342, "lon": 13.4433067, "tags": {"name": "Boarp", "place": "hamlet", "source:name": "Lantm\u00e4teriet (CC0)"}}, {"type": "node", "id": 6066098937, "lat": 57.7127204, "lon": 13.517573, "tags": {"name": "P\u00e5bo", "place": "hamlet", "source:name": "Lantm\u00e4teriet (CC0)"}}, {"type": "node", "id": 6066098938, "lat": 57.7333073, "lon": 13.4685624, "tags": {"name": "Pedersbo", "place": "hamlet", "source:name": "Lantm\u00e4teriet (CC0)"}}, {"type": "node", "id": 6066098939, "lat": 57.7354809, "lon": 13.4933406, "tags": {"name": "Gunnarsbo", "place": "hamlet", "source:name": "Lantm\u00e4teriet (CC0)"}}, {"type": "node", "id": 6066098940, "lat": 57.7310247, "lon": 13.4786153, "tags": {"name": "Hyared", "place": "hamlet", "source:name": "Lantm\u00e4teriet (CC0)"}}, {"type": "node", "id": 6066098941, "lat": 57.7247978, "lon": 13.4671944, "tags": {"name": "Stora Stensered", "place": "hamlet", "source:name": "Lantm\u00e4teriet (CC0)"}}, {"type": "node", "id": 6069559085, "lat": 57.6697599, "lon": 13.36725, "tags": {"name": "S\u00e4vatorp", "place": "hamlet"}}, {"type": "node", "id": 6069559086, "lat": 57.6709419, "lon": 13.3860576, "tags": {"name": "Udden", "place": "hamlet"}}, {"type": "node", "id": 7102147716, "lat": 57.4554034, "lon": 13.5703146, "tags": {"name": "\u00c4sp\u00e5s", "place": "hamlet"}}, {"type": "node", "id": 7454967268, "lat": 57.3864142, "lon": 13.6504264, "tags": {"name": "Stora Sval\u00e5s", "place": "hamlet"}}, {"type": "node", "id": 7454988748, "lat": 57.5622818, "lon": 13.9140235, "tags": {"name": "Norra Palsbo", "place": "hamlet"}}, {"type": "node", "id": 7454990759, "lat": 57.5766789, "lon": 13.8506847, "tags": {"name": "\u00d6stra Kullshestra", "place": "hamlet"}}, {"type": "node", "id": 7454993728, "lat": 57.7337526, "lon": 13.7703821, "tags": {"name": "Norra Svinhult", "place": "hamlet"}}, {"type": "node", "id": 7455034192, "lat": 57.6605751, "lon": 13.9065281, "tags": {"name": "Stora Bryna", "place": "hamlet"}}, {"type": "node", "id": 7455121909, "lat": 57.7281658, "lon": 13.7714286, "tags": {"name": "S\u00f6dra Svinhult", "place": "hamlet"}}, {"type": "node", "id": 7455128547, "lat": 57.3313916, "lon": 13.5038048, "tags": {"name": "Stora B\u00e5raryd", "place": "hamlet"}}, {"type": "node", "id": 7455133803, "lat": 57.5133696, "lon": 13.7666212, "tags": {"name": "S\u00f6dra Svinhult", "place": "hamlet"}}, {"type": "node", "id": 7455224265, "lat": 57.6938103, "lon": 13.9165999, "tags": {"name": "Stora \u00c4lm\u00e5s", "place": "hamlet"}}, {"type": "node", "id": 7455251616, "lat": 57.5252711, "lon": 13.9317199, "tags": {"name": "Norra Mosshult", "place": "hamlet"}}, {"type": "node", "id": 7455282687, "lat": 57.5144876, "lon": 13.935927, "tags": {"name": "S\u00f6dra Mosshult", "place": "hamlet"}}, {"type": "node", "id": 7455311344, "lat": 57.7478158, "lon": 13.9122632, "tags": {"name": "V\u00e4stra J\u00e4ra", "place": "hamlet"}}, {"type": "node", "id": 7455362322, "lat": 57.5025451, "lon": 13.7594097, "tags": {"name": "Boarpet", "place": "hamlet"}}, {"type": "node", "id": 7455385569, "lat": 57.6500437, "lon": 13.8078804, "tags": {"name": "Lilla Bosarp", "place": "hamlet"}}, {"type": "node", "id": 7461228555, "lat": 57.6393177, "lon": 13.760159, "tags": {"name": "L\u00e5ngarum", "place": "hamlet"}}, {"type": "node", "id": 7461232007, "lat": 57.6133433, "lon": 13.6868701, "tags": {"name": "Br\u00e5ten", "place": "hamlet"}}, {"type": "node", "id": 7461235416, "lat": 57.5388226, "lon": 13.6867786, "tags": {"name": "Mossebo", "place": "hamlet"}}, {"type": "node", "id": 7461263614, "lat": 57.6239882, "lon": 13.6893996, "tags": {"name": "F\u00e5lleg\u00e4rde", "place": "hamlet"}}, {"type": "node", "id": 7461266471, "lat": 57.6116337, "lon": 13.7180834, "tags": {"name": "H\u00f6sabo", "place": "hamlet"}}, {"type": "node", "id": 7461269392, "lat": 57.5018786, "lon": 13.6183137, "tags": {"name": "Fagerberg", "place": "hamlet"}}, {"type": "node", "id": 7461270877, "lat": 57.620846, "lon": 13.6904506, "tags": {"name": "Brunabo", "place": "hamlet"}}, {"type": "node", "id": 7461272589, "lat": 57.5861435, "lon": 13.675941, "tags": {"name": "Portesbo", "place": "hamlet"}}, {"type": "node", "id": 7461274401, "lat": 57.6389185, "lon": 13.8480823, "tags": {"name": "Svensj\u00f6", "place": "hamlet"}}, {"type": "node", "id": 7461274431, "lat": 57.5452863, "lon": 13.7902303, "tags": {"name": "T\u00e5bo", "place": "hamlet"}}, {"type": "node", "id": 7461274712, "lat": 57.6571616, "lon": 13.8204881, "tags": {"name": "Agutarem", "place": "hamlet"}}, {"type": "node", "id": 7461281476, "lat": 57.6324486, "lon": 13.7404126, "tags": {"name": "Karsbo", "place": "hamlet"}}, {"type": "node", "id": 7461281759, "lat": 57.530306, "lon": 13.7742667, "tags": {"name": "K\u00e4rr", "place": "hamlet"}}, {"type": "node", "id": 7461285438, "lat": 57.5127664, "lon": 13.6967794, "tags": {"name": "Alabo", "place": "hamlet"}}, {"type": "node", "id": 7461285553, "lat": 57.6216296, "lon": 13.7683969, "tags": {"name": "Unnefors", "place": "hamlet"}}, {"type": "node", "id": 7461285645, "lat": 57.5462944, "lon": 13.7411308, "tags": {"name": "Plombo", "place": "hamlet"}}, {"type": "node", "id": 7461286255, "lat": 57.5976192, "lon": 13.8090139, "tags": {"name": "Lunnarsbo", "place": "hamlet"}}, {"type": "node", "id": 7461289271, "lat": 57.5002236, "lon": 13.8392222, "tags": {"name": "Lindhult", "place": "hamlet"}}, {"type": "node", "id": 7461294185, "lat": 57.5324509, "lon": 13.709205, "tags": {"name": "M\u00e5rtenstorp", "place": "hamlet"}}, {"type": "node", "id": 7461297197, "lat": 57.6438129, "lon": 13.7495175, "tags": {"name": "Fager\u00e5s", "place": "hamlet"}}, {"type": "node", "id": 7461297352, "lat": 57.578855, "lon": 13.76253, "tags": {"name": "G\u00e4rde", "place": "hamlet"}}, {"type": "node", "id": 7461298605, "lat": 57.6553924, "lon": 13.7949049, "tags": {"name": "Spafors", "place": "hamlet"}}, {"type": "node", "id": 7461298716, "lat": 57.562558, "lon": 13.7939446, "tags": {"name": "Gunnarsbo", "place": "hamlet"}}, {"type": "node", "id": 7461306321, "lat": 57.5619595, "lon": 13.8152429, "tags": {"name": "Kolabo", "place": "hamlet"}}, {"type": "node", "id": 7461306860, "lat": 57.5877355, "lon": 13.8703415, "tags": {"name": "H\u00e5labo", "place": "hamlet"}}, {"type": "node", "id": 7461308354, "lat": 57.5428298, "lon": 13.8507652, "tags": {"name": "Sandsebo", "place": "hamlet"}}, {"type": "node", "id": 7461308588, "lat": 57.5542379, "lon": 13.8516422, "tags": {"name": "Styrshult", "place": "hamlet"}}, {"type": "node", "id": 7461309873, "lat": 57.6270373, "lon": 13.9345304, "tags": {"name": "Ek\u00e5sen", "place": "hamlet"}}, {"type": "node", "id": 7461309902, "lat": 57.5111748, "lon": 13.8481385, "tags": {"name": "Pung", "place": "hamlet"}}, {"type": "node", "id": 7461312357, "lat": 57.5662484, "lon": 13.8588986, "tags": {"name": "Tunnabo", "place": "hamlet"}}, {"type": "node", "id": 7461314463, "lat": 57.3465238, "lon": 13.5236103, "tags": {"name": "B\u00e5raryd", "place": "hamlet"}}, {"type": "node", "id": 7461318188, "lat": 57.5130466, "lon": 13.857361, "tags": {"name": "K\u00e4shult", "place": "hamlet"}}, {"type": "node", "id": 7461322945, "lat": 57.614943, "lon": 13.9363905, "tags": {"name": "Bet", "place": "hamlet"}}, {"type": "node", "id": 7461323148, "lat": 57.4984021, "lon": 13.8561994, "tags": {"name": "Virvhult", "place": "hamlet"}}, {"type": "node", "id": 7461323525, "lat": 57.6296032, "lon": 13.8872467, "tags": {"name": "Assarebo", "place": "hamlet"}}, {"type": "node", "id": 7461323723, "lat": 57.5846326, "lon": 13.9224222, "tags": {"name": "Bogla", "place": "hamlet"}}, {"type": "node", "id": 7461325575, "lat": 57.3541785, "lon": 13.4726084, "tags": {"name": "Sandshult", "place": "hamlet"}}, {"type": "node", "id": 7461329758, "lat": 57.3418653, "lon": 13.4968317, "tags": {"name": "N\u00e4s", "place": "hamlet"}}, {"type": "node", "id": 7461330848, "lat": 57.3569794, "lon": 13.4453128, "tags": {"name": "\u00d6rnaholm", "place": "hamlet"}}, {"type": "node", "id": 7461333712, "lat": 57.364093, "lon": 13.4782323, "tags": {"name": "Iller\u00e5s", "place": "hamlet"}}, {"type": "node", "id": 7461334298, "lat": 57.3577415, "lon": 13.4590955, "tags": {"name": "Sj\u00f6lid", "place": "hamlet"}}, {"type": "node", "id": 7461334957, "lat": 57.4093282, "lon": 13.5210534, "tags": {"name": "Skjutsebo", "place": "hamlet"}}, {"type": "node", "id": 7461335037, "lat": 57.4145625, "lon": 13.5270367, "tags": {"name": "Ingelsbo", "place": "hamlet"}}, {"type": "node", "id": 7461336705, "lat": 57.3826539, "lon": 13.5203646, "tags": {"name": "Ingelsbo", "place": "hamlet"}}, {"type": "node", "id": 7461339009, "lat": 57.3364533, "lon": 13.5033493, "tags": {"name": "\u00d6deg\u00e4rde", "place": "hamlet"}}, {"type": "node", "id": 7461344545, "lat": 57.3487151, "lon": 13.5153314, "tags": {"name": "Broddaryd", "place": "hamlet"}}, {"type": "node", "id": 7461344765, "lat": 57.4776409, "lon": 13.6933938, "tags": {"name": "Ulvestorp", "place": "hamlet"}}, {"type": "node", "id": 7461349627, "lat": 57.3561373, "lon": 13.5254619, "tags": {"name": "Bondaryd", "place": "hamlet"}}, {"type": "node", "id": 7461349765, "lat": 57.3391516, "lon": 13.4626652, "tags": {"name": "Ebbebo", "place": "hamlet"}}, {"type": "node", "id": 7461350816, "lat": 57.4198826, "lon": 13.5233093, "tags": {"name": "B\u00f6nabo", "place": "hamlet"}}, {"type": "node", "id": 7461351499, "lat": 57.3659145, "lon": 13.5565876, "tags": {"name": "Sl\u00e4tteryd", "place": "hamlet"}}, {"type": "node", "id": 7461351500, "lat": 57.366409, "lon": 13.5379955, "tags": {"name": "Hedenstorp", "place": "hamlet"}}, {"type": "node", "id": 7461358251, "lat": 57.3498585, "lon": 13.6304453, "tags": {"name": "Storebo", "place": "hamlet"}}, {"type": "node", "id": 7461360238, "lat": 57.3979184, "lon": 13.5210061, "tags": {"name": "Assarebo", "place": "hamlet"}}, {"type": "node", "id": 7461366505, "lat": 57.3814921, "lon": 13.5659398, "tags": {"name": "Stenhestra", "place": "hamlet"}}, {"type": "node", "id": 7461367092, "lat": 57.4154255, "lon": 13.5395297, "tags": {"name": "Bergag\u00e4rde", "place": "hamlet"}}, {"type": "node", "id": 7461369585, "lat": 57.3514952, "lon": 13.5379238, "tags": {"name": "Sebj\u00f6rnarp", "place": "hamlet"}}, {"type": "node", "id": 7461378250, "lat": 57.4187603, "lon": 13.6118714, "tags": {"name": "Vik", "place": "hamlet"}}, {"type": "node", "id": 7461379817, "lat": 57.3911122, "lon": 13.5438669, "tags": {"name": "Sprottebo", "place": "hamlet"}}, {"type": "node", "id": 7461382245, "lat": 57.3985527, "lon": 13.5541236, "tags": {"name": "Br\u00e4nnhult", "place": "hamlet"}}, {"type": "node", "id": 7461388186, "lat": 57.4632778, "lon": 13.6262886, "tags": {"name": "Bj\u00e4rsved", "place": "hamlet"}}, {"type": "node", "id": 7461388570, "lat": 57.3414715, "lon": 13.7020221, "tags": {"name": "Sj\u00f6arp", "place": "hamlet"}}, {"type": "node", "id": 7461388781, "lat": 57.3458525, "lon": 13.6404322, "tags": {"name": "K\u00e4ksbo", "place": "hamlet"}}, {"type": "node", "id": 7461394033, "lat": 57.4415338, "lon": 13.7455145, "tags": {"name": "Pung", "place": "hamlet"}}, {"type": "node", "id": 7461394944, "lat": 57.4207707, "lon": 13.5487509, "tags": {"name": "B\u00f6sshult", "place": "hamlet"}}, {"type": "node", "id": 7461395934, "lat": 57.4015988, "lon": 13.7444164, "tags": {"name": "Djuppelsbo", "place": "hamlet"}}, {"type": "node", "id": 7461396664, "lat": 57.4038043, "lon": 13.7556593, "tags": {"name": "Hammelsbo", "place": "hamlet"}}, {"type": "node", "id": 7461398574, "lat": 57.3770545, "lon": 13.687127, "tags": {"name": "N\u00e4s", "place": "hamlet"}}, {"type": "node", "id": 7461398991, "lat": 57.3845448, "lon": 13.67064, "tags": {"name": "G\u00f6hestra", "place": "hamlet"}}, {"type": "node", "id": 7461399565, "lat": 57.3333208, "lon": 13.6514103, "tags": {"name": "Mj\u00e4rhult", "place": "hamlet"}}, {"type": "node", "id": 7461400882, "lat": 57.3345465, "lon": 13.6703373, "tags": {"name": "Gaks\u00e5s", "place": "hamlet"}}, {"type": "node", "id": 7461404219, "lat": 57.428399, "lon": 13.6424072, "tags": {"name": "Algustorp", "place": "hamlet"}}, {"type": "node", "id": 7461405000, "lat": 57.4485395, "lon": 13.7444586, "tags": {"name": "Hyltan", "place": "hamlet"}}, {"type": "node", "id": 7461406278, "lat": 57.459632, "lon": 13.8340245, "tags": {"name": "Granstorp S\u00f6rg\u00e5rden 1-3", "place": "hamlet"}}, {"type": "node", "id": 7461407438, "lat": 57.4219415, "lon": 13.7348619, "tags": {"name": "K\u00e4rringabacka", "place": "hamlet"}}, {"type": "node", "id": 7461408947, "lat": 57.3919085, "lon": 13.7205927, "tags": {"name": "Byn", "place": "hamlet"}}, {"type": "node", "id": 7461410814, "lat": 57.3880717, "lon": 13.7374263, "tags": {"name": "T\u00f6restorp", "place": "hamlet"}}, {"type": "node", "id": 7461412061, "lat": 57.4099695, "lon": 13.814004, "tags": {"name": "Mj\u00f6hult", "place": "hamlet"}}, {"type": "node", "id": 7461413949, "lat": 57.3333277, "lon": 13.7495046, "tags": {"name": "Rud\u00f6", "place": "hamlet"}}, {"type": "node", "id": 7461415773, "lat": 57.3317276, "lon": 13.8039268, "tags": {"name": "K\u00e4ringag\u00e4rde", "place": "hamlet"}}, {"type": "node", "id": 7461415817, "lat": 57.4399484, "lon": 13.7956825, "tags": {"name": "Trollsebo", "place": "hamlet"}}, {"type": "node", "id": 7461417086, "lat": 57.3855242, "lon": 13.7164866, "tags": {"name": "Gynn\u00e5s", "place": "hamlet"}}, {"type": "node", "id": 7461417467, "lat": 57.3923883, "lon": 13.8167989, "tags": {"name": "Smedjebo", "place": "hamlet"}}, {"type": "node", "id": 7461418620, "lat": 57.4609176, "lon": 13.7524523, "tags": {"name": "Rannebo", "place": "hamlet"}}, {"type": "node", "id": 7461421814, "lat": 57.4344803, "lon": 13.7526527, "tags": {"name": "\u00d6d", "place": "hamlet"}}, {"type": "node", "id": 7461427739, "lat": 57.3372442, "lon": 13.766749, "tags": {"name": "Hult", "place": "hamlet"}}, {"type": "node", "id": 7461433600, "lat": 57.3383386, "lon": 13.7972324, "tags": {"name": "Mar\u00e5s", "place": "hamlet"}}, {"type": "node", "id": 7461434819, "lat": 57.331548, "lon": 13.7603124, "tags": {"name": "S\u00f6derby", "place": "hamlet"}}, {"type": "node", "id": 7461437038, "lat": 57.3577626, "lon": 13.8288122, "tags": {"name": "G\u00f6shult", "place": "hamlet"}}, {"type": "node", "id": 7461438276, "lat": 57.3479082, "lon": 13.7955736, "tags": {"name": "Grimhult", "place": "hamlet"}}, {"type": "node", "id": 7461439404, "lat": 57.3545103, "lon": 13.803884, "tags": {"name": "Norrebo", "place": "hamlet"}}, {"type": "node", "id": 7461443232, "lat": 57.418513, "lon": 13.8622516, "tags": {"name": "Svenshult", "place": "hamlet"}}, {"type": "node", "id": 7461443613, "lat": 57.340621, "lon": 13.7593249, "tags": {"name": "Lid", "place": "hamlet"}}, {"type": "node", "id": 7461443679, "lat": 57.3851577, "lon": 13.8725375, "tags": {"name": "Mo", "place": "hamlet"}}, {"type": "node", "id": 7461445374, "lat": 57.3412083, "lon": 13.854694, "tags": {"name": "Rud\u00f6", "place": "hamlet"}}, {"type": "node", "id": 7461451914, "lat": 57.4328871, "lon": 13.8232315, "tags": {"name": "Hestra", "place": "hamlet"}}, {"type": "node", "id": 7461459911, "lat": 57.3343423, "lon": 13.8249729, "tags": {"name": "Kvarnabo", "place": "hamlet"}}, {"type": "node", "id": 7461460459, "lat": 57.3784841, "lon": 13.8439357, "tags": {"name": "Skark\u00f6p", "place": "hamlet"}}, {"type": "node", "id": 7461462403, "lat": 57.3649686, "lon": 13.8366795, "tags": {"name": "Abborrakull", "place": "hamlet"}}, {"type": "node", "id": 7461462485, "lat": 57.4306486, "lon": 13.8592133, "tags": {"name": "Ingarp", "place": "hamlet"}}, {"type": "node", "id": 7461463823, "lat": 57.4103416, "lon": 13.8558667, "tags": {"name": "H\u00e5kentorp", "place": "hamlet"}}, {"type": "node", "id": 7461467657, "lat": 57.3677333, "lon": 13.9179816, "tags": {"name": "Flahult", "place": "hamlet"}}, {"type": "node", "id": 7461492574, "lat": 57.4667668, "lon": 13.890949, "tags": {"name": "\u00c5safors", "place": "hamlet"}}, {"type": "node", "id": 7461510637, "lat": 57.7049283, "lon": 13.771628, "tags": {"name": "\u00c4sebo", "place": "hamlet"}}, {"type": "node", "id": 7461511936, "lat": 57.7487572, "lon": 13.7549866, "tags": {"name": "\u00c4lgaryd", "place": "hamlet"}}, {"type": "node", "id": 7461513737, "lat": 57.6778829, "lon": 13.7436325, "tags": {"name": "Elsabo", "place": "hamlet"}}, {"type": "node", "id": 7461607115, "lat": 57.6453402, "lon": 13.9138893, "tags": {"name": "Bengtsbryna", "place": "hamlet"}}, {"type": "node", "id": 7461612697, "lat": 57.652539, "lon": 13.9558683, "tags": {"name": "Tubbebo", "place": "hamlet"}}, {"type": "node", "id": 7461616842, "lat": 57.6394917, "lon": 13.9457405, "tags": {"name": "Maritabo", "place": "hamlet"}}, {"type": "node", "id": 7461635550, "lat": 57.7137235, "lon": 13.8373647, "tags": {"name": "Heda", "place": "hamlet"}}, {"type": "node", "id": 7461636887, "lat": 57.6878311, "lon": 13.8778968, "tags": {"name": "Y\u00e5s", "place": "hamlet"}}, {"type": "node", "id": 7461661178, "lat": 57.7061498, "lon": 13.9205102, "tags": {"name": "Harphult", "place": "hamlet"}}, {"type": "node", "id": 7461668961, "lat": 57.68614, "lon": 13.9288659, "tags": {"name": "Arvidabo", "place": "hamlet"}}, {"type": "node", "id": 7461675085, "lat": 57.6811292, "lon": 13.902371, "tags": {"name": "Munkabo", "place": "hamlet"}}, {"type": "node", "id": 7461714536, "lat": 57.7370215, "lon": 13.9009757, "tags": {"name": "L\u00f6ckna", "place": "hamlet"}}, {"type": "node", "id": 7461722911, "lat": 57.7644474, "lon": 13.8931049, "tags": {"name": "Skogslid", "place": "hamlet"}}, {"type": "node", "id": 7461747064, "lat": 57.7202872, "lon": 13.9308172, "tags": {"name": "Fagerhult", "place": "hamlet"}}, {"type": "node", "id": 7462302176, "lat": 57.3577752, "lon": 13.9452032, "tags": {"name": "H\u00f6khult", "place": "hamlet"}}, {"type": "node", "id": 7462303186, "lat": 57.3535519, "lon": 13.9502937, "tags": {"name": "Timanstorp", "place": "hamlet"}}, {"type": "node", "id": 7462312944, "lat": 57.3502084, "lon": 13.9382662, "tags": {"name": "Uppebo", "place": "hamlet"}}, {"type": "node", "id": 7462405843, "lat": 57.3854953, "lon": 13.9414467, "tags": {"name": "M\u00e4sseberg", "place": "hamlet"}}, {"type": "node", "id": 7462406671, "lat": 57.3748845, "lon": 13.9606773, "tags": {"name": "Vissebo", "place": "hamlet"}}, {"type": "node", "id": 7483037961, "lat": 57.4039472, "lon": 13.4155602, "tags": {"name": "Lilla Hinkelsbo", "place": "hamlet"}}, {"type": "node", "id": 7483037968, "lat": 57.3674104, "lon": 13.4100687, "tags": {"name": "Bosared", "place": "hamlet"}}, {"type": "node", "id": 7483037973, "lat": 57.3756434, "lon": 13.4650166, "tags": {"name": "Rude", "place": "hamlet"}}, {"type": "node", "id": 7483037979, "lat": 57.4280393, "lon": 13.4697663, "tags": {"name": "Trollabo", "place": "hamlet"}}, {"type": "node", "id": 7483037983, "lat": 57.4208933, "lon": 13.4584244, "tags": {"name": "J\u00e4rnhestra", "place": "hamlet"}}, {"type": "node", "id": 7483039289, "lat": 57.4390778, "lon": 13.3937236, "tags": {"name": "Stora Snar\u00e5s", "place": "hamlet"}}, {"type": "node", "id": 7483039292, "lat": 57.4114253, "lon": 13.2874101, "tags": {"name": "Yttre Lida", "place": "hamlet"}}, {"type": "node", "id": 7483039298, "lat": 57.4459288, "lon": 13.2942464, "tags": {"name": "Bj\u00f6rkered", "place": "hamlet"}}, {"type": "node", "id": 7483039307, "lat": 57.451015, "lon": 13.2407092, "tags": {"name": "K\u00f6rningsg\u00e4rde", "place": "hamlet"}}, {"type": "node", "id": 7483039308, "lat": 57.475229, "lon": 13.2394619, "tags": {"name": "Dums\u00e4ng", "place": "hamlet"}}, {"type": "node", "id": 7483039311, "lat": 57.4661883, "lon": 13.2354448, "tags": {"name": "Bratteborg", "place": "hamlet"}}, {"type": "node", "id": 7483039312, "lat": 57.4489462, "lon": 13.2347588, "tags": {"name": "Eneg\u00e4rde", "place": "hamlet"}}, {"type": "node", "id": 7483039314, "lat": 57.4289396, "lon": 13.3009334, "tags": {"name": "By", "place": "hamlet"}}, {"type": "node", "id": 7483039317, "lat": 57.431623, "lon": 13.2775546, "tags": {"name": "Grann\u00e4s", "place": "hamlet"}}, {"type": "node", "id": 7483039318, "lat": 57.4185666, "lon": 13.2604168, "tags": {"name": "Tosthult", "place": "hamlet"}}, {"type": "node", "id": 7483039330, "lat": 57.4659298, "lon": 13.3191085, "tags": {"name": "J\u00e4rphult", "place": "hamlet"}}, {"type": "node", "id": 7483039341, "lat": 57.4212621, "lon": 13.3554282, "tags": {"name": "Stj\u00e4rnebo", "place": "hamlet"}}, {"type": "node", "id": 7483039343, "lat": 57.4150089, "lon": 13.3166472, "tags": {"name": "Pjuken", "place": "hamlet"}}, {"type": "node", "id": 7483039354, "lat": 57.4748311, "lon": 13.4189634, "tags": {"name": "H\u00e4ssle\u00e5s", "place": "hamlet"}}, {"type": "node", "id": 7483039361, "lat": 57.4517183, "lon": 13.4221278, "tags": {"name": "Stackebo", "place": "hamlet"}}, {"type": "node", "id": 7483039365, "lat": 57.5189058, "lon": 13.253239, "tags": {"name": "Totebo", "place": "hamlet"}}, {"type": "node", "id": 7483039367, "lat": 57.4869819, "lon": 13.4344202, "tags": {"name": "Arn\u00e5s", "place": "hamlet"}}, {"type": "node", "id": 7483039373, "lat": 57.4321391, "lon": 13.4450586, "tags": {"name": "Gr\u00e4lebo", "place": "hamlet"}}, {"type": "node", "id": 7483039376, "lat": 57.4572566, "lon": 13.4260398, "tags": {"name": "Gullbrandsbo", "place": "hamlet"}}, {"type": "node", "id": 7483059402, "lat": 57.4916325, "lon": 13.3107565, "tags": {"name": "Stora Todde", "place": "hamlet"}}, {"type": "node", "id": 7483059406, "lat": 57.4997821, "lon": 13.2939382, "tags": {"name": "Hestra", "place": "hamlet"}}, {"type": "node", "id": 7483059421, "lat": 57.5546992, "lon": 13.2793531, "tags": {"name": "Boda", "place": "hamlet"}}, {"type": "node", "id": 7483059425, "lat": 57.5529538, "lon": 13.2501144, "tags": {"name": "Gr\u00e4l\u00e5sa", "place": "hamlet"}}, {"type": "node", "id": 7483059433, "lat": 57.5426905, "lon": 13.2903242, "tags": {"name": "G\u00e4starp", "place": "hamlet"}}, {"type": "node", "id": 7483059435, "lat": 57.5373175, "lon": 13.2762965, "tags": {"name": "K\u00e4llhult", "place": "hamlet"}}, {"type": "node", "id": 7483059437, "lat": 57.5414852, "lon": 13.2617976, "tags": {"name": "Gastek", "place": "hamlet"}}, {"type": "node", "id": 7483059451, "lat": 57.546827, "lon": 13.3293875, "tags": {"name": "Bystad", "place": "hamlet"}}, {"type": "node", "id": 7483059452, "lat": 57.5386585, "lon": 13.3123698, "tags": {"name": "Sl\u00e4tte", "place": "hamlet"}}, {"type": "node", "id": 7483059458, "lat": 57.5252333, "lon": 13.3345003, "tags": {"name": "Limmared", "place": "hamlet"}}, {"type": "node", "id": 7483059474, "lat": 57.5621308, "lon": 13.411119, "tags": {"name": "Sj\u00f6rred", "place": "hamlet"}}, {"type": "node", "id": 7483059476, "lat": 57.5593062, "lon": 13.3818223, "tags": {"name": "\u00c5sarp", "place": "hamlet"}}, {"type": "node", "id": 7483060450, "lat": 57.3755227, "lon": 13.272934, "tags": {"name": "H\u00e4st\u00f6", "place": "hamlet"}}, {"type": "node", "id": 7483060451, "lat": 57.3366378, "lon": 13.2373594, "tags": {"name": "\u00d6vre Dr\u00e4gved", "place": "hamlet"}}, {"type": "node", "id": 7483060453, "lat": 57.3800655, "lon": 13.3283647, "tags": {"name": "Stora Hanabo", "place": "hamlet"}}, {"type": "node", "id": 7483060467, "lat": 57.3347113, "lon": 13.2766443, "tags": {"name": "Mon", "place": "hamlet"}}, {"type": "node", "id": 7483060477, "lat": 57.390718, "lon": 13.2672108, "tags": {"name": "Hunnabo", "place": "hamlet"}}, {"type": "node", "id": 7483060478, "lat": 57.3899288, "lon": 13.2459001, "tags": {"name": "Hagg\u00e5rd", "place": "hamlet"}}, {"type": "node", "id": 7483060479, "lat": 57.3898934, "lon": 13.2778322, "tags": {"name": "H\u00f6rryd", "place": "hamlet"}}, {"type": "node", "id": 7483060480, "lat": 57.3858035, "lon": 13.2445166, "tags": {"name": "Yttre \u00c4lvshult", "place": "hamlet"}}, {"type": "node", "id": 7483060484, "lat": 57.3661431, "lon": 13.2834681, "tags": {"name": "S\u00e4vshult", "place": "hamlet"}}, {"type": "node", "id": 7483060485, "lat": 57.5248309, "lon": 13.4084499, "tags": {"name": "Tyggestorp", "place": "hamlet"}}, {"type": "node", "id": 7483060490, "lat": 57.5219328, "lon": 13.4240544, "tags": {"name": "Roveg\u00e5rden", "place": "hamlet"}}, {"type": "node", "id": 7483060491, "lat": 57.5352851, "lon": 13.4239306, "tags": {"name": "Ytter-Haga", "place": "hamlet"}}, {"type": "node", "id": 7483061492, "lat": 57.4064091, "lon": 13.2740441, "tags": {"name": "Korsg\u00e5rden", "place": "hamlet"}}, {"type": "node", "id": 7483061493, "lat": 57.4074266, "lon": 13.2689688, "tags": {"name": "Hylte", "place": "hamlet"}}, {"type": "node", "id": 7483061495, "lat": 57.3959113, "lon": 13.252271, "tags": {"name": "\u00d6vre \u00c4lvshult", "place": "hamlet"}}, {"type": "node", "id": 7483061508, "lat": 57.3705778, "lon": 13.32319, "tags": {"name": "M\u00f6ln\u00e5s", "place": "hamlet"}}, {"type": "node", "id": 7483061516, "lat": 57.4055683, "lon": 13.3228731, "tags": {"name": "\u00c4mtashult", "place": "hamlet"}}, {"type": "node", "id": 7483061519, "lat": 57.3963999, "lon": 13.3171678, "tags": {"name": "Ulvshult", "place": "hamlet"}}, {"type": "node", "id": 7483061522, "lat": 57.3353853, "lon": 13.3538189, "tags": {"name": "Bredstorp", "place": "hamlet"}}, {"type": "node", "id": 7483061524, "lat": 57.3285257, "lon": 13.3466342, "tags": {"name": "Erikstorp", "place": "hamlet"}}, {"type": "node", "id": 7483061528, "lat": 57.354361, "lon": 13.3975678, "tags": {"name": "Bj\u00f6rstorp", "place": "hamlet"}}, {"type": "node", "id": 7483061529, "lat": 57.3484575, "lon": 13.3675934, "tags": {"name": "Stenshult", "place": "hamlet"}}, {"type": "node", "id": 7483061530, "lat": 57.3484987, "lon": 13.3959452, "tags": {"name": "Svartsj\u00f6", "place": "hamlet"}}, {"type": "node", "id": 7483061532, "lat": 57.3458981, "lon": 13.4026894, "tags": {"name": "Hornbetan", "place": "hamlet"}}, {"type": "node", "id": 7483061534, "lat": 57.3374422, "lon": 13.3611554, "tags": {"name": "Skr\u00e5bo", "place": "hamlet"}}, {"type": "node", "id": 7483061535, "lat": 57.383823, "lon": 13.4014063, "tags": {"name": "Hallabo", "place": "hamlet"}}, {"type": "node", "id": 7483061537, "lat": 57.3797183, "lon": 13.3846903, "tags": {"name": "\u00d6vre Lalabo", "place": "hamlet"}}, {"type": "node", "id": 7483061542, "lat": 57.3904922, "lon": 13.3493856, "tags": {"name": "M\u00f6rkhult", "place": "hamlet"}}, {"type": "node", "id": 7483062134, "lat": 57.4555905, "lon": 13.4657984, "tags": {"name": "Stora Mossebo", "place": "hamlet"}}, {"type": "node", "id": 7483062135, "lat": 57.5255991, "lon": 13.4668691, "tags": {"name": "V\u00e4stra Ryda", "place": "hamlet"}}, {"type": "node", "id": 7483062136, "lat": 57.5271567, "lon": 13.478013, "tags": {"name": "\u00d6stra Ryda", "place": "hamlet"}}, {"type": "node", "id": 7483062140, "lat": 57.5176208, "lon": 13.4245423, "tags": {"name": "Algutstorp", "place": "hamlet"}}, {"type": "node", "id": 7483062146, "lat": 57.5324039, "lon": 13.4488092, "tags": {"name": "Andlabo", "place": "hamlet"}}, {"type": "node", "id": 7483062152, "lat": 57.4759055, "lon": 13.4571085, "tags": {"name": "H\u00e4llhult", "place": "hamlet"}}, {"type": "node", "id": 7483062153, "lat": 57.4763001, "lon": 13.5253864, "tags": {"name": "Grims\u00e5s by", "place": "hamlet"}}, {"type": "node", "id": 7483062160, "lat": 57.4651675, "lon": 13.5210052, "tags": {"name": "F\u00e5glabo", "place": "hamlet"}}, {"type": "node", "id": 7483062164, "lat": 57.5240732, "lon": 13.5411276, "tags": {"name": "Gumpebo", "place": "hamlet"}}, {"type": "node", "id": 7483062172, "lat": 57.5086668, "lon": 13.5053021, "tags": {"name": "Moghult", "place": "hamlet"}}, {"type": "node", "id": 7483062174, "lat": 57.5030193, "lon": 13.5010435, "tags": {"name": "Kroken", "place": "hamlet"}}, {"type": "node", "id": 7483062180, "lat": 57.5548993, "lon": 13.4850072, "tags": {"name": "Gisslarp", "place": "hamlet"}}, {"type": "node", "id": 7483062185, "lat": 57.543776, "lon": 13.5136391, "tags": {"name": "Hornhult", "place": "hamlet"}}, {"type": "node", "id": 7483062188, "lat": 57.5368187, "lon": 13.4907664, "tags": {"name": "\u00c5sen", "place": "hamlet"}}, {"type": "node", "id": 7483062190, "lat": 57.5189721, "lon": 13.5550112, "tags": {"name": "Spolabo", "place": "hamlet"}}, {"type": "node", "id": 7483062193, "lat": 57.5049212, "lon": 13.5848349, "tags": {"name": "K\u00e4ttesj\u00f6", "place": "hamlet"}}, {"type": "node", "id": 7483062194, "lat": 57.5022471, "lon": 13.5699683, "tags": {"name": "Kvistb\u00e4ck", "place": "hamlet"}}, {"type": "node", "id": 7483062196, "lat": 57.4979838, "lon": 13.5522129, "tags": {"name": "Remmabo", "place": "hamlet"}}, {"type": "node", "id": 7483062197, "lat": 57.4940164, "lon": 13.5674703, "tags": {"name": "Fi\u00e5s", "place": "hamlet"}}, {"type": "node", "id": 7483062200, "lat": 57.5490423, "lon": 13.5873522, "tags": {"name": "Ask\u00e5ker", "place": "hamlet"}}, {"type": "node", "id": 7483062201, "lat": 57.5281655, "lon": 13.5667825, "tags": {"name": "Hallatorp", "place": "hamlet"}}, {"type": "node", "id": 7483062203, "lat": 57.5304276, "lon": 13.5540783, "tags": {"name": "Amnabo", "place": "hamlet"}}, {"type": "node", "id": 7483062210, "lat": 57.563523, "lon": 13.5688874, "tags": {"name": "Sj\u00f6g\u00e5rden", "place": "hamlet"}}, {"type": "node", "id": 7483062213, "lat": 57.5564212, "lon": 13.6458655, "tags": {"name": "\u00d6rshestra", "place": "hamlet"}}, {"type": "node", "id": 7483062214, "lat": 57.5642424, "lon": 13.6330205, "tags": {"name": "Genh\u00f6ve", "place": "hamlet"}}, {"type": "node", "id": 7483062215, "lat": 57.5458995, "lon": 13.6394991, "tags": {"name": "L\u00f6v\u00e5sen", "place": "hamlet"}}, {"type": "node", "id": 7483062216, "lat": 57.5304904, "lon": 13.6421839, "tags": {"name": "Lind\u00e5s", "place": "hamlet"}}, {"type": "node", "id": 7483062218, "lat": 57.4526432, "lon": 13.5059427, "tags": {"name": "\u00c5slabo", "place": "hamlet"}}, {"type": "node", "id": 7483062225, "lat": 57.4673181, "lon": 13.5652805, "tags": {"name": "Hyddan", "place": "hamlet"}}, {"type": "node", "id": 7496255370, "lat": 57.6960274, "lon": 13.2452236, "tags": {"name": "Lergered", "place": "hamlet"}}, {"type": "node", "id": 7496282031, "lat": 57.6786336, "lon": 13.334078, "tags": {"name": "F\u00e4steredssund", "place": "hamlet"}}, {"type": "node", "id": 7496285053, "lat": 57.7028203, "lon": 13.2272557, "tags": {"name": "Stora Stenshult", "place": "hamlet"}}, {"type": "node", "id": 7496287566, "lat": 57.7116993, "lon": 13.2330153, "tags": {"name": "Norra R\u00f6shult", "place": "hamlet"}}, {"type": "node", "id": 7496293274, "lat": 57.67613, "lon": 13.6322584, "tags": {"name": "\u00d6stra Gunntorp", "place": "hamlet"}}, {"type": "node", "id": 7496315654, "lat": 57.6894084, "lon": 13.442159, "tags": {"name": "Gudmundsg\u00e5rden", "place": "hamlet"}}, {"type": "node", "id": 7496493706, "lat": 57.7262426, "lon": 13.4213385, "tags": {"name": "Stora Korpebo", "place": "hamlet"}}, {"type": "node", "id": 7496502102, "lat": 57.359034, "lon": 13.2288372, "tags": {"name": "Norra Ing\u00e4rdebo", "place": "hamlet"}}, {"type": "node", "id": 7496514853, "lat": 57.5932163, "lon": 13.5843182, "tags": {"name": "Norra Bj\u00f6rstorp", "place": "hamlet"}}, {"type": "node", "id": 7496528185, "lat": 57.5726376, "lon": 13.4438625, "tags": {"name": "Lilla Sp\u00e5narp", "place": "hamlet"}}, {"type": "node", "id": 7496871125, "lat": 57.7523876, "lon": 13.2277887, "tags": {"name": "Nabben", "place": "hamlet"}}, {"type": "node", "id": 7496890891, "lat": 57.7474297, "lon": 13.2093279, "tags": {"name": "Sj\u00f6torp", "place": "hamlet"}}, {"type": "node", "id": 7496891749, "lat": 57.7553811, "lon": 13.2362459, "tags": {"name": "Askan\u00e4s", "place": "hamlet"}}, {"type": "node", "id": 7496896975, "lat": 57.7618949, "lon": 13.2194853, "tags": {"name": "Sundholmen", "place": "hamlet"}}, {"type": "node", "id": 7496897012, "lat": 57.7444063, "lon": 13.2210869, "tags": {"name": "Blixnabb", "place": "hamlet"}}, {"type": "node", "id": 7496901153, "lat": 57.7444006, "lon": 13.2490457, "tags": {"name": "Angshestre", "place": "hamlet"}}, {"type": "node", "id": 7497100209, "lat": 57.7475402, "lon": 13.274905, "tags": {"name": "Komsk\u00e4let", "place": "hamlet"}}, {"type": "node", "id": 7497102854, "lat": 57.7517344, "lon": 13.2708397, "tags": {"name": "Hand", "place": "hamlet"}}, {"type": "node", "id": 7497109601, "lat": 57.7557739, "lon": 13.297101, "tags": {"name": "Matsered", "place": "hamlet"}}, {"type": "node", "id": 7497122796, "lat": 57.7483642, "lon": 13.2550542, "tags": {"name": "K\u00e4rrabo", "place": "hamlet"}}, {"type": "node", "id": 7497225790, "lat": 57.3864833, "lon": 13.1738242, "tags": {"name": "Borryd", "place": "hamlet"}}, {"type": "node", "id": 7497228270, "lat": 57.3552419, "lon": 13.2091048, "tags": {"name": "Passarp", "place": "hamlet"}}, {"type": "node", "id": 7497239083, "lat": 57.3398829, "lon": 13.1806119, "tags": {"name": "Sk\u00e4remo", "place": "hamlet"}}, {"type": "node", "id": 7497315507, "lat": 57.4063315, "lon": 13.1813729, "tags": {"name": "Ek\u00e5sen", "place": "hamlet"}}, {"type": "node", "id": 7497321011, "lat": 57.4035823, "lon": 13.198541, "tags": {"name": "Enesbo", "place": "hamlet"}}, {"type": "node", "id": 7497322428, "lat": 57.4402404, "lon": 13.229013, "tags": {"name": "Solvik", "place": "hamlet"}}, {"type": "node", "id": 7497632729, "lat": 57.5262369, "lon": 13.1926282, "tags": {"name": "Hul\u00e5kra", "place": "hamlet"}}, {"type": "node", "id": 7497771152, "lat": 57.5552304, "lon": 13.1755343, "tags": {"name": "S\u00e4ller\u00e5s", "place": "hamlet"}}, {"type": "node", "id": 7497773902, "lat": 57.4753121, "lon": 13.1907242, "tags": {"name": "Gnipebo", "place": "hamlet"}}, {"type": "node", "id": 7497785719, "lat": 57.5578713, "lon": 13.171193, "tags": {"name": "Stora Givarp", "place": "hamlet"}}, {"type": "node", "id": 7497807411, "lat": 57.488234, "lon": 13.2047175, "tags": {"name": "Gebo", "place": "hamlet"}}, {"type": "node", "id": 7497822701, "lat": 57.4491193, "lon": 13.2221512, "tags": {"name": "Kallsebo", "place": "hamlet"}}, {"type": "node", "id": 7497859556, "lat": 57.5403333, "lon": 13.2024868, "tags": {"name": "G\u00e4ddviken", "place": "hamlet"}}, {"type": "node", "id": 7497861518, "lat": 57.5722914, "lon": 13.2015114, "tags": {"name": "Bragnum", "place": "hamlet"}}, {"type": "node", "id": 7497873648, "lat": 57.6265122, "lon": 13.2662788, "tags": {"name": "\u00d6mmesala", "place": "hamlet"}}, {"type": "node", "id": 7497894916, "lat": 57.626866, "lon": 13.2340899, "tags": {"name": "Porten", "place": "hamlet"}}, {"type": "node", "id": 7497901518, "lat": 57.5503458, "lon": 13.2295887, "tags": {"name": "Broasl\u00e4tt", "place": "hamlet"}}, {"type": "node", "id": 7497910616, "lat": 57.5877187, "lon": 13.3078146, "tags": {"name": "R\u00f6sered", "place": "hamlet"}}, {"type": "node", "id": 7497919420, "lat": 57.5855674, "lon": 13.2752194, "tags": {"name": "Varred", "place": "hamlet"}}, {"type": "node", "id": 7497966733, "lat": 57.6061505, "lon": 13.3637734, "tags": {"name": "Bredared", "place": "hamlet"}}, {"type": "node", "id": 7497980267, "lat": 57.6183213, "lon": 13.2899952, "tags": {"name": "Udda", "place": "hamlet"}}, {"type": "node", "id": 7497988798, "lat": 57.6208933, "lon": 13.2952764, "tags": {"name": "J\u00e4rn\u00e5ldern", "place": "hamlet"}}, {"type": "node", "id": 7497997621, "lat": 57.593919, "lon": 13.3352263, "tags": {"name": "Bruntorp", "place": "hamlet"}}, {"type": "node", "id": 7498003255, "lat": 57.5954103, "lon": 13.3620304, "tags": {"name": "Bj\u00f6rnarp", "place": "hamlet"}}, {"type": "node", "id": 7498026275, "lat": 57.5765792, "lon": 13.3379412, "tags": {"name": "Bj\u00f6rdal", "place": "hamlet"}}, {"type": "node", "id": 7498027839, "lat": 57.5854644, "lon": 13.3717279, "tags": {"name": "Korrebo", "place": "hamlet"}}, {"type": "node", "id": 7498033160, "lat": 57.5816353, "lon": 13.4060875, "tags": {"name": "St\u00e5lared", "place": "hamlet"}}, {"type": "node", "id": 7498034750, "lat": 57.5859019, "lon": 13.4039433, "tags": {"name": "K\u00e4rr", "place": "hamlet"}}, {"type": "node", "id": 7498046869, "lat": 57.6364369, "lon": 13.3479213, "tags": {"name": "\u00d6vrarp", "place": "hamlet"}}, {"type": "node", "id": 7498048893, "lat": 57.6296902, "lon": 13.3946709, "tags": {"name": "Navstocka", "place": "hamlet"}}, {"type": "node", "id": 7498062071, "lat": 57.6218985, "lon": 13.3629356, "tags": {"name": "Nabben", "place": "hamlet"}}, {"type": "node", "id": 7498068014, "lat": 57.6163147, "lon": 13.3570556, "tags": {"name": "Slumsvik", "place": "hamlet"}}, {"type": "node", "id": 7498070096, "lat": 57.6147987, "lon": 13.3621129, "tags": {"name": "\u00c5sg\u00e5rden", "place": "hamlet"}}, {"type": "node", "id": 7498086723, "lat": 57.5996879, "lon": 13.4703594, "tags": {"name": "L\u00e5ngared", "place": "hamlet"}}, {"type": "node", "id": 7498090031, "lat": 57.5831291, "lon": 13.4474703, "tags": {"name": "Gryttered", "place": "hamlet"}}, {"type": "node", "id": 7498090418, "lat": 57.602731, "lon": 13.4233726, "tags": {"name": "Oltorp", "place": "hamlet"}}, {"type": "node", "id": 7498099420, "lat": 57.587439, "lon": 13.4649189, "tags": {"name": "Hagared", "place": "hamlet"}}, {"type": "node", "id": 7498102182, "lat": 57.6228584, "lon": 13.4439335, "tags": {"name": "K\u00e4ttebo", "place": "hamlet"}}, {"type": "node", "id": 7498153213, "lat": 57.6627434, "lon": 13.428082, "tags": {"name": "G\u00e5rd\u00f6", "place": "hamlet"}}, {"type": "node", "id": 7498188557, "lat": 57.6302642, "lon": 13.177899, "tags": {"name": "Veka", "place": "hamlet"}}, {"type": "node", "id": 7498209088, "lat": 57.6458589, "lon": 13.1827313, "tags": {"name": "Skedskamma", "place": "hamlet"}}, {"type": "node", "id": 7498215866, "lat": 57.6724227, "lon": 13.2325464, "tags": {"name": "Rydet", "place": "hamlet"}}, {"type": "node", "id": 7498218151, "lat": 57.6496423, "lon": 13.1890269, "tags": {"name": "Nysl\u00e4tt", "place": "hamlet"}}, {"type": "node", "id": 7498255002, "lat": 57.6607861, "lon": 13.2202548, "tags": {"name": "J\u00e4ttebo", "place": "hamlet"}}, {"type": "node", "id": 7498278245, "lat": 57.6430149, "lon": 13.2266542, "tags": {"name": "F\u00e4gerhult", "place": "hamlet"}}, {"type": "node", "id": 7498292170, "lat": 57.6578572, "lon": 13.4004999, "tags": {"name": "S\u00e4m", "place": "hamlet"}}, {"type": "node", "id": 7498321673, "lat": 57.5748889, "lon": 13.4197769, "tags": {"name": "N\u00e4set", "place": "hamlet"}}, {"type": "node", "id": 7498340720, "lat": 57.6672207, "lon": 13.3290854, "tags": {"name": "\u00c5sundsholm", "place": "hamlet"}}, {"type": "node", "id": 7498340748, "lat": 57.6733449, "lon": 13.4140375, "tags": {"name": "Tingssl\u00e4tterna", "place": "hamlet"}}, {"type": "node", "id": 7498348727, "lat": 57.5733744, "lon": 13.4733706, "tags": {"name": "Tommared", "place": "hamlet"}}, {"type": "node", "id": 7498363318, "lat": 57.6525692, "lon": 13.4690062, "tags": {"name": "M\u00f6llebo", "place": "hamlet"}}, {"type": "node", "id": 7498363671, "lat": 57.6333851, "lon": 13.523094, "tags": {"name": "Torp", "place": "hamlet"}}, {"type": "node", "id": 7498368646, "lat": 57.6291559, "lon": 13.5217585, "tags": {"name": "Ekered", "place": "hamlet"}}, {"type": "node", "id": 7498383667, "lat": 57.6161418, "lon": 13.4954505, "tags": {"name": "Gundlabo", "place": "hamlet"}}, {"type": "node", "id": 7498385744, "lat": 57.6216283, "lon": 13.5188164, "tags": {"name": "Borrarp", "place": "hamlet"}}, {"type": "node", "id": 7498409581, "lat": 57.6201007, "lon": 13.492189, "tags": {"name": "Karsbo", "place": "hamlet"}}, {"type": "node", "id": 7498425051, "lat": 57.6093602, "lon": 13.4962997, "tags": {"name": "Sonarp", "place": "hamlet"}}, {"type": "node", "id": 7498434418, "lat": 57.6032763, "lon": 13.4953633, "tags": {"name": "Balt\u00e5s", "place": "hamlet"}}, {"type": "node", "id": 7498438356, "lat": 57.5883982, "lon": 13.5436205, "tags": {"name": "\u00d6deg\u00e5rden", "place": "hamlet"}}, {"type": "node", "id": 7498442186, "lat": 57.6055476, "lon": 13.5521902, "tags": {"name": "Hj\u00e4rtared", "place": "hamlet"}}, {"type": "node", "id": 7498442548, "lat": 57.6116802, "lon": 13.5446642, "tags": {"name": "Boarp", "place": "hamlet"}}, {"type": "node", "id": 7498447702, "lat": 57.5796828, "lon": 13.4922388, "tags": {"name": "Nittorp", "place": "hamlet"}}, {"type": "node", "id": 7498462235, "lat": 57.6229232, "lon": 13.5509485, "tags": {"name": "V\u00e4xtorp", "place": "hamlet"}}, {"type": "node", "id": 7498499821, "lat": 57.5868927, "lon": 13.530374, "tags": {"name": "Knestorp", "place": "hamlet"}}, {"type": "node", "id": 7498501101, "lat": 57.6011048, "lon": 13.5323024, "tags": {"name": "Skogarp", "place": "hamlet"}}, {"type": "node", "id": 7498509740, "lat": 57.5711857, "lon": 13.5735695, "tags": {"name": "Kronog\u00e5rden", "place": "hamlet"}}, {"type": "node", "id": 7498516243, "lat": 57.5775936, "lon": 13.5580003, "tags": {"name": "Boda", "place": "hamlet"}}, {"type": "node", "id": 7498529578, "lat": 57.6126831, "lon": 13.6206898, "tags": {"name": "Grebbasl\u00e4tt", "place": "hamlet"}}, {"type": "node", "id": 7498538319, "lat": 57.5727475, "lon": 13.6741195, "tags": {"name": "Kock\u00f6", "place": "hamlet"}}, {"type": "node", "id": 7498549114, "lat": 57.5911981, "lon": 13.614426, "tags": {"name": "Jorstorp", "place": "hamlet"}}, {"type": "node", "id": 7498587227, "lat": 57.6112166, "lon": 13.5903309, "tags": {"name": "\u00c4lm\u00e5s", "place": "hamlet"}}, {"type": "node", "id": 7498588953, "lat": 57.622692, "lon": 13.5865878, "tags": {"name": "Horshaga", "place": "hamlet"}}, {"type": "node", "id": 7498597384, "lat": 57.6696941, "lon": 13.6389294, "tags": {"name": "Bohestra", "place": "hamlet"}}, {"type": "node", "id": 7498600515, "lat": 57.5829728, "lon": 13.6487, "tags": {"name": "Ekeremma", "place": "hamlet"}}, {"type": "node", "id": 7498600979, "lat": 57.6123504, "lon": 13.643016, "tags": {"name": "\u00c5remma", "place": "hamlet"}}, {"type": "node", "id": 7498601030, "lat": 57.5903806, "lon": 13.58251, "tags": {"name": "Passarp", "place": "hamlet"}}, {"type": "node", "id": 7498603334, "lat": 57.6078098, "lon": 13.6318375, "tags": {"name": "L\u00e5mmared", "place": "hamlet"}}, {"type": "node", "id": 7498603934, "lat": 57.5836077, "lon": 13.674812, "tags": {"name": "L\u00e5ngelycke", "place": "hamlet"}}, {"type": "node", "id": 7498608929, "lat": 57.6026362, "lon": 13.6613173, "tags": {"name": "M\u00e4rsebo", "place": "hamlet"}}, {"type": "node", "id": 7498616396, "lat": 57.6690677, "lon": 13.7121673, "tags": {"name": "V\u00e4gabo", "place": "hamlet"}}, {"type": "node", "id": 7498623736, "lat": 57.6732236, "lon": 13.6091525, "tags": {"name": "Gunntorp", "place": "hamlet"}}, {"type": "node", "id": 7498625282, "lat": 57.6668151, "lon": 13.579708, "tags": {"name": "H\u00f6gaberg", "place": "hamlet"}}, {"type": "node", "id": 7499215580, "lat": 57.7026851, "lon": 13.5479127, "tags": {"name": "Skogen", "place": "hamlet"}}, {"type": "node", "id": 7499222974, "lat": 57.6885111, "lon": 13.7089114, "tags": {"name": "M\u00f6rk\u00f6", "place": "hamlet"}}, {"type": "node", "id": 7499225069, "lat": 57.7551251, "lon": 13.695093, "tags": {"name": "\u00c5sen", "place": "hamlet"}}, {"type": "node", "id": 7499235630, "lat": 57.7104135, "lon": 13.5056521, "tags": {"name": "Nyg\u00e5rden", "place": "hamlet"}}, {"type": "node", "id": 7499235692, "lat": 57.6899506, "lon": 13.6279878, "tags": {"name": "Rull\u00e5sen", "place": "hamlet"}}, {"type": "node", "id": 7499236197, "lat": 57.6857192, "lon": 13.5655997, "tags": {"name": "\u00d6stentorp", "place": "hamlet"}}, {"type": "node", "id": 7499240882, "lat": 57.7066014, "lon": 13.4975777, "tags": {"name": "\u00c4ngabo", "place": "hamlet"}}, {"type": "node", "id": 7499246369, "lat": 57.691139, "lon": 13.6053161, "tags": {"name": "Solberga", "place": "hamlet"}}, {"type": "node", "id": 7499248170, "lat": 57.7680491, "lon": 13.7379704, "tags": {"name": "Humlered", "place": "hamlet"}}, {"type": "node", "id": 7499255452, "lat": 57.7271577, "lon": 13.5070163, "tags": {"name": "\u00d6vre Lid", "place": "hamlet"}}, {"type": "node", "id": 7499255800, "lat": 57.7246224, "lon": 13.4940094, "tags": {"name": "B\u00f6rsbo", "place": "hamlet"}}, {"type": "node", "id": 7499256531, "lat": 57.6967701, "lon": 13.5977971, "tags": {"name": "Kvarnared", "place": "hamlet"}}, {"type": "node", "id": 7499257911, "lat": 57.6949766, "lon": 13.6037554, "tags": {"name": "Holm\u00f6", "place": "hamlet"}}, {"type": "node", "id": 7499266356, "lat": 57.7530476, "lon": 13.5123012, "tags": {"name": "Kilahemmet", "place": "hamlet"}}, {"type": "node", "id": 7499269286, "lat": 57.6928474, "lon": 13.5485919, "tags": {"name": "Odla", "place": "hamlet"}}, {"type": "node", "id": 7499270163, "lat": 57.6917571, "lon": 13.5678755, "tags": {"name": "\u00c4spered", "place": "hamlet"}}, {"type": "node", "id": 7499272660, "lat": 57.7442664, "lon": 13.6625215, "tags": {"name": "Holm\u00f6", "place": "hamlet"}}, {"type": "node", "id": 7499275342, "lat": 57.724531, "lon": 13.7052373, "tags": {"name": "\u00c4lm\u00f6", "place": "hamlet"}}, {"type": "node", "id": 7499281965, "lat": 57.7265108, "lon": 13.6410117, "tags": {"name": "Kimmarebo", "place": "hamlet"}}, {"type": "node", "id": 7499285622, "lat": 57.7480511, "lon": 13.5786073, "tags": {"name": "Boared", "place": "hamlet"}}, {"type": "node", "id": 7499297532, "lat": 57.7560444, "lon": 13.589671, "tags": {"name": "\u00c4lmeb\u00e4cken", "place": "hamlet"}}, {"type": "node", "id": 7499451855, "lat": 57.7323269, "lon": 13.2137689, "tags": {"name": "Hallabron", "place": "hamlet"}}, {"type": "node", "id": 7499478184, "lat": 57.7243113, "lon": 13.2063394, "tags": {"name": "Dalshestre", "place": "hamlet"}}, {"type": "node", "id": 7499493814, "lat": 57.7385023, "lon": 13.1699211, "tags": {"name": "L\u00f6vaskog", "place": "hamlet"}}, {"type": "node", "id": 7499494478, "lat": 57.7221109, "lon": 13.1639487, "tags": {"name": "Smeds\u00e5s", "place": "hamlet"}}, {"type": "node", "id": 7499498141, "lat": 57.7156253, "lon": 13.2029918, "tags": {"name": "S\u00e4ggryd", "place": "hamlet"}}, {"type": "node", "id": 7499506496, "lat": 57.7273519, "lon": 13.1626203, "tags": {"name": "Kan\u00e5sen", "place": "hamlet"}}, {"type": "node", "id": 7499510812, "lat": 57.7035581, "lon": 13.1890162, "tags": {"name": "Hulten", "place": "hamlet"}}, {"type": "node", "id": 7499526558, "lat": 57.7578082, "lon": 13.1791987, "tags": {"name": "Kobacka", "place": "hamlet"}}, {"type": "node", "id": 7499528518, "lat": 57.7516568, "lon": 13.2014219, "tags": {"name": "Gullestorp", "place": "hamlet"}}, {"type": "node", "id": 7499529745, "lat": 57.6924978, "lon": 13.1757402, "tags": {"name": "Dusek\u00e4rr", "place": "hamlet"}}, {"type": "node", "id": 7499530440, "lat": 57.7030569, "lon": 13.2023356, "tags": {"name": "R\u00f6lle", "place": "hamlet"}}, {"type": "node", "id": 7499535545, "lat": 57.7096737, "lon": 13.3471046, "tags": {"name": "B\u00e4ckag\u00e5rden", "place": "hamlet"}}, {"type": "node", "id": 7499544917, "lat": 57.6810702, "lon": 13.2188082, "tags": {"name": "Hult", "place": "hamlet"}}, {"type": "node", "id": 7499544918, "lat": 57.6766821, "lon": 13.2709938, "tags": {"name": "Apelg\u00e4rde", "place": "hamlet"}}, {"type": "node", "id": 7499546139, "lat": 57.7078124, "lon": 13.4014227, "tags": {"name": "Yttre Sandsl\u00e4tt", "place": "hamlet"}}, {"type": "node", "id": 7499546715, "lat": 57.7375633, "lon": 13.2772107, "tags": {"name": "Kalvshestre", "place": "hamlet"}}, {"type": "node", "id": 7499547125, "lat": 57.6837061, "lon": 13.2725454, "tags": {"name": "Boan\u00e4s", "place": "hamlet", "population": "100"}}, {"type": "node", "id": 7499547270, "lat": 57.7279528, "lon": 13.3073761, "tags": {"name": "Stavared", "place": "hamlet"}}, {"type": "node", "id": 7499547273, "lat": 57.7141444, "lon": 13.2781052, "tags": {"name": "Badene", "place": "hamlet"}}, {"type": "node", "id": 7499551128, "lat": 57.6999585, "lon": 13.2813801, "tags": {"name": "Str\u00f6msdal", "place": "hamlet"}}, {"type": "node", "id": 7499556333, "lat": 57.7244069, "lon": 13.2717074, "tags": {"name": "Erikshult", "place": "hamlet"}}, {"type": "node", "id": 7499558870, "lat": 57.7293287, "lon": 13.256174, "tags": {"name": "Rydet", "place": "hamlet"}}, {"type": "node", "id": 7499561605, "lat": 57.7554155, "lon": 13.3480371, "tags": {"name": "Vasared", "place": "hamlet"}}, {"type": "node", "id": 7499568389, "lat": 57.7147304, "lon": 13.2657057, "tags": {"name": "Olofsbo", "place": "hamlet"}}, {"type": "node", "id": 7499572405, "lat": 57.7346337, "lon": 13.3757464, "tags": {"name": "Alhammar", "place": "hamlet"}}, {"type": "node", "id": 7499572626, "lat": 57.7160007, "lon": 13.3011183, "tags": {"name": "Arnungared", "place": "hamlet"}}, {"type": "node", "id": 7499573494, "lat": 57.718439, "lon": 13.2584095, "tags": {"name": "Kullag\u00e5rden", "place": "hamlet"}}, {"type": "node", "id": 7499583892, "lat": 57.7420629, "lon": 13.3167553, "tags": {"name": "Svensbo", "place": "hamlet"}}, {"type": "node", "id": 7499585190, "lat": 57.7594142, "lon": 13.3269496, "tags": {"name": "Koppart\u00e5n", "place": "hamlet"}}, {"type": "node", "id": 7499588305, "lat": 57.6824287, "lon": 13.413372, "tags": {"name": "G\u00f6t\u00e5kra", "place": "hamlet"}}, {"type": "node", "id": 7499588453, "lat": 57.7375347, "lon": 13.3589865, "tags": {"name": "Hult", "place": "hamlet"}}, {"type": "node", "id": 7499593429, "lat": 57.7422973, "lon": 13.470323, "tags": {"name": "Hjortsbacka", "place": "hamlet"}}, {"type": "node", "id": 7499599108, "lat": 57.6991443, "lon": 13.4332633, "tags": {"name": "N\u00e4rarp", "place": "hamlet"}}, {"type": "node", "id": 7499600699, "lat": 57.718865, "lon": 13.3602846, "tags": {"name": "Rude", "place": "hamlet"}}, {"type": "node", "id": 7499605120, "lat": 57.6842477, "lon": 13.4210426, "tags": {"name": "Hagalund", "place": "hamlet"}}, {"type": "node", "id": 7499620528, "lat": 57.7001276, "lon": 13.4511258, "tags": {"name": "Danstorp", "place": "hamlet"}}, {"type": "node", "id": 7499623253, "lat": 57.7409425, "lon": 13.4127418, "tags": {"name": "Stommen", "place": "hamlet"}}, {"type": "node", "id": 7499627785, "lat": 57.7395527, "lon": 13.4554275, "tags": {"name": "Ulveskog", "place": "hamlet"}}]}