{"version": 0.6, "generator": "Overpass API 0.7.61.5 4133829e", "osm3s": {"timestamp_osm_base": "2024-03-05T11:03:14Z", "copyright": "The data included in this document is from www.openstreetmap.org. The data is made available under ODbL."}, "elements": [{"type": "node", "id": 329971439, "lat": 10.8753671, "lon": -1.9859257, "tags": {"capital": "6", "name": "Tumu", "place": "town", "wikidata": "Q4207922", "wikipedia": "en:Tumu, Ghana"}}, {"type": "node", "id": 434391959, "lat": 10.8874226, "lon": -1.7490438, "tags": {"name": "Pina", "place": "town", "source": "landsat"}}, {"type": "node", "id": 902980826, "lat": 11.0198684, "lon": -1.8225893, "tags": {"FIXME": "please check exact position and fix if inaccurate", "admin_level": "8", "capital": "8", "is_in:country": "Burkina Faso", "is_in:country_code": "BF", "is_in:department": "Bi\u00e9ha", "is_in:province": "Sissili", "is_in:province_code": "25", "is_in:region": "Centre-Ouest", "is_in:region_code": "07", "name": "Konzio", "name:fr": "Konzio", "note": "Inserted by script", "place": "village", "population": "403", "population:date": "2012", "source": "NGA GEOnet Names Server (GNS)", "source:population": "INSD.BF"}}, {"type": "node", "id": 902980979, "lat": 10.9970587, "lon": -1.7304467, "tags": {"FIXME": "please check exact position and fix if inaccurate", "admin_level": "8", "capital": "8", "is_in:country": "Burkina Faso", "is_in:country_code": "BF", "is_in:department": "Bi\u00e9ha", "is_in:province": "Sissili", "is_in:province_code": "25", "is_in:region": "Centre-Ouest", "is_in:region_code": "07", "name": "Prata", "name:fr": "Prata", "place": "village", "population": "1160", "population:date": "2012", "source": "NGA GEOnet Names Server (GNS)", "source:population": "INSD.BF", "wikidata": "Q7238577"}}, {"type": "node", "id": 902981265, "lat": 11.0559137, "lon": -1.9174609, "tags": {"admin_level": "8", "capital": "8", "fixme": "please check exact position and fix if inaccurate", "is_in": "L\u00e9o;Sissili;Centre-Ouest;Burkina Faso;Africa", "is_in:country": "Burkina Faso", "is_in:country_code": "BF", "is_in:department": "L\u00e9o", "is_in:province": "Sissili", "is_in:province_code": "25", "is_in:region": "Centre-Ouest", "is_in:region_code": "07", "name": "B\u00e9tiessan", "note": "Inserted by script", "place": "village", "population": "498", "population:date": "2012", "source": "NGA GEOnet Names Server (GNS)", "source:population": "INSD.BF"}}, {"type": "node", "id": 902981330, "lat": 11.0038188, "lon": -1.9437614, "tags": {"admin_level": "8", "capital": "8", "fixme": "please check exact position and fix if inaccurate", "is_in:country": "Burkina Faso", "is_in:country_code": "BF", "is_in:department": "L\u00e9o", "is_in:province": "Sissili", "is_in:province_code": "25", "is_in:region": "Centre-Ouest", "is_in:region_code": "07", "name": "Don", "note": "Inserted by script", "place": "village", "population": "1491", "population:date": "2012", "source": "NGA GEOnet Names Server (GNS)", "source:population": "INSD.BF"}}, {"type": "node", "id": 1796808794, "lat": 10.7555974, "lon": -1.8912296, "tags": {"name": "Nabuobelle", "place": "village"}}, {"type": "node", "id": 1796809107, "lat": 10.8115179, "lon": -1.9100093, "tags": {"name": "Taliasi", "place": "village"}}, {"type": "node", "id": 1796809126, "lat": 10.8424395, "lon": -1.9239173, "tags": {"name": "Chincha", "place": "village"}}, {"type": "node", "id": 2303904024, "lat": 10.9532991, "lon": -1.859002, "tags": {"name": "Kasana", "place": "hamlet"}}, {"type": "node", "id": 2303904029, "lat": 10.9743656, "lon": -1.8585978, "tags": {"name": "Kasapuoli", "place": "hamlet"}}, {"type": "node", "id": 2303904913, "lat": 10.7548934, "lon": -1.9144733, "tags": {"place": "hamlet"}}, {"type": "node", "id": 2303904930, "lat": 10.8202488, "lon": -1.975665, "tags": {"place": "hamlet"}}, {"type": "node", "id": 2303904944, "lat": 10.8477787, "lon": -1.8694481, "tags": {"place": "hamlet"}}, {"type": "node", "id": 2303904960, "lat": 10.8515684, "lon": -1.8836021, "tags": {"place": "hamlet"}}, {"type": "node", "id": 2313975909, "lat": 10.8139439, "lon": -1.598319, "tags": {"name": "Banu", "place": "village"}}, {"type": "node", "id": 2313975911, "lat": 10.8608341, "lon": -1.671625, "tags": {"name": "Kwunchogaw", "place": "hamlet"}}, {"type": "node", "id": 2313976010, "lat": 10.8605176, "lon": -1.8028853, "tags": {"place": "hamlet"}}, {"type": "node", "id": 2313976082, "lat": 10.9057246, "lon": -1.6409037, "tags": {"place": "village"}}, {"type": "node", "id": 2313976146, "lat": 10.9510379, "lon": -1.8088695, "tags": {"place": "hamlet"}}, {"type": "node", "id": 3213704214, "lat": 11.0008077, "lon": -1.7382005, "tags": {"place": "village"}}, {"type": "node", "id": 3213704236, "lat": 11.0057678, "lon": -1.7460272, "tags": {"place": "village"}}, {"type": "node", "id": 3213726887, "lat": 10.9848402, "lon": -1.7292095, "tags": {"place": "village"}}, {"type": "node", "id": 3213768616, "lat": 11.0381344, "lon": -1.616919, "tags": {"FIXME": "please check exact position and fix if inaccurate", "admin_level": "8", "capital": "8", "is_in": "Bi\u00e9ha;Sissili;Centre-Ouest;Burkina Faso;Africa", "is_in:country": "Burkina Faso", "is_in:country_code": "BF", "is_in:department": "Bi\u00e9ha", "is_in:province": "Sissili", "is_in:province_code": "25", "is_in:region": "Centre-Ouest", "is_in:region_code": "07", "name": "Kounou", "name:fr": "Kounou", "place": "village", "population": "236", "population:date": "2012", "source:population": "INSD.BF"}}, {"type": "node", "id": 3214099135, "lat": 11.0397038, "lon": -1.6041597, "tags": {"place": "hamlet"}}, {"type": "node", "id": 3214264988, "lat": 10.9238531, "lon": -1.7016311, "tags": {"place": "village"}}, {"type": "node", "id": 3866720663, "lat": 11.0592399, "lon": -1.8237562, "tags": {"admin_level": "8", "capital": "6", "is_in": "Bi\u00e9ha;Sissili;Centre-Ouest;Burkina Faso;Africa", "is_in:country": "Burkina Faso", "is_in:country_code": "BF", "is_in:department": "Bi\u00e9ha", "is_in:province": "Sissili", "is_in:province_code": "25", "is_in:region": "Centre-Ouest", "is_in:region_code": "07", "name": "Bi\u00e9ha", "name:fr": "Bi\u00e9ha", "place": "town", "population": "2671", "population:date": "2012", "source:population": "INSD.BF", "wikidata": "Q879312", "wikipedia": "fr:Bi\u00e9ha"}}, {"type": "node", "id": 11268840555, "lat": 11.0395507, "lon": -1.7145324, "tags": {"name": "Tassien", "place": "village", "source": "OCHA"}}, {"type": "node", "id": 11268840556, "lat": 10.9980268, "lon": -1.6731835, "tags": {"name": "Fien", "place": "village", "source": "OCHA"}}, {"type": "node", "id": 11268840560, "lat": 11.0585152, "lon": -1.8798638, "tags": {"name": "Sabou", "place": "village", "source": "OCHA"}}, {"type": "node", "id": 11268923179, "lat": 11.0385926, "lon": -1.9929888, "tags": {"name": "Nablaliassan", "place": "hamlet", "source": "OCHA"}}]}