{"version": 0.6, "generator": "Overpass API 0.7.61.5 4133829e", "osm3s": {"timestamp_osm_base": "2024-03-05T14:33:06Z", "copyright": "The data included in this document is from www.openstreetmap.org. The data is made available under ODbL."}, "elements": [{"type": "node", "id": 269395949, "lat": 58.9704915, "lon": 18.3251962, "tags": {"amenity": "ferry_terminal", "ferry": "yes", "name": "Gruvbryggan", "public_transport": "stop_position"}}, {"type": "node", "id": 424056139, "lat": 58.957656, "lon": 18.2944979, "tags": {"amenity": "ferry_terminal", "ferry": "yes", "name": "Spr\u00e4nga", "public_transport": "station"}}, {"type": "node", "id": 424093156, "lat": 58.9192976, "lon": 18.1780252, "tags": {"amenity": "ferry_terminal", "ferry": "yes", "name": "R\u00e5n\u00f6", "public_transport": "station"}}, {"type": "node", "id": 435187416, "lat": 58.9016645, "lon": 18.1474292, "tags": {"amenity": "ferry_terminal", "ferry": "yes", "name": "Asp\u00f6", "public_transport": "stop_position"}}, {"type": "node", "id": 435221450, "lat": 59.0355543, "lon": 18.5105136, "tags": {"amenity": "ferry_terminal", "ferry": "yes", "name": "Fj\u00e4rdl\u00e5ng", "public_transport": "stop_position"}}, {"type": "node", "id": 1415228919, "lat": 58.961626, "lon": 18.293362, "tags": {"amenity": "ferry_terminal", "ferry": "yes", "name": "N\u00e4sudden", "public_transport": "station"}}, {"type": "node", "id": 2321869273, "lat": 58.9199782, "lon": 18.1915911, "tags": {"amenity": "ferry_terminal", "ferry": "yes", "name": "\u00c5l\u00f6", "public_transport": "station"}}, {"type": "node", "id": 7817708463, "lat": 58.9050962, "lon": 18.1498573, "tags": {"amenity": "ferry_terminal", "ferry": "yes", "name": "Norr\u00f6", "public_transport": "stop_position"}}]}