{"version": 0.6, "generator": "Overpass API 0.7.61.5 4133829e", "osm3s": {"timestamp_osm_base": "2024-03-05T11:24:46Z", "copyright": "The data included in this document is from www.openstreetmap.org. The data is made available under ODbL."}, "elements": [{"type": "node", "id": 990128087, "lat": 6.0600193, "lon": 0.6048304, "tags": {"name": "Dendo", "place": "village"}}, {"type": "node", "id": 990128143, "lat": 5.9659388, "lon": 0.5323878, "tags": {"name": "Feyito", "place": "town"}}, {"type": "node", "id": 990128331, "lat": 5.9548202, "lon": 0.5245428, "tags": {"name": "Tojeh", "place": "town"}}, {"type": "node", "id": 990128396, "lat": 6.0173099, "lon": 0.5986667, "tags": {"place": "town"}}, {"type": "node", "id": 990129307, "lat": 5.9989117, "lon": 0.5951312, "tags": {"alt_name": "Sogakofe", "capital": "6", "name": "Sogakope", "place": "town", "wikidata": "Q2297708", "wikipedia": "en:Sogakope"}}, {"type": "node", "id": 990129359, "lat": 6.0036374, "lon": 0.5620622, "tags": {"name": "Tefle", "place": "town"}}, {"type": "node", "id": 990129940, "lat": 5.9830258, "lon": 0.526347, "tags": {"name": "Kpotame", "place": "town"}}, {"type": "node", "id": 990130283, "lat": 6.0078809, "lon": 0.5539539, "tags": {"name": "Vume", "place": "town", "wikidata": "Q18395799"}}, {"type": "node", "id": 1485049271, "lat": 6.131023, "lon": 0.798211, "tags": {"capital": "6", "name": "Akatsi", "place": "town", "wikidata": "Q4700362", "wikipedia": "en:Akatsi"}}, {"type": "node", "id": 1810167987, "lat": 5.9799696, "lon": 0.8331458, "tags": {"name": "Gbetuinu", "place": "village"}}, {"type": "node", "id": 1810168346, "lat": 5.9992792, "lon": 0.8576896, "tags": {"name": "Tsiame", "place": "village"}}, {"type": "node", "id": 1810168354, "lat": 6.0108691, "lon": 0.8246264, "tags": {"name": "Avenorpeme", "place": "village"}}, {"type": "node", "id": 1821138454, "lat": 6.2713926, "lon": 0.5709376, "tags": {"name": "Mafi Kumase", "place": "town", "wikidata": "Q6729468", "wikipedia": "en:Mafi-Kumasi"}}, {"type": "node", "id": 1821139495, "lat": 5.9030939, "lon": 0.6760393, "tags": {"place": "village"}}, {"type": "node", "id": 1821139496, "lat": 6.2732671, "lon": 0.6170355, "tags": {"name": "Mafi Sasekpe", "place": "village"}}, {"type": "node", "id": 1821139497, "lat": 6.2912761, "lon": 0.6172842, "tags": {"name": "Mafi Amegakofe", "place": "village"}}, {"type": "node", "id": 2150427799, "lat": 5.9175249, "lon": 0.5007742, "tags": {"place": "village"}}, {"type": "node", "id": 2150427846, "lat": 5.9728269, "lon": 0.8294818, "tags": {"place": "village"}}, {"type": "node", "id": 2162646529, "lat": 6.1238377, "lon": 0.6399379, "tags": {"name": "Avedo", "place": "village"}}, {"type": "node", "id": 2162646722, "lat": 5.8602409, "lon": 0.4817836, "tags": {"place": "village"}}, {"type": "node", "id": 2162646728, "lat": 5.8606607, "lon": 0.502394, "tags": {"place": "village"}}, {"type": "node", "id": 2162646794, "lat": 5.8742189, "lon": 0.5609968, "tags": {"name": "Dogo Town", "place": "village"}}, {"type": "node", "id": 2162646828, "lat": 5.8848733, "lon": 0.5006644, "tags": {"place": "village"}}, {"type": "node", "id": 2162646829, "lat": 5.884957, "lon": 0.5127304, "tags": {"place": "village"}}, {"type": "node", "id": 2162646879, "lat": 5.9199711, "lon": 0.5556124, "tags": {"place": "village"}}, {"type": "node", "id": 2162647057, "lat": 6.0005221, "lon": 0.5691757, "tags": {"place": "village"}}, {"type": "node", "id": 2162647135, "lat": 6.016596, "lon": 0.6501411, "tags": {"name": "Alesikpe", "place": "hamlet"}}, {"type": "node", "id": 2618062593, "lat": 5.9512205, "lon": 0.4666025, "tags": {"place": "hamlet"}}, {"type": "node", "id": 2618296592, "lat": 6.0869497, "lon": 0.5444242, "tags": {"name": "Agboglakope", "place": "village"}}, {"type": "node", "id": 2625843952, "lat": 5.992733, "lon": 0.580638, "tags": {"name": "Sokpoe", "place": "town", "wikidata": "Q16734104"}}, {"type": "node", "id": 3018025360, "lat": 6.0131056, "lon": 0.6396218, "tags": {"name": "Hlevi", "place": "village"}}, {"type": "node", "id": 3688077251, "lat": 6.0745758, "lon": 0.7412216, "tags": {"name": "Tsavanya", "place": "village", "source": "bing"}}, {"type": "node", "id": 3688087109, "lat": 6.058706, "lon": 0.7311759, "tags": {"name": "Hikpo", "place": "village", "source": "survey"}}, {"type": "node", "id": 3688091543, "lat": 6.0441672, "lon": 0.7173209, "tags": {"name": "Agbagorme", "place": "village", "source": "survey"}}, {"type": "node", "id": 3688098634, "lat": 6.0260619, "lon": 0.6879082, "tags": {"name": "Lakpo", "place": "village", "source": "survey"}}, {"type": "node", "id": 4595435472, "lat": 6.2611325, "lon": 0.5490868, "tags": {"name": "Mafi Asiepke", "place": "village"}}, {"type": "node", "id": 4595435473, "lat": 6.2485078, "lon": 0.5510636, "tags": {"place": "village"}}, {"type": "node", "id": 4595435474, "lat": 6.2362908, "lon": 0.5514552, "tags": {"name": "Mafi Kpedzeglio", "place": "village"}}, {"type": "node", "id": 4595435475, "lat": 6.2068749, "lon": 0.5525388, "tags": {"name": "Mafi Alavanjo", "place": "village"}}, {"type": "node", "id": 4595435476, "lat": 6.20115, "lon": 0.5497681, "tags": {"name": "Mawoekpor", "place": "village"}}, {"type": "node", "id": 4595435477, "lat": 6.1851133, "lon": 0.544291, "tags": {"name": "Mafi Wute", "place": "village"}}, {"type": "node", "id": 4595435478, "lat": 6.1405099, "lon": 0.5278705, "tags": {"name": "Mafi Dadoboe", "place": "village"}}, {"type": "node", "id": 4595435479, "lat": 6.1339869, "lon": 0.5250327, "tags": {"name": "Mafi Anfoe", "place": "village"}}, {"type": "node", "id": 4595435480, "lat": 6.1038239, "lon": 0.5140089, "tags": {"name": "Mafi Akyemfo", "place": "village"}}, {"type": "node", "id": 4595435481, "lat": 6.0730516, "lon": 0.5031509, "tags": {"capital": "6", "name": "Adidome", "place": "town", "wikidata": "Q4682717", "wikipedia": "en:Adidome"}}, {"type": "node", "id": 4595435482, "lat": 6.0737465, "lon": 0.6040556, "tags": {"name": "Yorkutikpo", "place": "village"}}, {"type": "node", "id": 4595435483, "lat": 6.0503178, "lon": 0.604871, "tags": {"place": "village"}}, {"type": "node", "id": 5002534104, "lat": 6.2642967, "lon": 0.818745, "tags": {"name": "Avevi", "place": "village"}}, {"type": "node", "id": 5056632340, "lat": 6.1542834, "lon": 0.6961191}, {"type": "node", "id": 5056632341, "lat": 6.1529394, "lon": 0.6959796}, {"type": "node", "id": 5056632342, "lat": 6.1532142, "lon": 0.6947585}, {"type": "node", "id": 5056632343, "lat": 6.1544201, "lon": 0.6950377}, {"type": "node", "id": 5087711024, "lat": 6.0856982, "lon": 0.7421073, "tags": {"name": "Tordzinu", "place": "village"}}, {"type": "node", "id": 5448158176, "lat": 6.2577888, "lon": 0.6586887, "tags": {"name": "Mafi Srekpe", "place": "village"}}, {"type": "node", "id": 5815082827, "lat": 6.0970112, "lon": 0.7601729, "tags": {"name": "Torve", "place": "town"}}, {"type": "node", "id": 5885012262, "lat": 6.1191745, "lon": 0.8504266, "tags": {"name": "Atidzive", "place": "village"}}, {"type": "node", "id": 6031534044, "lat": 5.9490349, "lon": 0.6756096, "tags": {"name": "Lolito", "place": "village"}}, {"type": "node", "id": 6032341072, "lat": 5.9369604, "lon": 0.693537, "tags": {"name": "Nyinuto", "place": "village"}}, {"type": "node", "id": 6032341074, "lat": 5.870538, "lon": 0.7469789, "tags": {"name": "Agbatsivi", "place": "village"}}, {"type": "node", "id": 6032341076, "lat": 5.8613952, "lon": 0.7628053, "tags": {"name": "Agortoe", "place": "village"}}, {"type": "node", "id": 6581933039, "lat": 5.930305, "lon": 0.7691352, "tags": {"name": "Blameazado", "place": "village"}}, {"type": "node", "id": 6620868432, "lat": 6.0625442, "lon": 0.86207, "tags": {"name": "Abor", "place": "village", "wikidata": "Q4668312"}}, {"type": "node", "id": 6638536491, "lat": 6.0343228, "lon": 0.8603631, "tags": {"name": "Havene", "place": "village"}}, {"type": "node", "id": 6721192441, "lat": 6.1686019, "lon": 0.81247, "tags": {"name": "Agornu", "place": "village"}}, {"type": "node", "id": 7237210089, "lat": 6.1531043, "lon": 0.6953875}, {"type": "node", "id": 7237210090, "lat": 6.153158, "lon": 0.6962527}, {"type": "node", "id": 7237210091, "lat": 6.1539351, "lon": 0.6962907}, {"type": "node", "id": 7237210092, "lat": 6.1538784, "lon": 0.6948488}, {"type": "node", "id": 7237210113, "lat": 6.154317, "lon": 0.7088655}, {"type": "node", "id": 7237210121, "lat": 6.1539863, "lon": 0.7075757}, {"type": "node", "id": 7237210122, "lat": 6.153709, "lon": 0.7076186}, {"type": "node", "id": 7237210123, "lat": 6.1535543, "lon": 0.7077179}, {"type": "node", "id": 7237210124, "lat": 6.1534476, "lon": 0.7078037}, {"type": "node", "id": 7237210125, "lat": 6.153461, "lon": 0.7080666}, {"type": "node", "id": 7237210126, "lat": 6.1536156, "lon": 0.7084448}, {"type": "node", "id": 7237210127, "lat": 6.1537143, "lon": 0.7085521}, {"type": "node", "id": 7237210128, "lat": 6.1539116, "lon": 0.7085574}, {"type": "node", "id": 7237210129, "lat": 6.154029, "lon": 0.7087049}, {"type": "node", "id": 7237210130, "lat": 6.1540956, "lon": 0.7088551}, {"type": "node", "id": 7237210131, "lat": 6.1542263, "lon": 0.7088846}, {"type": "node", "id": 7237210132, "lat": 6.154373, "lon": 0.708764}, {"type": "node", "id": 7237210133, "lat": 6.1544663, "lon": 0.7085923}, {"type": "node", "id": 7237210134, "lat": 6.1545197, "lon": 0.7084689}, {"type": "node", "id": 7237210135, "lat": 6.1545037, "lon": 0.7082704}, {"type": "node", "id": 7237210136, "lat": 6.154389, "lon": 0.7080961}, {"type": "node", "id": 7237210137, "lat": 6.1544583, "lon": 0.7079486}, {"type": "node", "id": 7237210138, "lat": 6.1545783, "lon": 0.7079512}, {"type": "node", "id": 7237210139, "lat": 6.1546717, "lon": 0.7078842}, {"type": "node", "id": 7237210140, "lat": 6.154709, "lon": 0.7077286}, {"type": "node", "id": 7237210141, "lat": 6.1546823, "lon": 0.7076133}, {"type": "node", "id": 7237210142, "lat": 6.1545783, "lon": 0.7075248}, {"type": "node", "id": 7237210143, "lat": 6.154373, "lon": 0.7074845}, {"type": "node", "id": 7237210144, "lat": 6.154149, "lon": 0.7075382}, {"type": "node", "id": 7237210145, "lat": 6.1558824, "lon": 0.7106334}, {"type": "node", "id": 7237210146, "lat": 6.1559544, "lon": 0.7108614}, {"type": "node", "id": 7237210147, "lat": 6.156037, "lon": 0.7111028}, {"type": "node", "id": 7237210148, "lat": 6.1559757, "lon": 0.7112691}, {"type": "node", "id": 7237210149, "lat": 6.155805, "lon": 0.7113898}, {"type": "node", "id": 7237210150, "lat": 6.155605, "lon": 0.7113684}, {"type": "node", "id": 7237210151, "lat": 6.155413, "lon": 0.7113362}, {"type": "node", "id": 7237210152, "lat": 6.1552397, "lon": 0.7112584}, {"type": "node", "id": 7237210153, "lat": 6.1552023, "lon": 0.7110867}, {"type": "node", "id": 7237210154, "lat": 6.155189, "lon": 0.7107997}, {"type": "node", "id": 7237210155, "lat": 6.1552423, "lon": 0.7106469}, {"type": "node", "id": 7237210156, "lat": 6.155349, "lon": 0.7105342}, {"type": "node", "id": 7237210157, "lat": 6.1555224, "lon": 0.7104403}, {"type": "node", "id": 7237210158, "lat": 6.155693, "lon": 0.7103894}, {"type": "node", "id": 7237210159, "lat": 6.1558077, "lon": 0.7104698}, {"type": "node", "id": 7237210160, "lat": 6.1558237, "lon": 0.7105315}, {"type": "node", "id": 8960809476, "lat": 6.2917453, "lon": 0.5451214, "tags": {"name": "Adaklu Ahunda Boso", "place": "village"}}, {"type": "node", "id": 8968963682, "lat": 6.219479, "lon": 0.5139305, "tags": {"name": "Mafi Yingor", "place": "village"}}, {"type": "node", "id": 8968963683, "lat": 6.2664335, "lon": 0.5305833, "tags": {"name": "Tosukpoe", "place": "village"}}, {"type": "node", "id": 8968991866, "lat": 6.2075627, "lon": 0.5525754, "tags": {"name": "Mafi Alavanyo", "place": "village"}}, {"type": "node", "id": 8968993974, "lat": 6.2568213, "lon": 0.4711539, "tags": {"name": "Mafi Fiekpe", "place": "village"}}, {"type": "node", "id": 8968994950, "lat": 6.2212692, "lon": 0.5207638, "tags": {"name": "Mafi America", "place": "village"}}, {"type": "node", "id": 8968994951, "lat": 6.2494229, "lon": 0.50668, "tags": {"name": "Mafi Ajasikan", "place": "village"}}, {"type": "node", "id": 8968999442, "lat": 6.2013191, "lon": 0.5031936, "tags": {"name": "Mafi Seva", "place": "village"}}, {"type": "node", "id": 8969001106, "lat": 6.2882947, "lon": 0.6170278, "tags": {"place": "village"}}, {"type": "node", "id": 8969002689, "lat": 6.2553495, "lon": 0.5841624, "tags": {"name": "Mafi Tsati", "place": "village"}}, {"type": "node", "id": 8969008841, "lat": 6.2390192, "lon": 0.5894356, "tags": {"name": "Mafi Adalekpoe", "place": "village"}}, {"type": "node", "id": 8969009636, "lat": 6.2876314, "lon": 0.6066305, "tags": {"name": "Mafi Kutime", "place": "village"}}, {"type": "node", "id": 8969010739, "lat": 6.1996654, "lon": 0.5499305, "tags": {"name": "Mawoekpor", "place": "village"}}, {"type": "node", "id": 8969010907, "lat": 6.2332783, "lon": 0.5513971, "tags": {"name": "Mafi Kpedzeglo", "place": "village"}}, {"type": "node", "id": 8969010908, "lat": 6.2647831, "lon": 0.5207092, "tags": {"name": "Mafi Agoe", "place": "village"}}, {"type": "node", "id": 8969013657, "lat": 6.2755737, "lon": 0.5785949, "tags": {"name": "Mafi Mediage", "place": "village"}}, {"type": "node", "id": 8978419209, "lat": 5.8975075, "lon": 0.5219015, "tags": {"alt_name": "Kasseh", "name": "Ada Kasseh", "official_name": "Ada Kasseh", "place": "town"}}, {"type": "node", "id": 8979595012, "lat": 6.2016565, "lon": 0.7061317, "tags": {"name": "Vume Kpoviadzi", "place": "village"}}, {"type": "node", "id": 8979629403, "lat": 6.0487105, "lon": 0.5394874, "tags": {"name": "New Bakpa", "place": "village"}}, {"type": "node", "id": 8979634811, "lat": 6.1233535, "lon": 0.6401335, "tags": {"name": "Bakpa Avedo", "place": "village"}}, {"type": "node", "id": 8979635841, "lat": 6.0557274, "lon": 0.5240602, "tags": {"name": "Todze", "place": "village"}}, {"type": "node", "id": 8979639977, "lat": 6.1176527, "lon": 0.4966626, "tags": {"place": "village"}}, {"type": "node", "id": 8979639980, "lat": 6.1113694, "lon": 0.6097177, "tags": {"name": "Mafi Tove", "place": "village"}}, {"type": "node", "id": 8979645140, "lat": 6.0576957, "lon": 0.6045478, "tags": {"name": "Atsieve", "place": "village"}}, {"type": "node", "id": 8979645556, "lat": 6.1722657, "lon": 0.6703591, "tags": {"name": "Mafi Adakpo", "place": "village"}}, {"type": "node", "id": 8979645739, "lat": 6.1361731, "lon": 0.5131051, "tags": {"name": "Mafi Tsawla", "place": "village"}}, {"type": "node", "id": 8979650829, "lat": 6.1460931, "lon": 0.5433503, "tags": {"name": "Mafi Anfoe", "place": "village"}}, {"type": "node", "id": 8979651417, "lat": 6.1263529, "lon": 0.49438, "tags": {"name": "Dekpoe", "place": "village"}}, {"type": "node", "id": 8979651572, "lat": 6.1344746, "lon": 0.6375764, "tags": {"name": "Mafi Avedo", "place": "village"}}, {"type": "node", "id": 8986154575, "lat": 6.0465323, "lon": 0.6046441, "tags": {"name": "Sasekope", "place": "village"}}, {"type": "node", "id": 8986166219, "lat": 5.8928331, "lon": 0.494087, "tags": {"name": "Addokope", "place": "village"}}, {"type": "node", "id": 8986166224, "lat": 6.2994147, "lon": 0.5469561, "tags": {"name": "Adaklu Ahunda (Hpodzi)", "place": "village"}}, {"type": "node", "id": 8986166240, "lat": 5.8910268, "lon": 0.4780179, "tags": {"name": "Hwakpo", "place": "village"}}, {"type": "node", "id": 9121223591, "lat": 6.096015, "lon": 0.8345567, "tags": {"name": "Dzrakate", "place": "village"}}, {"type": "node", "id": 9368221045, "lat": 6.0082569, "lon": 0.5433697, "tags": {"name": "Tademe", "place": "village"}}, {"type": "node", "id": 9537670694, "lat": 5.892468, "lon": 0.5596779, "tags": {"name": "Kuvenya Ada", "place": "village"}}, {"type": "node", "id": 9719139682, "lat": 5.9479173, "lon": 0.8526689, "tags": {"name": "Atiavi", "place": "village"}}, {"type": "node", "id": 9755841810, "lat": 5.9810073, "lon": 0.6754982, "tags": {"name": "Dabala", "place": "village"}}, {"type": "node", "id": 10779659961, "lat": 5.8614553, "lon": 0.7628198, "tags": {"name": "Agortoe", "place": "town"}}, {"type": "node", "id": 10865228503, "lat": 5.8773338, "lon": 0.7735537, "tags": {"name": "Hadota", "place": "village"}}, {"type": "node", "id": 11298469915, "lat": 6.0291516, "lon": 0.5343554, "tags": {"name": "Awuadiokome", "place": "village"}}, {"type": "node", "id": 11298870889, "lat": 6.0310559, "lon": 0.7061164, "tags": {"name": "Agbakope", "place": "village"}}, {"type": "way", "id": 518372472, "nodes": [5056632343, 7237210092, 5056632342, 7237210089, 5056632341, 7237210090, 7237210091, 5056632340, 5056632343], "tags": {"landuse": "residential", "place": "village"}}, {"type": "way", "id": 775767780, "nodes": [7237210121, 7237210122, 7237210123, 7237210124, 7237210125, 7237210126, 7237210127, 7237210128, 7237210129, 7237210130, 7237210131, 7237210113, 7237210132, 7237210133, 7237210134, 7237210135, 7237210136, 7237210137, 7237210138, 7237210139, 7237210140, 7237210141, 7237210142, 7237210143, 7237210144, 7237210121], "tags": {"landuse": "residential", "place": "village", "source": "bing"}}, {"type": "way", "id": 775767781, "nodes": [7237210145, 7237210146, 7237210147, 7237210148, 7237210149, 7237210150, 7237210151, 7237210152, 7237210153, 7237210154, 7237210155, 7237210156, 7237210157, 7237210158, 7237210159, 7237210160, 7237210145], "tags": {"landuse": "residential", "place": "village", "source": "bing"}}]}