{"version": 0.6, "generator": "Overpass API 0.7.61.5 4133829e", "osm3s": {"timestamp_osm_base": "2024-03-05T11:11:34Z", "copyright": "The data included in this document is from www.openstreetmap.org. The data is made available under ODbL."}, "elements": [{"type": "node", "id": 10242226308, "lat": 5.60628, "lon": -1.5483159, "tags": {"amenity": "bank", "atm": "no", "name": "Twifu Rural Bank Limited"}}, {"type": "node", "id": 10242246411, "lat": 5.6087265, "lon": -1.5498126, "tags": {"amenity": "bank", "atm": "no", "name": "Multi Credit Savings and Loans"}}, {"type": "node", "id": 10242246421, "lat": 5.6078496, "lon": -1.5492868, "tags": {"amenity": "bank", "atm": "no", "name": "Assinman Rural Bank"}}, {"type": "node", "id": 10242246423, "lat": 5.6104149, "lon": -1.5500781, "tags": {"amenity": "bank", "atm": "yes", "name": "Twifu Rural Bank Limited"}}, {"type": "node", "id": 10242246425, "lat": 5.6115173, "lon": -1.5481094, "tags": {"amenity": "bank", "atm": "yes", "brand": "Fidelity Bank", "brand:wikidata": "Q5446778", "name": "Fidelity Bank"}}, {"type": "node", "id": 10242246426, "lat": 5.6116348, "lon": -1.5480316, "tags": {"amenity": "bank", "atm": "yes", "name": "GCB", "operator": "Bank of Ghana"}}, {"type": "node", "id": 10284772619, "lat": 5.611843, "lon": -1.548965, "tags": {"addr:country": "GH", "addr:region": "Central", "addr:street": "Daboase - Twifo Praso Road", "addr:town": "Twifo Praso", "alt_name": "Ecobank - Twifo Praso Branch", "amenity": "bank", "atm": "no", "branch": "Twifo Praso", "brand": "Ecobank", "brand:wikidata": "Q930225", "brand:wikipedia": "en:Ecobank", "contact:facebook": "EcobankGhanaPLC", "contact:instagram": "ecobankghanaplc", "contact:linkedin": "ecobankghanaplc", "contact:twitter": "EcobankGhanaPLC", "contact:youtube": "ecobanktv", "email": "ecobankenquiries@ecobank.com", "name": "Ecobank", "opening_hours": "Mo-Fr 08:30-16:00; Sa 09:00-14:00; PH off", "operator": "Ecobank Ghana PLC", "operator:type": "public", "operator:wikidata": "Q5333155", "operator:wikipedia": "en:Ecobank Ghana", "website": "https://ecobank.com/gh/"}}, {"type": "node", "id": 10292767372, "lat": 5.6119191, "lon": -1.5483373, "tags": {"amenity": "bank", "atm": "no", "name": "Twifo Man Co- operative Credit Union"}}, {"type": "node", "id": 10584106814, "lat": 5.545726, "lon": -1.5472551, "tags": {"amenity": "bank", "atm": "yes", "name": "Ecobank", "operator": "Ecowas"}}]}