{"version": 0.6, "generator": "Overpass API 0.7.61.5 4133829e", "osm3s": {"timestamp_osm_base": "2024-03-06T11:29:56Z", "copyright": "The data included in this document is from www.openstreetmap.org. The data is made available under ODbL."}, "elements": [{"type": "node", "id": 4684493140, "lat": 3.1203521, "lon": 35.5948544}, {"type": "node", "id": 4684493141, "lat": 3.1204988, "lon": 35.5949933}, {"type": "node", "id": 4684493142, "lat": 3.1203808, "lon": 35.5951184}, {"type": "node", "id": 4684493143, "lat": 3.120234, "lon": 35.5949795}, {"type": "node", "id": 6263511383, "lat": 3.1197107, "lon": 35.600272, "tags": {"addr:city": "Lodwar", "addr:street": "Lodwar-Lokichogio Road", "amenity": "bank", "brand": "Equity Bank", "brand:wikidata": "Q5384664", "brand:wikipedia": "en:Equity Bank Kenya Limited", "check_date": "2023-04-26", "name": "Equity Bank"}}, {"type": "node", "id": 6263511384, "lat": 3.1200329, "lon": 35.6002568, "tags": {"addr:city": "Lodwar", "addr:street": "Lodwar-Lokichogio Road", "amenity": "bank", "check_date": "2023-04-26", "name": "National Bank"}}, {"type": "node", "id": 6263511588, "lat": 3.1185251, "lon": 35.5973696, "tags": {"addr:city": "Lodwar", "addr:street": "D347", "amenity": "bank", "check_date": "2023-04-27", "name": "Cooperative Bank"}}, {"type": "node", "id": 8130635421, "lat": 3.120048, "lon": 35.6001839}, {"type": "node", "id": 8130635422, "lat": 3.1200631, "lon": 35.6001758}, {"type": "node", "id": 8130635423, "lat": 3.1199508, "lon": 35.6002213}, {"type": "node", "id": 8130635424, "lat": 3.1200227, "lon": 35.6003565}, {"type": "node", "id": 8130635425, "lat": 3.120129, "lon": 35.6002997}, {"type": "node", "id": 8130635426, "lat": 3.120042, "lon": 35.6001727}, {"type": "way", "id": 474501092, "nodes": [4684493140, 4684493141, 4684493142, 4684493143, 4684493140], "tags": {"addr:city": "Lodwar", "amenity": "bank", "atm": "yes", "building": "yes", "check_date": "2023-04-27", "name": "KCB Bank", "operator": "KCB Bank Kenya Limited"}}, {"type": "way", "id": 873142267, "nodes": [8130635426, 8130635421, 8130635422, 8130635425, 8130635424, 8130635423, 8130635426], "tags": {"addr:city": "Lodwar", "addr:postcode": "30500", "amenity": "bank", "building": "yes", "building:levels": "2", "name": "National Bank"}}]}