{"version": 0.6, "generator": "Overpass API 0.7.61.5 4133829e", "osm3s": {"timestamp_osm_base": "2024-03-05T15:07:00Z", "copyright": "The data included in this document is from www.openstreetmap.org. The data is made available under ODbL."}, "elements": [{"type": "node", "id": 29921091, "lat": 64.2619222, "lon": 16.4083118, "tags": {"name": "Dorotea", "name:ru": "\u0414\u043e\u0440\u043e\u0442\u0435\u0430", "name:sma": "Kraapohke", "place": "town", "population": "1491", "ref:se:pts:postort": "DOROTEA", "ref:se:scb": "8168", "wikipedia": "sv:Dorotea"}}, {"type": "node", "id": 29922312, "lat": 64.1151771, "lon": 16.2034954, "tags": {"name": "Hoting", "place": "village", "ref:se:pts:postort": "HOTING", "ref:se:scb": "7876", "wikidata": "Q1021355"}}, {"type": "node", "id": 532237066, "lat": 64.3309184, "lon": 16.3030195, "tags": {"name": "Avatr\u00e4sk", "place": "village", "population": "78", "wikidata": "Q1794822", "wikipedia": "sv:Avatr\u00e4sk"}}, {"type": "node", "id": 747366397, "lat": 63.9682772, "lon": 15.8507661, "tags": {"name": "L\u00f6vberga", "place": "village"}}, {"type": "node", "id": 747366438, "lat": 64.0329919, "lon": 15.8169488, "tags": {"name": "J\u00e4rvsand", "place": "hamlet"}}, {"type": "node", "id": 747366443, "lat": 64.0742257, "lon": 15.8279352, "tags": {"name": "Havsn\u00e4s", "place": "hamlet"}}, {"type": "node", "id": 747375523, "lat": 64.0920072, "lon": 15.8787469, "tags": {"name": "Storn\u00e4sudden", "place": "hamlet"}}, {"type": "node", "id": 908989736, "lat": 63.9228433, "lon": 16.3387298, "tags": {"name": "Ross\u00f6n", "place": "village", "ref:se:pts:postort": "ROSS\u00d6N", "ref:se:scb": "7948", "wikidata": "Q948020"}}, {"type": "node", "id": 1162255321, "lat": 63.9390304, "lon": 16.6917405, "tags": {"name": "Solberg", "place": "hamlet"}}, {"type": "node", "id": 1393016888, "lat": 64.2680101, "lon": 15.7544162, "tags": {"name": "Aldern\u00e4set", "place": "hamlet"}}, {"type": "node", "id": 2226880722, "lat": 64.2312945, "lon": 16.5455917, "tags": {"alt_name": "Lajksj\u00f6", "name": "Laiksj\u00f6", "place": "hamlet", "ref:se:pts:postort": "LAJKSJ\u00d6BERG"}}, {"type": "node", "id": 2226880973, "lat": 64.1024012, "lon": 16.6403523, "tags": {"alt_name": "Svanavattnet", "name": "Svanabyn", "name:sma": "Njoktjhjaevrie", "place": "village", "ref:se:pts:postort": "SVANAVATTNET"}}, {"type": "node", "id": 2236383263, "lat": 64.1853324, "lon": 16.6545991, "tags": {"name": "Lavsj\u00f6", "place": "village", "ref:se:pts:postort": "LAVSJ\u00d6N"}}, {"type": "node", "id": 2725065523, "lat": 64.2524904, "lon": 16.6602417, "tags": {"name": "Ullsj\u00f6berg", "place": "hamlet"}}, {"type": "node", "id": 2726714138, "lat": 64.2438636, "lon": 16.6982683, "tags": {"name": "Skav\u00e5sen", "place": "hamlet"}}, {"type": "node", "id": 2728429328, "lat": 64.2942512, "lon": 16.5433745, "tags": {"name": "M\u00e5rdsj\u00f6", "place": "hamlet"}}, {"type": "node", "id": 2739371333, "lat": 64.0850948, "lon": 16.5524281, "tags": {"name": "Grundsj\u00f6", "place": "hamlet"}}, {"type": "node", "id": 3117943898, "lat": 64.2235882, "lon": 15.9028834, "tags": {"addr:city": "T\u00e5sj\u00f6", "name": "Kyrkt\u00e5sj\u00f6", "place": "hamlet", "population": "84", "population:date": "2020-12-31", "source:population": "wikipedia", "wikidata": "Q1966593", "wikipedia": "sv:Kyrkt\u00e5sj\u00f6"}}, {"type": "node", "id": 3415709408, "lat": 63.9923985, "lon": 15.9957715, "tags": {"name": "H\u00e4llvattnet", "place": "hamlet"}}, {"type": "node", "id": 3455245788, "lat": 63.9137746, "lon": 16.2974679, "tags": {"name": "N\u00e4set", "place": "hamlet"}}, {"type": "node", "id": 3455265550, "lat": 63.9404976, "lon": 16.069427, "tags": {"name": "Nagasj\u00f6k\u00e4len", "place": "hamlet"}}, {"type": "node", "id": 3461278712, "lat": 64.2963441, "lon": 15.9086525, "tags": {"name": "Granberget", "place": "hamlet"}}, {"type": "node", "id": 3461497271, "lat": 64.2683798, "lon": 15.7784482, "tags": {"name": "Brattb\u00e4cken", "place": "hamlet", "start_date": "1765"}}, {"type": "node", "id": 3486808251, "lat": 64.0081333, "lon": 16.3264868, "tags": {"name": "Lesj\u00f6bodarna", "place": "hamlet"}}, {"type": "node", "id": 4435949331, "lat": 64.0629795, "lon": 15.8237656, "tags": {"name": "Havsn\u00e4s", "place": "hamlet"}}, {"type": "node", "id": 4637809406, "lat": 64.0667398, "lon": 16.0729964, "tags": {"name": "Storn\u00e4set", "place": "hamlet"}}, {"type": "node", "id": 4637809407, "lat": 64.062176, "lon": 16.1045838, "tags": {"name": "Bj\u00f6rksj\u00f6n\u00e4s", "place": "hamlet"}}, {"type": "node", "id": 5018096730, "lat": 64.2354208, "lon": 16.2982178, "tags": {"name": "F\u00e5gelsta", "place": "hamlet", "wikidata": "Q2543058"}}, {"type": "node", "id": 5183240221, "lat": 64.303148, "lon": 16.2369261, "tags": {"name": "Nappsj\u00f6", "place": "hamlet"}}, {"type": "node", "id": 5183253015, "lat": 64.2942741, "lon": 16.1163801, "tags": {"name": "Bellvik", "place": "hamlet"}}, {"type": "node", "id": 5445066575, "lat": 63.933055, "lon": 16.3656328, "tags": {"name": "B\u00f6len", "place": "hamlet"}}, {"type": "node", "id": 5445066578, "lat": 63.9356656, "lon": 16.3476453, "tags": {"name": "\u00c4lgsj\u00f6n", "place": "hamlet"}}, {"type": "node", "id": 5903508641, "lat": 64.2446585, "lon": 16.321608, "tags": {"name": "Rockvattnet", "place": "hamlet"}}, {"type": "node", "id": 5903510287, "lat": 64.2493692, "lon": 16.4947115, "tags": {"name": "Risn\u00e4set", "place": "hamlet"}}, {"type": "node", "id": 5903834213, "lat": 64.1608803, "lon": 16.261971, "tags": {"name": "R\u00f6rstr\u00f6m", "place": "hamlet"}}, {"type": "node", "id": 5913515234, "lat": 64.1175467, "lon": 16.3166856, "tags": {"name": "Sund", "place": "hamlet"}}, {"type": "node", "id": 5913516662, "lat": 64.0895796, "lon": 16.2263352, "tags": {"name": "Andersn\u00e4set", "place": "hamlet"}}, {"type": "node", "id": 6712109179, "lat": 64.0024494, "lon": 15.9733037, "tags": {"name": "V\u00e4stbyn", "place": "hamlet"}}, {"type": "node", "id": 6712109180, "lat": 64.0099012, "lon": 15.9557246, "tags": {"name": "Orskarstorpet", "place": "hamlet"}}, {"type": "node", "id": 6712143846, "lat": 63.9911763, "lon": 16.0023199, "tags": {"name": "\u00d6stbyn", "place": "hamlet"}}, {"type": "node", "id": 6712211253, "lat": 64.047523, "lon": 16.0239977, "tags": {"name": "Henrikstorp", "place": "hamlet"}}, {"type": "node", "id": 6869927753, "lat": 64.167986, "lon": 16.3774356, "tags": {"name": "Vike", "place": "hamlet"}}, {"type": "node", "id": 6869927770, "lat": 64.2123528, "lon": 16.2826356, "tags": {"name": "Lunne", "place": "hamlet"}}, {"type": "node", "id": 6869927773, "lat": 64.1861094, "lon": 16.3057884, "tags": {"name": "Kilvamsbodarna", "place": "hamlet"}}, {"type": "node", "id": 6869927775, "lat": 64.1701644, "lon": 16.2932786, "tags": {"name": "Kr\u00e5kmon", "place": "hamlet"}}, {"type": "node", "id": 6996766600, "lat": 63.9171603, "lon": 16.3295753, "tags": {"name": "Backvall", "place": "hamlet"}}, {"type": "node", "id": 6996766602, "lat": 63.9130183, "lon": 16.3571055, "tags": {"name": "S\u00f6r-Vangen", "place": "hamlet"}}, {"type": "node", "id": 6996766603, "lat": 63.9300445, "lon": 16.3462479, "tags": {"name": "Pr\u00e4st\u00f6n", "place": "hamlet"}}, {"type": "node", "id": 6996766618, "lat": 63.9469733, "lon": 16.3346018, "tags": {"name": "Norrn\u00e4s", "place": "hamlet"}}, {"type": "node", "id": 7001506518, "lat": 63.9416733, "lon": 16.3577897, "tags": {"name": "Fr\u00f6n\u00e4set", "place": "hamlet"}}, {"type": "node", "id": 7001724687, "lat": 63.9862016, "lon": 16.4403565, "tags": {"name": "B\u00f6lenvattenbodarna", "place": "hamlet"}}, {"type": "node", "id": 7001724690, "lat": 63.9923369, "lon": 16.4131696, "tags": {"name": "Lejs\u00f6torp", "place": "hamlet"}}, {"type": "node", "id": 7059954790, "lat": 63.9335301, "lon": 16.5238527, "tags": {"name": "N\u00f6rd-Stensvattnet", "place": "hamlet"}}, {"type": "node", "id": 7060046357, "lat": 63.9433448, "lon": 16.4912725, "tags": {"name": "G\u00e5rdvattenberget", "place": "hamlet"}}, {"type": "node", "id": 7060212108, "lat": 63.981557, "lon": 16.3845614, "tags": {"name": "Albert-J\u00f6nsbodarna", "place": "hamlet"}}, {"type": "node", "id": 7072048327, "lat": 64.0180257, "lon": 16.4552228, "tags": {"name": "Hocksj\u00f6", "place": "hamlet"}}, {"type": "node", "id": 7072275542, "lat": 63.9492521, "lon": 16.2924025, "tags": {"name": "T\u00e5svedjan", "place": "hamlet"}}, {"type": "node", "id": 7072275543, "lat": 63.9392237, "lon": 16.319761, "tags": {"name": "Orrn\u00e4s", "place": "hamlet"}}, {"type": "node", "id": 7454412853, "lat": 63.9593896, "lon": 15.838776, "tags": {"name": "Storriset", "place": "hamlet"}}, {"type": "node", "id": 7460329013, "lat": 63.9508408, "lon": 15.7192438, "tags": {"name": "V\u00e4sterk\u00e4len", "place": "hamlet"}}, {"type": "node", "id": 10972233618, "lat": 64.1639279, "lon": 16.0224017, "tags": {"name": "T\u00e5sj\u00f6edet", "place": "hamlet"}}, {"type": "node", "id": 10972233793, "lat": 64.2002387, "lon": 16.0070582, "tags": {"name": "Nybr\u00e4nnan", "place": "hamlet"}}, {"type": "node", "id": 10972363865, "lat": 64.2466091, "lon": 15.8684088, "tags": {"name": "Torpen", "place": "hamlet"}}, {"type": "node", "id": 11687724806, "lat": 64.1607962, "lon": 16.2888174, "tags": {"name": "Ystasj\u00f6n", "place": "hamlet"}}]}