{"version": 0.6, "generator": "Overpass API 0.7.61.5 4133829e", "osm3s": {"timestamp_osm_base": "2024-03-06T10:59:15Z", "copyright": "The data included in this document is from www.openstreetmap.org. The data is made available under ODbL."}, "elements": [{"type": "node", "id": 4603473090, "lat": 32.488096, "lon": 44.4350198, "tags": {"amenity": "bank", "name": "\u0645\u0635\u0631\u0641 \u0628\u063a\u062f\u0627\u062f / \u0628\u0627\u0628 \u0627\u0644\u062d\u0633\u064a\u0646", "name:ar": "\u0645\u0635\u0631\u0641 \u0628\u063a\u062f\u0627\u062f / \u0628\u0627\u0628 \u0627\u0644\u062d\u0633\u064a\u0646"}}, {"type": "node", "id": 4623063990, "lat": 32.4643496, "lon": 44.4275196, "tags": {"addr:street": "Nader Street", "amenity": "bank", "name": "\u0645\u0635\u0631\u0641 \u0627\u0644\u0631\u0627\u0641\u062f\u064a\u0646", "name:ar": "\u0645\u0635\u0631\u0641 \u0627\u0644\u0631\u0627\u0641\u062f\u064a\u0646", "name:en": "Al Rafidain Bank", "opening_hours": "Su-Th 08:00-15:00"}}, {"type": "node", "id": 4704864089, "lat": 32.4731942, "lon": 44.4256891, "tags": {"addr:postcode": "00964", "addr:street": "\u0634\u0627\u0631\u0639 40", "amenity": "bank", "email": "alharthiya_exchange@yahoo.com", "opening_hours": "24/7", "operator": "\u0633\u0644\u0627\u0645 \u0648 \u0633\u0644\u0648\u0627\u0646", "phone": "07706026617"}}, {"type": "node", "id": 4728727691, "lat": 32.5446, "lon": 44.2193, "tags": {"amenity": "bank", "name": "\u0645\u0635\u0631\u0641 \u0627\u0644\u0631\u0627\u0641\u062f\u064a\u0646", "name:ar": "\u0645\u0635\u0631\u0641 \u0627\u0644\u0631\u0627\u0641\u062f\u064a\u0646", "name:en": "Al Rafidain Bank"}}, {"type": "node", "id": 4741294321, "lat": 32.5155242, "lon": 44.154214, "tags": {"amenity": "bank", "name": "\u062d\u062c\u064a 40", "name:ar": "\u062d\u062c\u064a 40"}}, {"type": "node", "id": 4746951823, "lat": 32.3179724, "lon": 44.2717614, "tags": {"amenity": "bank", "name": "\u0645\u0635\u0631\u0641 \u0627\u0644\u0631\u0627\u0641\u062f\u064a\u0646 / \u0641\u0631\u0639 \u0627\u0644\u062d\u064a\u062f\u0631\u064a\u0629 Al-Rafidain bank / Al-haidariya office", "name:ar": "\u0645\u0635\u0631\u0641 \u0627\u0644\u0631\u0627\u0641\u062f\u064a\u0646 / \u0641\u0631\u0639 \u0627\u0644\u062d\u064a\u062f\u0631\u064a\u0629 Al-Rafidain bank / Al-haidariya office"}}, {"type": "node", "id": 4770790329, "lat": 32.3934933, "lon": 44.4007283, "tags": {"amenity": "bank", "name": "\u0645\u0635\u0631\u0641 \u0627\u0644\u0631\u0634\u064a\u062f \u0641\u0631\u0639 \u062c\u0627\u0645\u0639\u0629 \u0628\u0627\u0628\u0644", "name:ar": "\u0645\u0635\u0631\u0641 \u0627\u0644\u0631\u0634\u064a\u062f \u0641\u0631\u0639 \u062c\u0627\u0645\u0639\u0629 \u0628\u0627\u0628\u0644"}}, {"type": "node", "id": 4799114221, "lat": 32.4746987, "lon": 44.4320276, "tags": {"amenity": "bank", "name": "\u0645\u0635\u0631\u0641 \u0627\u0644\u0631\u0634\u064a\u062f", "name:ar": "\u0645\u0635\u0631\u0641 \u0627\u0644\u0631\u0634\u064a\u062f \u0641\u0631\u0639 \u0627\u0644\u0641\u064a\u062d\u0627\u0621 272", "name:en": "Al Rashed Banks"}}, {"type": "node", "id": 4848895222, "lat": 32.4793483, "lon": 44.4385452, "tags": {"amenity": "bank", "name:ar": "\u0645\u0635\u0631\u0641 \u0627\u0644\u0631\u0634\u064a\u062f \u0641\u0631\u0639 \u0627\u0644\u062d\u0644\u0629 \u0665", "tourism": "information"}}, {"type": "node", "id": 4952165721, "lat": 32.4808315, "lon": 44.4277421, "tags": {"amenity": "bank"}}, {"type": "node", "id": 5171315325, "lat": 32.4753604, "lon": 44.4348309, "tags": {"amenity": "bank", "name": "\u0645\u0635\u0631\u0641 \u0627\u0644\u0631\u0627\u0641\u062f\u064a\u0646 \u0641\u0631\u0639 \u0627\u0644\u062c\u0633\u0631 \u0661\u0663", "name:en": "Alrafidain Bank, Bridge Branch"}}, {"type": "node", "id": 5328082221, "lat": 32.5413307, "lon": 44.2212304, "tags": {"amenity": "bank", "name:en": "\u0627\u0644\u0647\u0646\u062f\u064a\u0629"}}, {"type": "node", "id": 5328082521, "lat": 32.5362821, "lon": 44.2283287, "tags": {"amenity": "bank", "name:en": "\u062c\u0633\u0631 \u0627\u0628\u0648 \u0627\u0644\u0641\u0631\u0629"}}, {"type": "node", "id": 5515307532, "lat": 32.385459, "lon": 44.2159621, "tags": {"amenity": "bank", "name": "\u0639\u0644\u064a"}}, {"type": "node", "id": 5517255427, "lat": 32.4811815, "lon": 44.4387988, "tags": {"amenity": "bank", "name": "\u0645\u0635\u0631\u0641 \u0627\u0644\u062d\u0644\u0647 / \u0665", "tourism": "information"}}, {"type": "node", "id": 5517272921, "lat": 32.4811352, "lon": 44.4389851, "tags": {"amenity": "bank", "name": "\u0645\u0635\u0631\u0641 \u062d\u0644\u0647 / \u0665"}}, {"type": "node", "id": 5834379988, "lat": 32.4857798, "lon": 44.4253496, "tags": {"amenity": "bank", "name": "\u0627\u0644\u0645\u0635\u0631\u0641 \u0627\u0644\u0639\u0631\u0627\u0642\u064a \u0627\u0644\u0627\u0633\u0644\u0627\u0645\u064a", "name:en": "Iraq Islamic Bank"}}, {"type": "node", "id": 6496842886, "lat": 32.4463111, "lon": 44.4045497, "tags": {"amenity": "bank", "name": "\u0645\u062c\u0645\u0639 \u0627\u0644\u0631\u0636\u0627 \u0644\u0644\u062a\u0642\u0633\u06cc\u0637", "opening_hours": "24/7", "operator": "\u0645\u062c\u0645\u0639 \u0627\u0644\u0631\u0636\u0627\u0644\u0644\u062a\u0642\u0633\u06cc\u0637"}}, {"type": "node", "id": 6734679885, "lat": 32.4795804, "lon": 44.4372513, "tags": {"amenity": "bank", "name": "\u0645\u0639\u0645\u0644 cnc", "name:ar": "\u0645\u0639\u0645\u0644 \u0641\u0627\u0636\u0644 \u062c\u0627\u0633\u0645 \u062f\u064a\u0644\u064a"}}, {"type": "node", "id": 7726938185, "lat": 32.4753522, "lon": 44.4348509, "tags": {"amenity": "bank", "name": "\u0645\u0635\u0631\u0641 \u0627\u0644\u0631\u0641\u062f\u064a\u0646 103"}}, {"type": "node", "id": 9384316781, "lat": 32.4694914, "lon": 44.4259438, "tags": {"addr:full": "Branch - Hilla Branch W2", "amenity": "bank", "name": "\u0627\u0644\u0645\u0635\u0631\u0641 \u0627\u0644\u0639\u0631\u0627\u0642\u064a \u0644\u0644\u062a\u062c\u0627\u0631\u0629", "name:en": "Trade Bank of Iraq Branch", "operator": "Trade Bank of Iraq", "website": "https://tbi.com.iq/"}}, {"type": "node", "id": 9384316787, "lat": 32.4695701, "lon": 44.4257498, "tags": {"addr:full": "Branch - Hillah", "amenity": "bank", "name": "\u0627\u0644\u0645\u0635\u0631\u0641 \u0627\u0644\u0639\u0631\u0627\u0642\u064a \u0644\u0644\u062a\u062c\u0627\u0631\u0629", "name:en": "Trade Bank of Iraq Branch", "operator": "Trade Bank of Iraq", "website": "https://tbi.com.iq/"}}, {"type": "node", "id": 10579828444, "lat": 32.4807143, "lon": 44.4263389, "tags": {"addr:street": "\u0634\u0627\u0631\u0639 \u0664\u0660", "amenity": "bank", "name": "\u0645\u0635\u0631\u0641 \u0627\u0644\u062a\u0646\u0645\u064a\u0629 \u0641\u0631\u0639 \u0627\u0644\u062d\u0644\u0629"}}, {"type": "node", "id": 10882786805, "lat": 32.495669, "lon": 44.4251897, "tags": {"amenity": "bank", "name": "\u0645\u0635\u0631\u0641 \u0627\u0644\u0627\u0642\u062a\u0635\u0627\u062f"}}, {"type": "node", "id": 10974507005, "lat": 32.5141449, "lon": 44.442226, "tags": {"amenity": "bank", "name": "\u0645\u0635\u0631\u0641 \u0627\u0644\u0631\u0627\u0641\u062f\u064a\u0646 \u0645\u0643\u062a\u0628 \u0645\u0646\u062f\u0648\u0628 \u0648\u062a\u062f\u0642\u064a\u0642 \u0627\u0644\u0645\u0646\u0637\u0642\u0629 \u0627\u0644\u0648\u0633\u0637\u0649 \u0628\u0627\u0628\u0644"}}, {"type": "node", "id": 11093531305, "lat": 32.4700115, "lon": 44.4353798, "tags": {"amenity": "bank", "name": "\u063a\u0631\u0641\u0629 \u0627\u0644\u062a\u062c\u0627\u0631\u0629"}}]}