{"version": 0.6, "generator": "Overpass API 0.7.61.5 4133829e", "osm3s": {"timestamp_osm_base": "2024-03-05T14:35:12Z", "copyright": "The data included in this document is from www.openstreetmap.org. The data is made available under ODbL."}, "elements": [{"type": "node", "id": 544314054, "lat": 59.3345576, "lon": 14.9132113}, {"type": "node", "id": 1268339498, "lat": 59.2735439, "lon": 15.2273361, "tags": {"amenity": "ferry_terminal", "ferry": "yes", "public_transport": "station"}}, {"type": "node", "id": 1268339609, "lat": 59.2731681, "lon": 15.2271835, "tags": {"amenity": "ferry_terminal", "ferry": "yes", "name:signed": "no", "public_transport": "station"}}, {"type": "node", "id": 1396793998, "lat": 59.282672, "lon": 15.4125453, "tags": {"amenity": "ferry_terminal", "ferry": "yes", "public_transport": "stop_position"}}, {"type": "node", "id": 1396794010, "lat": 59.2829596, "lon": 15.4131381, "tags": {"amenity": "ferry_terminal", "ferry": "yes", "public_transport": "stop_position"}}, {"type": "node", "id": 2260626963, "lat": 59.3341141, "lon": 14.9142714}, {"type": "node", "id": 2440674901, "lat": 59.517693, "lon": 15.0433036, "tags": {"amenity": "ferry_terminal", "cargo": "passengers", "name": "Strandpromenaden"}}, {"type": "node", "id": 2440674902, "lat": 59.518014, "lon": 15.0531752, "tags": {"amenity": "ferry_terminal", "cargo": "passengers", "name": "Alntorps \u00f6"}}, {"type": "way", "id": 125858874, "nodes": [1396794010, 1396793998], "tags": {"bicycle": "yes", "description": "Only in August and September (see Website) from 12:00 - 18:00, only Wed-Sun. 20 SEK \"recommended price\", payable ONLY via Swish. No cash, no card.", "duration": "0:05", "foot": "yes", "motor_vehicle": "no", "name": "\u00c5b\u00e4ket", "route": "ferry", "source": "survey;local knowledge", "website": "https://www.orebro.se/kultur--fritid/fritid--aktiviteter/cykel---mtb-leder/hemfjarden-runt.html#farjan"}}, {"type": "way", "id": 230531548, "nodes": [1268339609, 1268339498], "tags": {"access": "no", "duration": "sommer", "foot": "yes", "motor_vehicle": "no", "route": "ferry"}}, {"type": "way", "id": 235993270, "nodes": [2440674901, 2440674902], "tags": {"duration": "00:10", "foot": "yes", "horse": "no", "motor_vehicle": "no", "name": "M/S Plaskus", "operator": "Nora kommun", "route": "ferry", "toll": "no", "website": "https://www.nora.se/upplevagora/alntorpso.4.1d6f5f4616af3fb629232d56.html"}}, {"type": "way", "id": 614000748, "nodes": [544314054, 2260626963], "tags": {"motor_vehicle": "no", "route": "ferry"}}]}