{"version": 0.6, "generator": "Overpass API 0.7.61.5 4133829e", "osm3s": {"timestamp_osm_base": "2024-03-05T15:10:00Z", "copyright": "The data included in this document is from www.openstreetmap.org. The data is made available under ODbL."}, "elements": [{"type": "node", "id": 294851776, "lat": 67.4606426, "lon": 22.0433342, "tags": {"name": "Masugnsbyn", "name:fit": "Masuni", "name:sv": "Masugnsbyn", "place": "hamlet", "population": "61"}}, {"type": "node", "id": 294867980, "lat": 67.6782861, "lon": 21.6501879, "tags": {"name": "Vittangi", "name:fi": "Vittanki", "name:fit": "Vittanki", "name:se": "Vaz\u00e1\u0161", "name:sv": "Vittangi", "place": "village", "population": "784", "ref:se:pts:postort": "VITTANGI", "ref:se:scb": "8912", "wikidata": "Q960861", "wikipedia": "sv:Vittangi"}}, {"type": "node", "id": 1678050880, "lat": 67.3354249, "lon": 22.230137, "tags": {"name": "Saittarova", "place": "hamlet", "population": "57", "postal_code": "980 61", "wikidata": "Q2232457", "wikipedia": "sv:Saittarova"}}, {"type": "node", "id": 1678134043, "lat": 67.428291, "lon": 22.5114178, "tags": {"name": "Junosuando", "name:fi": "Junosuvanto", "name:fit": "Junosuanto", "name:ru": "\u042e\u043d\u043e\u0441\u0443\u0430\u043d\u0434\u043e", "name:se": "\u010cunusavvon", "name:sv": "Junosuando", "place": "village", "population": "322", "ref:se:pts:postort": "JUNOSUANDO", "ref:se:scb": "8636", "wikidata": "Q2464406", "wikipedia": "sv:Junosuando"}}, {"type": "node", "id": 2162340990, "lat": 67.5505732, "lon": 21.9317106, "tags": {"name": "Merasj\u00e4rvi", "place": "village"}}, {"type": "node", "id": 2226881018, "lat": 67.3803376, "lon": 21.6642756, "tags": {"name": "Vettasj\u00e4rvi", "name:se": "Veahtasj\u00e1vri", "place": "hamlet", "ref:se:pts:postort": "VETTASJ\u00c4RVI"}}, {"type": "node", "id": 2364068446, "lat": 67.2522067, "lon": 22.2874104, "tags": {"name": "M\u00e4nnikk\u00f6", "place": "hamlet"}}, {"type": "node", "id": 2364924120, "lat": 67.3675818, "lon": 22.3743344, "tags": {"name": "Lautakoski", "place": "hamlet"}}, {"type": "node", "id": 2365325835, "lat": 67.5560853, "lon": 22.4352572, "tags": {"name": "Nuuksuj\u00e4rvi", "place": "hamlet"}}, {"type": "node", "id": 2365325836, "lat": 67.5718522, "lon": 22.1070084, "tags": {"name": "Nurmasuanto", "place": "hamlet"}}, {"type": "node", "id": 2365325837, "lat": 67.5678459, "lon": 22.3978114, "tags": {"name": "Purnuvaara", "place": "hamlet"}}, {"type": "node", "id": 3027501754, "lat": 67.5057181, "lon": 21.6137735, "tags": {"name": "\u00d6vre Parakka", "name:fit": "Yli-Parakka", "name:se": "B\u00e1rrek", "name:sv": "\u00d6vre Parakka", "place": "hamlet"}}, {"type": "node", "id": 3027501755, "lat": 67.49299, "lon": 21.6789404, "tags": {"name": "Nedre Parakka", "name:fit": "Ala-Parakka", "name:se": "Nedre Parakka", "place": "village"}}, {"type": "node", "id": 3147996072, "lat": 67.5319303, "lon": 22.2286911, "tags": {"name": "Kurkkio", "place": "village"}}, {"type": "node", "id": 3148051180, "lat": 67.5562104, "lon": 22.195443, "tags": {"name": "Navattitieva", "place": "hamlet"}}, {"type": "node", "id": 4395361283, "lat": 67.3866656, "lon": 21.6260223, "tags": {"name": "J\u00e4rventaus", "place": "hamlet"}}, {"type": "node", "id": 4395395297, "lat": 67.3825905, "lon": 21.8106383, "tags": {"name": "K\u00e4\u00e4nt\u00f6j\u00e4rvi", "place": "hamlet"}}, {"type": "node", "id": 4967549630, "lat": 67.6472908, "lon": 21.931986}, {"type": "node", "id": 4967549631, "lat": 67.6485067, "lon": 21.9360201}, {"type": "node", "id": 4967549632, "lat": 67.6478865, "lon": 21.9424145}, {"type": "node", "id": 4967549633, "lat": 67.6461401, "lon": 21.9429294}, {"type": "node", "id": 4967549634, "lat": 67.6438876, "lon": 21.9471781}, {"type": "node", "id": 4967549635, "lat": 67.6433408, "lon": 21.9505898}, {"type": "node", "id": 4967549636, "lat": 67.6423695, "lon": 21.9531004}, {"type": "node", "id": 4967549637, "lat": 67.6404431, "lon": 21.9556753}, {"type": "node", "id": 4967549638, "lat": 67.638835, "lon": 21.956834}, {"type": "node", "id": 4967549639, "lat": 67.6365997, "lon": 21.9633123}, {"type": "node", "id": 4967549640, "lat": 67.6346189, "lon": 21.9683926}, {"type": "node", "id": 4967549641, "lat": 67.6323489, "lon": 21.9623845}, {"type": "node", "id": 4967549642, "lat": 67.6287639, "lon": 21.96644}, {"type": "node", "id": 4967549643, "lat": 67.62789, "lon": 21.9645517}, {"type": "node", "id": 4967549644, "lat": 67.6284781, "lon": 21.9624918}, {"type": "node", "id": 4967549645, "lat": 67.6296459, "lon": 21.9610327}, {"type": "node", "id": 4967549646, "lat": 67.6308464, "lon": 21.9577711}, {"type": "node", "id": 4967549647, "lat": 67.6339575, "lon": 21.954531}, {"type": "node", "id": 4967549648, "lat": 67.6352353, "lon": 21.9539731}, {"type": "node", "id": 4967549649, "lat": 67.6384193, "lon": 21.9532221}, {"type": "node", "id": 4967549650, "lat": 67.6395785, "lon": 21.951205}, {"type": "node", "id": 4967549651, "lat": 67.6401091, "lon": 21.951248}, {"type": "node", "id": 4967549652, "lat": 67.6414119, "lon": 21.9489175}, {"type": "node", "id": 4967549653, "lat": 67.6421545, "lon": 21.9470404}, {"type": "node", "id": 4967549654, "lat": 67.6439824, "lon": 21.9440089}, {"type": "node", "id": 4967549655, "lat": 67.6449034, "lon": 21.9416813}, {"type": "node", "id": 4967549656, "lat": 67.6453746, "lon": 21.9396352}, {"type": "node", "id": 4967549657, "lat": 67.6456177, "lon": 21.9368326}, {"type": "node", "id": 4967549658, "lat": 67.6464582, "lon": 21.935116}, {"type": "node", "id": 5238587701, "lat": 67.2993698, "lon": 21.6323208, "tags": {"name": "Palo", "place": "hamlet"}}, {"type": "node", "id": 10824529486, "lat": 67.4556927, "lon": 22.5088405, "tags": {"name": "Viiksvaara", "place": "hamlet"}}, {"type": "node", "id": 10824529487, "lat": 67.4445226, "lon": 22.5088098, "tags": {"name": "Saajo", "place": "hamlet"}}, {"type": "way", "id": 507195800, "nodes": [4967549630, 4967549631, 4967549632, 4967549633, 4967549634, 4967549635, 4967549636, 4967549637, 4967549638, 4967549639, 4967549640, 4967549641, 4967549642, 4967549643, 4967549644, 4967549645, 4967549646, 4967549647, 4967549648, 4967549649, 4967549650, 4967549651, 4967549652, 4967549653, 4967549654, 4967549655, 4967549656, 4967549657, 4967549658, 4967549630], "tags": {"place": "village"}}]}