{"version": 0.6, "generator": "Overpass API 0.7.61.5 4133829e", "osm3s": {"timestamp_osm_base": "2024-03-05T15:06:00Z", "copyright": "The data included in this document is from www.openstreetmap.org. The data is made available under ODbL."}, "elements": [{"type": "node", "id": 447930377, "lat": 63.4884827, "lon": 13.1224287, "tags": {"name": "Hus\u00e5", "place": "village", "source": "survey"}}, {"type": "node", "id": 827583532, "lat": 63.474916, "lon": 13.2363794, "tags": {"name": "Kall", "name:sma": "Gaelpie", "name:sv": "Kall", "place": "hamlet"}}, {"type": "node", "id": 3137977639, "lat": 63.751717, "lon": 12.9609857, "tags": {"name": "Kol\u00e5sen", "place": "hamlet"}}, {"type": "node", "id": 5914644100, "lat": 63.4585933, "lon": 13.3546328, "tags": {"name": "Ringsta", "place": "hamlet"}}, {"type": "node", "id": 5914644102, "lat": 63.4719466, "lon": 13.2813548, "tags": {"name": "S\u00f6lvsved", "place": "hamlet"}}, {"type": "node", "id": 5914644103, "lat": 63.4816245, "lon": 13.1944942, "tags": {"name": "Backen", "place": "hamlet"}}, {"type": "node", "id": 5914644105, "lat": 63.5027897, "lon": 13.156557, "tags": {"name": "Gr\u00f6tom", "place": "hamlet"}}, {"type": "node", "id": 5914644106, "lat": 63.510122, "lon": 13.132224, "tags": {"name": "Rannommen", "place": "hamlet"}}, {"type": "node", "id": 5914644107, "lat": 63.5254888, "lon": 13.109715, "tags": {"name": "Berge", "place": "hamlet"}}, {"type": "node", "id": 5914644108, "lat": 63.556599, "lon": 13.0248927, "tags": {"name": "Kall-R\u00f6r", "place": "hamlet"}}, {"type": "node", "id": 5914644109, "lat": 63.5692906, "lon": 13.0205046, "tags": {"name": "Vassn\u00e4s", "place": "hamlet"}}, {"type": "node", "id": 5914644110, "lat": 63.5834848, "lon": 13.0198288, "tags": {"name": "Maln\u00e4set", "place": "hamlet"}}, {"type": "node", "id": 5914644111, "lat": 63.5919893, "lon": 13.0310726, "tags": {"name": "Skagen", "place": "hamlet"}}, {"type": "node", "id": 5914644112, "lat": 63.6149704, "lon": 13.2096004, "tags": {"name": "\u00c4nge", "place": "hamlet"}}, {"type": "node", "id": 5914644113, "lat": 63.6866464, "lon": 12.9844665, "tags": {"name": "Granbergsfallet", "place": "hamlet"}}, {"type": "node", "id": 5914644115, "lat": 63.6779132, "lon": 13.062315, "tags": {"name": "Nordb\u00f6le", "place": "hamlet"}}, {"type": "node", "id": 5914644116, "lat": 63.6688252, "lon": 13.0496549, "tags": {"name": "Beljom", "place": "hamlet"}}, {"type": "node", "id": 5914644117, "lat": 63.6482976, "lon": 13.065834, "tags": {"name": "B\u00f6le", "place": "hamlet"}}, {"type": "node", "id": 5914644118, "lat": 63.636151, "lon": 13.0997586, "tags": {"name": "Sl\u00e4tte", "place": "hamlet"}}, {"type": "node", "id": 5914644119, "lat": 63.5920943, "lon": 13.0789447, "tags": {"name": "Kon\u00e4s", "place": "hamlet"}}, {"type": "node", "id": 5914644149, "lat": 63.6178596, "lon": 13.1770706, "tags": {"name": "Sulviken", "place": "hamlet"}}, {"type": "node", "id": 5914644257, "lat": 63.6705289, "lon": 12.8564501, "tags": {"name": "Sundet", "place": "hamlet"}}, {"type": "node", "id": 5914644428, "lat": 63.681852, "lon": 12.8090715, "tags": {"name": "Anjehem", "place": "hamlet"}}, {"type": "node", "id": 6345888163, "lat": 63.7772955, "lon": 13.0724966, "tags": {"name": "\u00d6ver\u00e4ng", "place": "hamlet"}}]}