{"version": 0.6, "generator": "Overpass API 0.7.61.5 4133829e", "osm3s": {"timestamp_osm_base": "2024-03-06T10:46:01Z", "copyright": "The data included in this document is from www.openstreetmap.org. The data is made available under ODbL."}, "elements": [{"type": "node", "id": 4414854207, "lat": 35.5184876, "lon": 43.2329622, "tags": {"amenity": "school", "name": "\u062b\u0627\u0646\u0648\u064a\u0629 \u0627\u0644\u0634\u0631\u0642\u0627\u0637"}}, {"type": "node", "id": 4742121294, "lat": 35.260028, "lon": 43.4066859, "tags": {"addr:city": "\u0627\u0644\u0632\u0648\u064a\u0629", "addr:postcode": "\u0627\u0644\u0632\u0648\u064a\u0629", "amenity": "school", "name": "\u0645\u062f\u0631\u0633\u0629 \u0627\u0628\u064a \u0630\u0631 \u0627\u0644\u063a\u0641\u0627\u0631\u064a"}}, {"type": "node", "id": 5428140222, "lat": 35.2602046, "lon": 43.4051682, "tags": {"amenity": "school", "name": "\u0627\u0644\u0645\u062f\u0627\u0631\u0633", "name:en": "school", "phone": "07737142707"}}, {"type": "node", "id": 6678466485, "lat": 35.3447451, "lon": 43.374177, "tags": {"amenity": "school", "name": "\u0642\u0631\u064a\u0629 \u0627\u0644\u0636\u0627\u0645\u0646", "name:en": "Qaryat Al Dhamin"}}, {"type": "node", "id": 6784861487, "lat": 35.5400611, "lon": 43.2257022, "tags": {"addr:street": "\u0627\u0644\u0634\u0627\u0631\u0639 \u0627\u0644\u0639\u0627\u0645", "amenity": "school", "name": "\u0645\u062f\u0631\u0633\u0629 \u0628\u0639\u0627\u062c\u0647 \u0627\u0644\u0627\u0628\u062a\u062f\u0627\u0626\u064a\u0629"}}, {"type": "node", "id": 10000688499, "lat": 35.6159889, "lon": 43.2515394, "tags": {"addr:city": "\u0642\u0631\u064a\u0629 \u0627\u0644\u062e\u0636\u0631\u0627\u0646\u064a\u0629", "addr:street": "\u0634\u0627\u0631\u0639 \u062d\u0627\u0631\u0629 \u0627\u0644\u0639\u062c\u0627\u0646", "amenity": "school", "grades": "1-6", "name": "\u0623\u0628\u062a\u062f\u0627\u0626\u064a\u0629 \u0627\u0645 \u0627\u0644\u062e\u064a\u0631 \u0627\u0644\u0645\u062e\u062a\u0644\u0637\u0647", "operator": "\u062a\u0639\u0644\u064a\u0645", "religion": "muslim"}}, {"type": "node", "id": 11414637470, "lat": 35.4439063, "lon": 43.2919682, "tags": {"addr:street": "\u0627\u0633\u062f\u064a\u0631\u0647 \u0648\u0633\u0637\u0649", "amenity": "school", "name": "\u0645\u062f\u0631\u0633\u0629 \u0627\u0644\u0631\u064a\u0641 \u0627\u0644\u0645\u0633\u0627\u0626\u064a\u0629"}}, {"type": "node", "id": 11681110770, "lat": 35.5406229, "lon": 43.2674554, "tags": {"addr:housenumber": "3963", "addr:postcode": "0538", "amenity": "school", "email": "noweb@noreply.openstreetmap.org", "name": "\u0645\u062f\u0631\u0633\u0629 \u062d\u0636\u0631\u0645\u0648\u062a", "name:en": "Hadhramaut School", "opening_hours": "24/7", "phone": "0780000000", "website": "http://web@noreply.openstreetmap.org"}}]}