{"version": 0.6, "generator": "Overpass API 0.7.61.5 4133829e", "osm3s": {"timestamp_osm_base": "2024-03-05T15:10:00Z", "copyright": "The data included in this document is from www.openstreetmap.org. The data is made available under ODbL."}, "elements": [{"type": "node", "id": 78445187, "lat": 63.2326285, "lon": 21.4141482, "tags": {"name": "Replot", "name:fi": "Raippaluoto", "name:sv": "Replot", "place": "town", "population": "835", "wikidata": "Q108395429"}}, {"type": "node", "id": 277202310, "lat": 62.9684138, "lon": 21.1901146, "tags": {"name": "Berg\u00f6", "name:ru": "\u0411\u0435\u0440\u0433\u0451", "name:sv": "Berg\u00f6", "place": "village"}}, {"type": "node", "id": 1667958110, "lat": 63.196665, "lon": 21.3053028, "tags": {"name": "Norra Vallgrund", "place": "village", "population": "380"}}, {"type": "node", "id": 1667958112, "lat": 63.1786072, "lon": 21.281688, "tags": {"name": "S\u00f6dra Vallgrund", "place": "village", "population": "360"}}, {"type": "node", "id": 2296414036, "lat": 63.2576614, "lon": 21.1873081, "tags": {"name": "Br\u00e4nd\u00f6vik", "place": "hamlet"}}, {"type": "node", "id": 2296414037, "lat": 63.2359467, "lon": 21.1907413, "tags": {"name": "Karls\u00f6", "place": "hamlet"}}, {"type": "node", "id": 2298329355, "lat": 63.3118838, "lon": 21.1606749, "tags": {"name": "Panike", "place": "hamlet"}}, {"type": "node", "id": 2324426759, "lat": 63.2832195, "lon": 21.1242187, "tags": {"name": "S\u00f6derudden", "place": "hamlet"}}, {"type": "node", "id": 2326200716, "lat": 63.2713475, "lon": 21.2202667, "tags": {"name": "Vistan", "place": "hamlet"}}, {"type": "node", "id": 4663628492, "lat": 63.305829, "lon": 21.0920925, "tags": {"name": "Klobbskat", "place": "hamlet"}}, {"type": "node", "id": 4663685513, "lat": 63.1669836, "lon": 21.2583538, "tags": {"name": "Sommar\u00f6 sund", "place": "hamlet"}}, {"type": "node", "id": 8881019738, "lat": 62.9720616, "lon": 21.1612183, "tags": {"name": "Bredh\u00e4llan", "place": "village"}}]}