{"version": 0.6, "generator": "Overpass API 0.7.61.5 4133829e", "osm3s": {"timestamp_osm_base": "2024-03-05T13:52:05Z", "copyright": "The data included in this document is from www.openstreetmap.org. The data is made available under ODbL."}, "elements": [{"type": "node", "id": 315040898, "lat": 33.6459652, "lon": 62.2685579, "tags": {"alt_name": "Gala Adraskan;Qala Adraskan;Kala Adraskan;Adreskan;Qal`eh Adraskand;Adraskand;Gala;Adriskan;Adraskan", "ele": "1343", "is_in:country": "Afghanistan", "is_in:state": "Herat Province", "name": "\u0627\u062f\u0631\u0633\u06a9\u0646", "name:en": "Adraskan", "name:ru": "\u0410\u0434\u0440\u0430\u0441\u043a\u0430\u043d", "place": "town", "wikidata": "Q4684698", "wikipedia": "en:Adraskan"}}, {"type": "node", "id": 4382432311, "lat": 33.6241744, "lon": 62.2497058, "tags": {"alt_name": "Takht-e Adraskan", "name": "\u062a\u062d\u062a \u0627\u062f\u0631\u0633\u06a9\u0646", "name:en": "Taht-e Adraskan", "name:ps": "\u062a\u062d\u062a \u0627\u062f\u0631\u0633\u06a9\u0646", "name:ru": "Takhti-Adraskan", "place": "village", "source:name": "GNS"}}, {"type": "node", "id": 6721755395, "lat": 33.9795003, "lon": 62.1446028, "tags": {"place": "hamlet"}}, {"type": "node", "id": 6721755408, "lat": 33.9758439, "lon": 62.1535944, "tags": {"place": "hamlet"}}, {"type": "node", "id": 6721755419, "lat": 34.0091278, "lon": 62.1257361, "tags": {"place": "hamlet"}}]}