{"version": 0.6, "generator": "Overpass API 0.7.61.5 4133829e", "osm3s": {"timestamp_osm_base": "2024-03-05T15:07:00Z", "copyright": "The data included in this document is from www.openstreetmap.org. The data is made available under ODbL."}, "elements": [{"type": "node", "id": 30061450, "lat": 64.5027893, "lon": 14.1461393, "tags": {"name": "G\u00e4ddede", "name:sma": "Tjeedtege", "name:sv": "G\u00e4ddede", "place": "village", "population": "301", "ref:se:pts:postort": "G\u00c4DDEDE", "ref:se:scb": "7840", "wikipedia": "sv:G\u00e4ddede"}}, {"type": "node", "id": 30061451, "lat": 64.7219366, "lon": 14.0412242, "tags": {"name": "Jormvattnet", "place": "hamlet", "source": "survey, roadsign"}}, {"type": "node", "id": 30061452, "lat": 64.7297601, "lon": 13.9728258, "tags": {"name": "Jormlien", "place": "hamlet"}}, {"type": "node", "id": 288086672, "lat": 64.6751842, "lon": 14.082564, "tags": {"name": "Bl\u00e5sj\u00f6fallet", "place": "hamlet", "source": "survey, roadsign"}}, {"type": "node", "id": 288086673, "lat": 64.6510895, "lon": 14.1371926, "tags": {"name": "Rolandstorp", "place": "hamlet", "source": "survey, roadsign"}}, {"type": "node", "id": 288086674, "lat": 64.5430144, "lon": 14.1397104, "tags": {"name": "Junstern\u00e4s", "place": "hamlet", "source": "survey, roadsign"}}, {"type": "node", "id": 288089644, "lat": 64.433935, "lon": 14.3110454, "tags": {"name": "Sp\u00e4nnviken", "place": "hamlet", "source": "survey, roadsign"}}, {"type": "node", "id": 2427541795, "lat": 64.646071, "lon": 13.7478842, "tags": {"name": "Br\u00e4nna", "place": "hamlet"}}, {"type": "node", "id": 2427541819, "lat": 64.5550643, "lon": 14.1269125, "tags": {"name": "Junsterforsen", "place": "hamlet"}}, {"type": "node", "id": 2427542105, "lat": 64.6446743, "lon": 13.8551726, "tags": {"name": "Viken", "place": "hamlet"}}, {"type": "node", "id": 2505520316, "lat": 64.4860394, "lon": 14.1360832, "tags": {"name": "Framn\u00e4s", "place": "hamlet"}}, {"type": "node", "id": 2800387168, "lat": 64.6234265, "lon": 13.9092229, "tags": {"name": "Sandn\u00e4set", "place": "hamlet"}}, {"type": "node", "id": 2800387860, "lat": 64.6148176, "lon": 13.9315303, "tags": {"name": "Kyrkbolandet", "place": "hamlet"}}, {"type": "node", "id": 2800388963, "lat": 64.7067249, "lon": 13.9265607, "tags": {"name": "L\u00e5ngviken", "place": "hamlet"}}, {"type": "node", "id": 2800389695, "lat": 64.5697423, "lon": 14.0254377, "tags": {"name": "Lermon", "place": "hamlet"}}, {"type": "node", "id": 3448513200, "lat": 64.5097049, "lon": 13.8177959, "tags": {"name": "Kvemoen", "place": "hamlet", "ssr:stedsnr": "378212"}}, {"type": "node", "id": 3448524189, "lat": 64.5102647, "lon": 13.750767, "tags": {"name": "Kvetangen", "place": "hamlet", "ssr:stedsnr": "560218"}}, {"type": "node", "id": 3893614883, "lat": 64.3910976, "lon": 14.3780247, "tags": {"name": "H\u00e5kafot", "place": "hamlet"}}, {"type": "node", "id": 3893614923, "lat": 64.389223, "lon": 14.5286175, "tags": {"name": "V\u00e4stra F\u00e5gelberget", "place": "hamlet"}}, {"type": "node", "id": 3893614924, "lat": 64.3796974, "lon": 14.5977702, "tags": {"name": "\u00d6stra F\u00e5gelberget", "place": "hamlet"}}, {"type": "node", "id": 8995769589, "lat": 64.7355608, "lon": 14.0208292, "tags": {"name": "Jorm", "place": "hamlet", "source": "sign at road"}}, {"type": "node", "id": 9819665576, "lat": 64.7061978, "lon": 13.7417543, "tags": {"name": "Limingen", "place": "hamlet", "ssr:stedsnr": "257274"}}, {"type": "node", "id": 9819665747, "lat": 64.4851111, "lon": 14.0266527, "tags": {"name": "Murumoen", "place": "hamlet", "ssr:stedsnr": "499020"}}]}