{"version": 0.6, "generator": "Overpass API 0.7.61.5 4133829e", "osm3s": {"timestamp_osm_base": "2024-03-05T11:05:12Z", "copyright": "The data included in this document is from www.openstreetmap.org. The data is made available under ODbL."}, "elements": [{"type": "node", "id": 1827855090, "lat": 8.360246, "lon": -1.5666757, "tags": {"name": "Dawadawa Number 2", "place": "village"}}, {"type": "node", "id": 1894011417, "lat": 8.4492893, "lon": -1.5644673, "tags": {"name": "Dawadawa", "place": "village"}}, {"type": "node", "id": 1894011646, "lat": 8.5149659, "lon": -1.5718809, "tags": {"name": "Gulumpe", "place": "village"}}, {"type": "node", "id": 2117377173, "lat": 8.2828846, "lon": -1.598021, "tags": {"place": "village"}}, {"type": "node", "id": 2205010172, "lat": 8.0905262, "lon": -1.5315648, "tags": {"place": "hamlet"}}, {"type": "node", "id": 2205010195, "lat": 8.097061, "lon": -1.5975361, "tags": {"name": "Nyamebekyere No. 2", "place": "village"}}, {"type": "node", "id": 2205010255, "lat": 8.1170806, "lon": -1.5568984, "tags": {"place": "hamlet"}}, {"type": "node", "id": 2205010272, "lat": 8.1229291, "lon": -1.4599212, "tags": {"name": "Kunso", "place": "village"}}, {"type": "node", "id": 2205010288, "lat": 8.1259673, "lon": -1.4435497, "tags": {"place": "hamlet"}}, {"type": "node", "id": 2205010314, "lat": 8.147033, "lon": -1.50797, "tags": {"name": "Adomano", "place": "village"}}, {"type": "node", "id": 2206714860, "lat": 8.442834, "lon": -1.5912202, "tags": {"place": "hamlet"}}]}