{"version": 0.6, "generator": "Overpass API 0.7.61.5 4133829e", "osm3s": {"timestamp_osm_base": "2024-03-05T13:47:00Z", "copyright": "The data included in this document is from www.openstreetmap.org. The data is made available under ODbL."}, "elements": [{"type": "node", "id": 4008750995, "lat": 35.9959654, "lon": 71.5667642, "tags": {"name": "Chirvil", "place": "hamlet"}}, {"type": "node", "id": 4008768539, "lat": 35.9998609, "lon": 71.5637858, "tags": {"name": "Newest", "place": "village"}}, {"type": "node", "id": 4008775464, "lat": 36.0041413, "lon": 71.5575348, "tags": {"name": "Hazai Lotkoh", "place": "hamlet"}}, {"type": "node", "id": 4008777108, "lat": 35.996261, "lon": 71.541021, "tags": {"name": "Postaki", "place": "hamlet"}}, {"type": "node", "id": 4008934447, "lat": 35.9768885, "lon": 71.5584613, "tags": {"name": "Bahmi", "place": "hamlet"}}, {"type": "node", "id": 4008934448, "lat": 35.9349407, "lon": 71.527345, "tags": {"name": "Beguesht", "place": "village"}}, {"type": "node", "id": 4008934450, "lat": 35.987061, "lon": 71.5444371, "tags": {"name": "Burbuno", "place": "hamlet"}}, {"type": "node", "id": 4008934451, "lat": 35.9162869, "lon": 71.5166401, "tags": {"name": "Darband Garamchashma", "place": "village"}}, {"type": "node", "id": 4008934452, "lat": 36.0189796, "lon": 71.4172606, "tags": {"name": "Darband", "place": "hamlet"}}, {"type": "node", "id": 4008934453, "lat": 36.0326202, "lon": 71.4031937, "tags": {"name": "Erjaik", "place": "hamlet"}}, {"type": "node", "id": 4008934454, "lat": 35.9852895, "lon": 71.5569894, "tags": {"name": "Garamchashma", "place": "village"}}, {"type": "node", "id": 4008934455, "lat": 36.0729583, "lon": 71.3662048, "tags": {"name": "Gobor Bakht", "place": "village"}}, {"type": "node", "id": 4008934456, "lat": 36.0064683, "lon": 71.4529648, "tags": {"name": "Gohik", "place": "hamlet"}}, {"type": "node", "id": 4008934457, "lat": 35.9913523, "lon": 71.4704032, "tags": {"name": "Gufti", "place": "hamlet"}}, {"type": "node", "id": 4008934459, "lat": 35.9862678, "lon": 71.498608, "tags": {"name": "Khugick Lotkoh", "place": "hamlet"}}, {"type": "node", "id": 4008934460, "lat": 35.9550129, "lon": 71.5591957, "tags": {"name": "Munoor", "place": "village"}}, {"type": "node", "id": 4008934461, "lat": 36.008507, "lon": 71.4302077, "tags": {"name": "Mushen", "place": "hamlet"}}, {"type": "node", "id": 4008934462, "lat": 35.9787767, "lon": 71.5642714, "tags": {"name": "Narkorate Lotkoh Chitral", "place": "hamlet"}}, {"type": "node", "id": 4008934463, "lat": 36.052153, "lon": 71.3907268, "tags": {"name": "Noghore/ Merdin", "place": "hamlet"}}, {"type": "node", "id": 4008934464, "lat": 35.9645767, "lon": 71.5585924, "tags": {"name": "Ochilasht", "place": "village"}}, {"type": "node", "id": 4008934466, "lat": 35.9716796, "lon": 71.5613069, "tags": {"name": "Owirk", "place": "village"}}, {"type": "node", "id": 4008934467, "lat": 35.9931659, "lon": 71.4890967, "tags": {"name": "Parabeg", "place": "village"}}, {"type": "node", "id": 4008934468, "lat": 35.9900412, "lon": 71.5058992, "tags": {"name": "Royee", "place": "hamlet"}}, {"type": "node", "id": 4008934470, "lat": 35.9867626, "lon": 71.5709785, "tags": {"name": "Shakherantek", "place": "hamlet"}}, {"type": "node", "id": 4008934471, "lat": 36.0287844, "lon": 71.4150741, "tags": {"name": "Sipokht", "place": "hamlet"}}, {"type": "node", "id": 4008934472, "lat": 35.9599486, "lon": 71.5449677, "tags": {"name": "Thunik", "place": "village"}}, {"type": "node", "id": 4008934473, "lat": 35.9824571, "lon": 71.5199424, "tags": {"name": "Wakht", "place": "village"}}, {"type": "node", "id": 4008934475, "lat": 35.9873083, "lon": 71.5323143, "tags": {"name": "Zhiture", "place": "hamlet"}}, {"type": "node", "id": 4008943490, "lat": 36.0909677, "lon": 71.3814044, "tags": {"name": "Densik", "place": "hamlet"}}, {"type": "node", "id": 4008953805, "lat": 36.0764239, "lon": 71.3524604, "tags": {"name": "Degheli", "place": "hamlet"}}, {"type": "node", "id": 4008970123, "lat": 36.0883233, "lon": 71.3260208, "tags": {"name": "Shahsaleem", "place": "hamlet"}}, {"type": "node", "id": 4125579789, "lat": 36.3028972, "lon": 71.1860289, "tags": {"name": "Sanglizh", "name:ru": "\u0421\u0430\u043d\u0433\u043b\u0435\u0447", "place": "village"}}, {"type": "node", "id": 7287467929, "lat": 36.0074526, "lon": 71.4405488, "tags": {"name": "Ushiyak", "place": "village", "population": "80"}}]}