{"version": 0.6, "generator": "Overpass API 0.7.61.5 4133829e", "osm3s": {"timestamp_osm_base": "2024-03-05T18:54:43Z", "copyright": "The data included in this document is from www.openstreetmap.org. The data is made available under ODbL."}, "elements": [{"type": "node", "id": 459478206, "lat": 57.8618272, "lon": 16.7248575, "tags": {"amenity": "ferry_terminal", "ferry": "yes", "name": "R\u00e5g\u00f6", "public_transport": "station", "website": "https://www.vastervik.com/skargardstrafiken/"}}, {"type": "node", "id": 459480720, "lat": 57.8916398, "lon": 16.7179326, "tags": {"amenity": "ferry_terminal", "ferry": "yes", "name": "K\u00e4llvik", "public_transport": "station", "website": "https://www.vastervik.com/skargardstrafiken/"}}, {"type": "node", "id": 459480724, "lat": 57.9008958, "lon": 16.6923329, "tags": {"amenity": "ferry_terminal", "ferry": "yes", "name": "Loftahammar", "public_transport": "station", "website": "https://www.vastervik.com/skargardstrafiken/"}}, {"type": "node", "id": 459480827, "lat": 57.8311616, "lon": 16.7320754, "tags": {"amenity": "ferry_terminal", "ferry": "yes", "name": "Hassel\u00f6", "public_transport": "station", "website": "https://www.vastervik.com/skargardstrafiken/"}}, {"type": "node", "id": 7781374074, "lat": 57.8967859, "lon": 16.4100649, "tags": {"name": "Gamleby", "public_transport": "station", "railway": "station", "railway:ref": "Gal", "wikidata": "Q115983217"}}]}