{"version": 0.6, "generator": "Overpass API 0.7.61.5 4133829e", "osm3s": {"timestamp_osm_base": "2024-03-06T10:48:03Z", "copyright": "The data included in this document is from www.openstreetmap.org. The data is made available under ODbL."}, "elements": [{"type": "node", "id": 2489330474, "lat": 33.9818658, "lon": 44.9526062, "tags": {"alt_name": "\u062b\u0627\u0646\u0648\u064a\u0629 \u0627\u0644\u0643\u0646\u062f\u064a", "amenity": "university", "int_name": "Th\u0101naw\u012byat al Kanad\u012b, \u062b\u0627\u0646\u0648\u064a\u0629 \u0627\u0644\u0643\u0646\u062f\u064a, Thanawiyat al Kanadi, \u062b\u0627\u0646\u0648\u064a\u0629 \u0627\u0644\u0643\u0646\u062f\u064a", "is_in": "Iraq , \u062c\u0645\u0647\u0648\u0631\u064a\u0629 \u0627\u0644\u0639\u0631\u0627\u0642", "name": "\u062b\u0627\u0646\u0648\u064a\u0629 \u0627\u0644\u0643\u0646\u062f\u064a", "name:ar": "\u062b\u0627\u0646\u0648\u064a\u0629 \u0627\u0644\u0643\u0646\u062f\u064a", "name:ar1": "\u062b\u0627\u0646\u0648\u064a\u0629 \u0627\u0644\u0643\u0646\u062f\u064a", "name:de": "Thanawiyat al Kanadi", "name:en": "Thanawiyat al Kanadi", "name:fr": "Thanawiyat al Kanadi"}}, {"type": "node", "id": 2489330475, "lat": 34.0956136, "lon": 45.0553052, "tags": {"alt_name": "\u062b\u0627\u0646\u0648\u064a\u0629 \u0627\u0644\u0642\u0627\u0626\u062f", "amenity": "university", "int_name": "Th\u0101naw\u012byat al Q\u0101id, \u062b\u0627\u0646\u0648\u064a\u0629 \u0627\u0644\u0642\u0627\u0626\u062f, Thanawiyat al Qaid, \u062b\u0627\u0646\u0648\u064a\u0629 \u0627\u0644\u0642\u0627\u0626\u062f", "is_in": "Iraq , \u062c\u0645\u0647\u0648\u0631\u064a\u0629 \u0627\u0644\u0639\u0631\u0627\u0642", "name": "\u062b\u0627\u0646\u0648\u064a\u0629 \u0627\u0644\u0642\u0627\u0626\u062f", "name:ar": "\u062b\u0627\u0646\u0648\u064a\u0629 \u0627\u0644\u0642\u0627\u0626\u062f", "name:ar1": "\u062b\u0627\u0646\u0648\u064a\u0629 \u0627\u0644\u0642\u0627\u0626\u062f", "name:de": "Thanawiyat al Qaid", "name:en": "Thanawiyat al Qaid", "name:fr": "Thanawiyat al Qaid"}}, {"type": "node", "id": 2489330489, "lat": 34.119122, "lon": 45.025588, "tags": {"alt_name": "\u0642\u0631\u064a\u0629 \u062d\u0645\u0631\u064a\u0646", "amenity": "university", "int_name": "\u0642\u0631\u064a\u0629 \u062d\u0645\u0631\u064a\u0646, \u0642\u0631\u064a\u0629 \u062d\u0645\u0631\u064a\u0646", "is_in": "Iraq , \u062c\u0645\u0647\u0648\u0631\u064a\u0629 \u0627\u0644\u0639\u0631\u0627\u0642", "name": "\u0642\u0631\u064a\u0629 \u062d\u0645\u0631\u064a\u0646", "name:ar": "\u0642\u0631\u064a\u0629 \u062d\u0645\u0631\u064a\u0646", "name:ar1": "\u0642\u0631\u064a\u0629 \u062d\u0645\u0631\u064a\u0646", "name:de": "\u0642\u0631\u064a\u0629 \u062d\u0645\u0631\u064a\u0646", "name:en": "\u0642\u0631\u064a\u0629 \u062d\u0645\u0631\u064a\u0646", "name:fr": "\u0642\u0631\u064a\u0629 \u062d\u0645\u0631\u064a\u0646"}}, {"type": "node", "id": 3930384224, "lat": 33.9727305, "lon": 44.9068406}, {"type": "node", "id": 3930384225, "lat": 33.9726731, "lon": 44.9064851}, {"type": "node", "id": 3930384226, "lat": 33.971969, "lon": 44.9019635}, {"type": "node", "id": 3930384227, "lat": 33.971879, "lon": 44.9018648}, {"type": "node", "id": 3930384228, "lat": 33.9696028, "lon": 44.90224}, {"type": "node", "id": 3930384229, "lat": 33.9665389, "lon": 44.9021843}, {"type": "node", "id": 3930384231, "lat": 33.96739, "lon": 44.9079999}, {"type": "node", "id": 3930384232, "lat": 33.9726486, "lon": 44.9069097}, {"type": "node", "id": 5195939421, "lat": 33.9697066, "lon": 44.9015161, "tags": {"addr:street": "\u0634\u0627\u0631\u0639 \u0627\u0644\u0642\u062f\u064a\u0645", "amenity": "college", "name": "\u0643\u0644\u064a\u0629 \u0627\u0644\u062a\u0631\u0628\u064a\u0629 \u0627\u0644\u0645\u0642\u062f\u0627\u062f"}}, {"type": "way", "id": 389877804, "nodes": [3930384224, 3930384225, 3930384226, 3930384227, 3930384228, 3930384229, 3930384231, 3930384232, 3930384224], "tags": {"addr:city": "\u0627\u0644\u0645\u0642\u062f\u0627\u062f\u064a\u0629", "amenity": "college", "name": "\u0643\u0644\u064a\u0629 \u0632\u0631\u0627\u0639\u0629", "operator": "\u0643\u0644\u064a\u0629 \u0632\u0631\u0627\u0639\u0629", "operator:type": "public"}}]}