{"version": 0.6, "generator": "Overpass API 0.7.61.5 4133829e", "osm3s": {"timestamp_osm_base": "2024-03-05T13:39:48Z", "copyright": "The data included in this document is from www.openstreetmap.org. The data is made available under ODbL."}, "elements": [{"type": "node", "id": 312969042, "lat": 36.9026129, "lon": 66.1821082, "tags": {"alt_name": "Akcha;Aqcah;Akcheh;Aqca;Aqchah;Akcha;Ag Chah;Aqcheh;Aqcha", "ele": "283", "is_in:country": "Afghanistan", "is_in:country_code": "AF", "is_in:state": "Aqchah Province", "name": "\u0622\u0642\u0686\u0647", "name:en": "Aqcha", "name:et": "\u0100qchah", "name:ja": "\u30a2\u30af\u30c1\u30e3", "name:ps": "\u0622\u0642\u0686\u0647", "name:ru": "\u0410\u043a\u0447\u0430", "place": "town", "population": "8000", "source": "wikipedia", "source:name": "GNS", "wikidata": "Q2246526", "wikipedia": "es:Aqchah"}}, {"type": "node", "id": 4391839113, "lat": 36.777178, "lon": 66.688509, "tags": {"alt_name": "\u0414\u0430\u0440\u0430\u0433\u0430\u043d", "name": "\u062f\u0631\u06af\u0646", "name:en": "Daragan", "name:ps": "\u062f\u0631\u06af\u0646", "place": "village", "source:name": "GNS"}}, {"type": "node", "id": 4391839118, "lat": 36.773181, "lon": 66.693834, "tags": {"alt_name": "Sabzikar;\u0633\u0628\u0632\u06cc \u0643\u0631", "name": "\u0633\u0628\u0632\u06cc \u06a9\u0627\u0631", "name:en": "Sabzi Kar", "name:ps": "\u0633\u0628\u0632\u06cc \u06a9\u0627\u0631", "name:ru": "\u0421\u0430\u0431\u0437\u0438\u043a\u0430\u0440", "place": "village", "source:name": "GNS"}}, {"type": "node", "id": 4393811295, "lat": 36.862785, "lon": 66.166557, "tags": {"alt_name": "\u062e\u0627\u0646\u0642\u0647;Khananqa;Khanaka;Khanaqah;Khanaqa", "name": "\u062e\u0627\u0646\u0642\u0627\u0647", "name:en": "Khaneqah", "name:ps": "\u062e\u0627\u0646\u0642\u0627\u0647", "name:ru": "\u0425\u0430\u043d\u0430\u043a\u0430", "place": "town", "source:name": "GNS"}}, {"type": "node", "id": 4393811296, "lat": 36.864669, "lon": 66.19718, "tags": {"alt_name": "Qareh Boien;Qara Boien", "name": "\u0642\u0631\u0647 \u0628\u06cc\u0646", "name:en": "Qarah Buyin", "name:ps": "\u0642\u0631\u0647 \u0628\u06cc\u0646", "place": "village", "source:name": "GNS"}}, {"type": "node", "id": 4393817980, "lat": 36.82091, "lon": 66.459213, "tags": {"alt_name": "Faizabad;Faydzabad;Fazilabad", "name": "\u0641\u06cc\u0636 \u0622\u0628\u0627\u062f", "name:en": "Feyzabad", "name:ps": "\u0641\u06cc\u0636 \u0622\u0628\u0627\u062f", "place": "town", "source:name": "GNS"}}, {"type": "node", "id": 4393826789, "lat": 36.841917, "lon": 66.449501, "tags": {"alt_name": "Fazelabad", "name": "\u0641\u0636\u0644 \u0622\u0628\u0627\u062f", "name:en": "Fazilabad", "name:ps": "\u0641\u0636\u0644 \u0622\u0628\u0627\u062f", "place": "village", "source:name": "GNS"}}, {"type": "node", "id": 4393826790, "lat": 36.808956, "lon": 66.496, "tags": {"alt_name": "Heydarabad", "name": "\u062d\u06cc\u062f\u0631 \u0622\u0628\u0627\u062f", "name:en": "Haidarabad", "name:ps": "\u062d\u06cc\u062f\u0631 \u0622\u0628\u0627\u062f", "place": "village", "source:name": "GNS"}}, {"type": "node", "id": 4393826791, "lat": 36.84909, "lon": 66.471167, "tags": {"name": "\u06cc\u0646\u062f\u0631\u06a9", "name:en": "Yandarak", "name:ps": "\u06cc\u0646\u062f\u0631\u06a9", "place": "village", "source:name": "GNS"}}, {"type": "node", "id": 4393844628, "lat": 36.992524, "lon": 66.296541, "tags": {"alt_name": "Mordian;Murdian;Mardian", "name": "\u0645\u0631\u062f\u06cc\u0627\u0646", "name:en": "Mardyan", "name:ps": "\u0645\u0631\u062f\u06cc\u0627\u0646", "name:ru": "\u041c\u0430\u0440\u0434\u044c\u044f\u043d", "place": "town", "source:name": "GNS", "wikidata": "Q6758713", "wikipedia": "en:Mardyan"}}]}