{"version": 0.6, "generator": "Overpass API 0.7.61.5 4133829e", "osm3s": {"timestamp_osm_base": "2024-03-05T11:04:15Z", "copyright": "The data included in this document is from www.openstreetmap.org. The data is made available under ODbL."}, "elements": [{"type": "node", "id": 330232214, "lat": 6.9645329, "lon": -1.6794021, "tags": {"name": "Namong", "place": "village"}}, {"type": "node", "id": 330232218, "lat": 6.9502768, "lon": -1.6716345, "tags": {"name": "Adukro", "place": "village"}}, {"type": "node", "id": 330232269, "lat": 6.8478866, "lon": -1.6491617, "tags": {"name": "Akom", "place": "village"}}, {"type": "node", "id": 330232323, "lat": 6.7947443, "lon": -1.6459123, "tags": {"name": "Nkukua Buoho", "place": "village"}}, {"type": "node", "id": 434473576, "lat": 7.0012279, "lon": -1.9533591, "tags": {"name": "Pokukrom", "place": "town"}}, {"type": "node", "id": 434473578, "lat": 7.0129322, "lon": -1.9935587, "tags": {"name": "Nyamebekyere", "place": "town"}}, {"type": "node", "id": 434473588, "lat": 6.9661281, "lon": -1.9277816, "tags": {"alt_name": "Fawoman", "name": "Fawumang", "place": "town"}}, {"type": "node", "id": 434473593, "lat": 6.8284295, "lon": -1.8888145, "tags": {"name": "Kunso", "place": "town"}}, {"type": "node", "id": 434473643, "lat": 6.8793954, "lon": -1.9533024, "tags": {"name": "Barniekrom", "place": "town"}}, {"type": "node", "id": 434474858, "lat": 7.0870922, "lon": -1.8858962, "tags": {"name": "Sabronum", "place": "village"}}, {"type": "node", "id": 434477406, "lat": 6.9288141, "lon": -1.6837257, "tags": {"name": "Mpehi", "place": "village"}}, {"type": "node", "id": 443431322, "lat": 6.9717021, "lon": -1.6184383, "tags": {"name": "Soko", "place": "village"}}, {"type": "node", "id": 443431339, "lat": 6.9419641, "lon": -1.6178261, "tags": {"capital": "6", "name": "Boamang", "place": "village", "wikidata": "Q107719336"}}, {"type": "node", "id": 443431444, "lat": 6.8870603, "lon": -1.6180609, "tags": {"name": "Kwamang", "place": "village"}}, {"type": "node", "id": 443431445, "lat": 7.0375196, "lon": -1.6338538, "tags": {"name": "Tetrem", "place": "village"}}, {"type": "node", "id": 443431498, "lat": 7.1422841, "lon": -1.6396903, "tags": {"name": "Kyekyewere", "place": "village"}}, {"type": "node", "id": 443431586, "lat": 7.1775907, "lon": -1.6778171, "tags": {"name": "Kwapanin", "place": "village"}}, {"type": "node", "id": 443431587, "lat": 7.1349599, "lon": -1.7318724, "tags": {"name": "Abofour", "place": "village"}}, {"type": "node", "id": 443431588, "lat": 7.1048101, "lon": -1.7730711, "tags": {"name": "Kyebi", "place": "village"}}, {"type": "node", "id": 890386699, "lat": 6.8745359, "lon": -1.6405664, "tags": {"name": "Ahenkro", "place": "village"}}, {"type": "node", "id": 890386980, "lat": 7.022791, "lon": -1.7096132, "tags": {"name": "Aduana", "place": "village"}}, {"type": "node", "id": 890387071, "lat": 6.8255096, "lon": -1.6473015, "tags": {"capital": "6", "name": "Kodie", "place": "village", "wikidata": "Q6425312"}}, {"type": "node", "id": 1797113387, "lat": 7.0736872, "lon": -1.7138433, "tags": {"name": "Aburokyire", "place": "village"}}, {"type": "node", "id": 1797113714, "lat": 7.0528634, "lon": -1.711898, "tags": {"name": "Samproso", "place": "village"}}, {"type": "node", "id": 2173963380, "lat": 6.754417, "lon": -1.7688243, "tags": {"place": "village"}}, {"type": "node", "id": 2173963384, "lat": 6.7665654, "lon": -1.7928035, "tags": {"place": "village"}}, {"type": "node", "id": 2173963385, "lat": 6.7668075, "lon": -1.7804888, "tags": {"name": "Mfensi", "place": "village"}}, {"type": "node", "id": 2174993093, "lat": 6.7578848, "lon": -1.9460981, "tags": {"name": "Bonkwaso No.1", "place": "village"}}, {"type": "node", "id": 2174993125, "lat": 6.7636274, "lon": -1.9701676, "tags": {"name": "Asekantia", "place": "village"}}, {"type": "node", "id": 2174993149, "lat": 6.7687263, "lon": -1.8920124, "tags": {"place": "village"}}, {"type": "node", "id": 2174993208, "lat": 6.7831823, "lon": -1.9080007, "tags": {"place": "village"}}, {"type": "node", "id": 2174993214, "lat": 6.7841062, "lon": -1.9488408, "tags": {"place": "hamlet"}}, {"type": "node", "id": 2174993252, "lat": 6.7903987, "lon": -1.9434261, "tags": {"name": "Nkyensedaho", "place": "village"}}, {"type": "node", "id": 2174993300, "lat": 6.7973497, "lon": -2.0120066, "tags": {"name": "Dotiem", "place": "village"}}, {"type": "node", "id": 2174993372, "lat": 6.8035688, "lon": -1.9876705, "tags": {"name": "Mposo", "place": "village"}}, {"type": "node", "id": 2174993470, "lat": 6.8099488, "lon": -1.9248403, "tags": {"name": "Boatenkurom", "place": "village"}}, {"type": "node", "id": 2174993495, "lat": 6.8108684, "lon": -1.920483, "tags": {"place": "hamlet"}}, {"type": "node", "id": 2174993627, "lat": 6.8263807, "lon": -1.9628655, "tags": {"name": "Kunsu Camp", "place": "village"}}, {"type": "node", "id": 2174993659, "lat": 6.8279104, "lon": -1.94282, "tags": {"place": "hamlet"}}, {"type": "node", "id": 2174993705, "lat": 6.8303403, "lon": -1.9544238, "tags": {"place": "hamlet"}}, {"type": "node", "id": 2178296430, "lat": 6.8405314, "lon": -1.6102758, "tags": {"name": "Aboabogya", "place": "village"}}, {"type": "node", "id": 2179005909, "lat": 6.9744089, "lon": -1.6084995, "tags": {"name": "Abroma", "place": "village"}}, {"type": "node", "id": 2179913178, "lat": 6.9318773, "lon": -1.9041192, "tags": {"name": "Aburaso", "place": "village"}}, {"type": "node", "id": 2179913179, "lat": 6.826714, "lon": -1.624992, "tags": {"name": "Aduman", "place": "village", "wikidata": "Q4685963"}}, {"type": "node", "id": 2179913180, "lat": 6.8793467, "lon": -1.8532495, "tags": {"name": "Biemso No.1", "place": "village"}}, {"type": "node", "id": 2179913181, "lat": 6.8822351, "lon": -1.8731266, "tags": {"capital": "6", "name": "Adugyama", "place": "village", "wikidata": "Q107719410"}}, {"type": "node", "id": 2179913182, "lat": 6.9872437, "lon": -1.9404626, "tags": {"name": "Kwamekyekrom", "place": "village"}}, {"type": "node", "id": 2179913183, "lat": 6.8183588, "lon": -1.8626362, "tags": {"capital": "6", "name": "Mankranso", "place": "town", "wikidata": "Q770334"}}, {"type": "node", "id": 2179913184, "lat": 6.9441403, "lon": -1.908724, "tags": {"name": "Asuoadei", "place": "village"}}, {"type": "node", "id": 2179913185, "lat": 6.9005573, "lon": -1.8799069, "tags": {"name": "Potikrom", "place": "village"}}, {"type": "node", "id": 2179915490, "lat": 6.777537, "lon": -1.871943, "tags": {"place": "hamlet"}}, {"type": "node", "id": 2179915767, "lat": 6.7859402, "lon": -1.864149, "tags": {"place": "hamlet"}}, {"type": "node", "id": 2179916843, "lat": 7.0089129, "lon": -1.9635418, "tags": {"name": "Mangoase", "place": "village"}}, {"type": "node", "id": 2184398856, "lat": 6.8439224, "lon": -1.8655772, "tags": {"place": "village"}}, {"type": "node", "id": 2184398863, "lat": 6.8501272, "lon": -1.9067791, "tags": {"name": "Okroase", "place": "village"}}, {"type": "node", "id": 2184398885, "lat": 6.8578384, "lon": -1.9090346, "tags": {"name": "Nyameadom Bredi", "place": "village"}}, {"type": "node", "id": 2184398895, "lat": 6.8586055, "lon": -1.8692872, "tags": {"place": "hamlet"}}, {"type": "node", "id": 2184398937, "lat": 6.8647002, "lon": -1.8759017, "tags": {"place": "hamlet"}}, {"type": "node", "id": 2184398954, "lat": 6.8713412, "lon": -1.9288172, "tags": {"name": "Dunyankwanta", "place": "village"}}, {"type": "node", "id": 2184399021, "lat": 6.8894843, "lon": -1.9811334, "tags": {"place": "village"}}, {"type": "node", "id": 2184399070, "lat": 6.8960178, "lon": -1.9574366, "tags": {"name": "Nyinanufu", "place": "hamlet"}}, {"type": "node", "id": 2184399096, "lat": 6.9004762, "lon": -1.9988797, "tags": {"place": "village"}}, {"type": "node", "id": 2184399133, "lat": 6.9071266, "lon": -1.9669211, "tags": {"name": "Awadua Nkwanta", "place": "village"}}, {"type": "node", "id": 2184399205, "lat": 6.9169708, "lon": -1.9936089, "tags": {"name": "Mmoroben", "place": "village"}}, {"type": "node", "id": 2185605081, "lat": 6.8244716, "lon": -2.0034089, "tags": {"name": "Asuogya", "place": "village"}}, {"type": "node", "id": 2185605150, "lat": 6.8274318, "lon": -1.9977489, "tags": {"name": "Ageibi", "place": "village"}}, {"type": "node", "id": 2185605226, "lat": 6.8329465, "lon": -2.0023647, "tags": {"name": "Nyahwe", "place": "village"}}, {"type": "node", "id": 2185605238, "lat": 6.8333522, "lon": -1.9905604, "tags": {"place": "hamlet"}}, {"type": "node", "id": 2185605258, "lat": 6.8347947, "lon": -2.013155, "tags": {"place": "hamlet"}}, {"type": "node", "id": 2201684766, "lat": 7.0149932, "lon": -2.0068923, "tags": {"name": "Nsuta", "place": "village"}}, {"type": "node", "id": 2201684800, "lat": 7.0131284, "lon": -1.9806658, "tags": {"place": "hamlet"}}, {"type": "node", "id": 2201684877, "lat": 7.0245439, "lon": -1.8906511, "tags": {"place": "village"}}, {"type": "node", "id": 2201684927, "lat": 7.0315652, "lon": -1.9228934, "tags": {"place": "hamlet"}}, {"type": "node", "id": 2201684976, "lat": 7.0374869, "lon": -1.8855613, "tags": {"place": "village"}}, {"type": "node", "id": 2201685014, "lat": 7.0396425, "lon": -1.91254, "tags": {"place": "hamlet"}}, {"type": "node", "id": 2201685039, "lat": 7.0404763, "lon": -1.8496457, "tags": {"place": "village"}}, {"type": "node", "id": 2201685063, "lat": 6.899656, "lon": -1.8589506, "tags": {"name": "Biemso No.2", "place": "village"}}, {"type": "node", "id": 2201685206, "lat": 7.0558371, "lon": -1.933988, "tags": {"place": "village"}}, {"type": "node", "id": 2201685256, "lat": 7.058627, "lon": -1.8376083, "tags": {"place": "village"}}, {"type": "node", "id": 2201685270, "lat": 7.0589232, "lon": -1.8507152, "tags": {"place": "village"}}, {"type": "node", "id": 2201685392, "lat": 7.0717691, "lon": -1.9212873, "tags": {"name": "Ahwerewam", "place": "village"}}, {"type": "node", "id": 2201685484, "lat": 7.0769171, "lon": -1.8889171, "tags": {"place": "village"}}, {"type": "node", "id": 2201685758, "lat": 7.0915362, "lon": -1.9695689, "tags": {"place": "village"}}, {"type": "node", "id": 2201685961, "lat": 7.0994083, "lon": -1.9510812, "tags": {"place": "hamlet"}}, {"type": "node", "id": 2201685974, "lat": 7.1000614, "lon": -1.8339863, "tags": {"place": "hamlet"}}, {"type": "node", "id": 2201685994, "lat": 7.1013988, "lon": -1.8396523, "tags": {"place": "hamlet"}}, {"type": "node", "id": 2201685997, "lat": 7.1016908, "lon": -1.9829555, "tags": {"place": "village"}}, {"type": "node", "id": 2201686151, "lat": 7.1224061, "lon": -1.9892056, "tags": {"place": "village"}}, {"type": "node", "id": 5692576833, "lat": 6.7689172, "lon": -1.6840122, "tags": {"name": "Asuofia", "place": "town"}}, {"type": "node", "id": 7608710639, "lat": 6.8502679, "lon": -1.7341743, "tags": {"capital": "6", "name": "Barekese", "place": "town", "wikidata": "Q19978463"}}, {"type": "node", "id": 7794536249, "lat": 6.904168, "lon": -1.9546142, "tags": {"name": "Ohiapae", "place": "hamlet"}}, {"type": "node", "id": 8407543662, "lat": 6.800603, "lon": -1.7136624, "tags": {"name": "Adankwame", "place": "village"}}, {"type": "node", "id": 8458911985, "lat": 6.8386134, "lon": -1.6513832, "tags": {"alt_name": "Denasi", "name": "Denase", "place": "village"}}, {"type": "node", "id": 8521532947, "lat": 6.9313793, "lon": -1.6671002, "tags": {"capital": "6", "name": "Offinso", "place": "town", "wikidata": "Q7079626"}}, {"type": "node", "id": 8627296821, "lat": 6.7815189, "lon": -1.6824866, "tags": {"name": "Achiase", "place": "village"}}, {"type": "node", "id": 8977591648, "lat": 6.7864742, "lon": -1.7377281, "tags": {"name": "Dabaa", "place": "village"}}, {"type": "node", "id": 10312595911, "lat": 7.0861576, "lon": -1.7128211, "tags": {"name": "Koforidua", "place": "village"}}, {"type": "node", "id": 11492490474, "lat": 6.9358858, "lon": -1.61346, "tags": {"name": "Amoako", "place": "village"}}, {"type": "node", "id": 11492490477, "lat": 6.8584609, "lon": -1.6685003, "tags": {"name": "Nkwantakese", "place": "village"}}, {"type": "node", "id": 11492490478, "lat": 6.7999349, "lon": -1.6439849, "tags": {"alt_name": "Buoho Wioso", "name": "Wioso", "place": "village"}}, {"type": "node", "id": 11492490479, "lat": 6.776963, "lon": -1.6501647, "tags": {"name": "Adomako Buoho", "place": "village"}}, {"type": "node", "id": 11492490480, "lat": 6.7725443, "lon": -1.6389424, "tags": {"name": "Bronkrong", "place": "village"}}, {"type": "node", "id": 11492490481, "lat": 6.7601083, "lon": -1.642684, "tags": {"name": "New Kyekyire", "place": "village"}}, {"type": "node", "id": 11492490484, "lat": 6.7768911, "lon": -1.6636401, "tags": {"alt_name": "Heman Buoho", "name": "Heman", "place": "village"}}, {"type": "node", "id": 11494109576, "lat": 6.8157309, "lon": -1.850743, "tags": {"name": "Beposo", "place": "village"}}, {"type": "node", "id": 11500934575, "lat": 6.7676435, "lon": -1.6936487, "tags": {"name": "Asamang", "place": "village"}}, {"type": "node", "id": 11500934576, "lat": 6.8507208, "lon": -1.7917009, "tags": {"name": "Fufuo", "place": "village"}}, {"type": "node", "id": 11517819608, "lat": 6.8375238, "lon": -1.6671163, "tags": {"name": "Esaase", "place": "village"}}, {"type": "node", "id": 11517819609, "lat": 6.84091, "lon": -1.6693197, "tags": {"name": "Pampatia", "place": "village"}}, {"type": "node", "id": 11517819610, "lat": 6.8380564, "lon": -1.6775662, "tags": {"name": "Penteng", "place": "village"}}, {"type": "node", "id": 11517819611, "lat": 6.8347222, "lon": -1.6734168, "tags": {"name": "Patase", "place": "village"}}, {"type": "node", "id": 11517819613, "lat": 6.9248133, "lon": -1.6338569, "tags": {"name": "Nsuotem", "place": "village"}}, {"type": "node", "id": 11517819614, "lat": 6.9411736, "lon": -1.621048, "tags": {"name": "Kyerekrom", "place": "village"}}, {"type": "node", "id": 11517819615, "lat": 6.9480363, "lon": -1.6189921, "tags": {"name": "Maase", "place": "village"}}, {"type": "node", "id": 11517819616, "lat": 6.9568571, "lon": -1.6177717, "tags": {"name": "Afua Kuntukurom", "place": "village"}}, {"type": "node", "id": 11517819617, "lat": 7.0414824, "lon": -1.6509828, "tags": {"name": "Banko", "place": "village"}}, {"type": "node", "id": 11519403065, "lat": 6.7928796, "lon": -1.6145343, "tags": {"name": "Edwenase", "place": "village"}}, {"type": "node", "id": 11519403066, "lat": 6.7848229, "lon": -1.6140407, "tags": {"name": "Maase", "place": "village"}}, {"type": "node", "id": 11519403067, "lat": 6.7790166, "lon": -1.6229698, "tags": {"name": "Besease", "place": "village"}}, {"type": "node", "id": 11519403068, "lat": 6.7777381, "lon": -1.6171467, "tags": {"name": "Essen", "place": "village"}}, {"type": "node", "id": 11519426369, "lat": 6.7884304, "lon": -1.6228746, "tags": {"name": "Agyaakobuoho", "place": "village"}}, {"type": "node", "id": 11519426370, "lat": 6.7963194, "lon": -1.6292717, "tags": {"name": "Atrama", "place": "village"}}, {"type": "node", "id": 11519426371, "lat": 6.792046, "lon": -1.6260892, "tags": {"name": "Ampabame", "place": "village"}}, {"type": "node", "id": 11519426372, "lat": 6.7906863, "lon": -1.6299945, "tags": {"name": "Brofoyeduru", "place": "village"}}, {"type": "node", "id": 11519426373, "lat": 6.7863144, "lon": -1.6457284, "tags": {"name": "Buonkabin", "place": "village"}}, {"type": "node", "id": 11519426374, "lat": 6.7795386, "lon": -1.644465, "tags": {"name": "Krabobuoho", "place": "village"}}, {"type": "node", "id": 11519426375, "lat": 6.7902722, "lon": -1.6648954, "tags": {"alt_name": "Ntiribuoho", "name": "Ntiri Buoho", "place": "village"}}, {"type": "node", "id": 11519426376, "lat": 6.8029524, "lon": -1.660223, "tags": {"name": "Sasa", "place": "village"}}, {"type": "node", "id": 11519426377, "lat": 6.80175, "lon": -1.657408, "tags": {"name": "Seyimo", "place": "village"}}, {"type": "node", "id": 11519426378, "lat": 6.7989508, "lon": -1.652108, "tags": {"name": "Bomso", "place": "village"}}, {"type": "node", "id": 11519426379, "lat": 6.8070992, "lon": -1.6352731, "tags": {"name": "Mowire", "place": "village"}}, {"type": "node", "id": 11519426380, "lat": 6.8078077, "lon": -1.6492689, "tags": {"name": "Akrowa", "place": "village"}}, {"type": "node", "id": 11522480539, "lat": 6.8018631, "lon": -1.911951, "tags": {"name": "Kramokurom", "place": "village"}}, {"type": "node", "id": 11522480540, "lat": 6.7947627, "lon": -1.8898121, "tags": {"name": "Afigya", "place": "village"}}, {"type": "node", "id": 11522480541, "lat": 6.8313426, "lon": -1.9191259, "tags": {"name": "Odoyefe", "place": "village"}}, {"type": "node", "id": 11522480545, "lat": 6.8622743, "lon": -1.9877046, "tags": {"name": "Nyamebekyere", "place": "village"}}, {"type": "node", "id": 11522480546, "lat": 6.893236, "lon": -1.9386283, "tags": {"name": "Mehami No.1", "place": "hamlet"}}, {"type": "node", "id": 11522480547, "lat": 6.7970238, "lon": -1.8216437, "tags": {"name": "Asempaneye", "place": "village"}}, {"type": "node", "id": 11522480548, "lat": 6.8010855, "lon": -1.8291217, "tags": {"name": "Dwenewoho", "place": "village"}}, {"type": "node", "id": 11526402324, "lat": 6.7777008, "lon": -1.9933212, "tags": {"name": "Kofinsiakurom", "place": "hamlet"}}, {"type": "node", "id": 11591696197, "lat": 6.7583756, "lon": -1.994095, "tags": {"name": "Piniwotirim", "place": "hamlet"}}, {"type": "node", "id": 11681667462, "lat": 6.9944016, "lon": -1.6502881, "tags": {"name": "Wenchi", "place": "village"}}, {"type": "node", "id": 11681667463, "lat": 6.9344972, "lon": -1.6813535, "tags": {"name": "Dome", "place": "village"}}, {"type": "node", "id": 11681667464, "lat": 6.9250902, "lon": -1.6801062, "tags": {"name": "Obuasi", "place": "village"}}, {"type": "node", "id": 11681667465, "lat": 6.9306684, "lon": -1.6848269, "tags": {"name": "Maase", "place": "village"}}, {"type": "node", "id": 11681667466, "lat": 6.9332525, "lon": -1.6850683, "tags": {"name": "Kokote", "place": "village"}}, {"type": "node", "id": 11681667467, "lat": 6.9354518, "lon": -1.6853862, "tags": {"name": "Aboaso", "place": "village"}}, {"type": "node", "id": 11681667468, "lat": 6.9444392, "lon": -1.6812274, "tags": {"name": "Ampabame", "place": "village"}}, {"type": "node", "id": 11681689369, "lat": 6.9555112, "lon": -1.6885317, "tags": {"name": "Amoawi", "place": "village"}}, {"type": "node", "id": 11681689370, "lat": 6.9935324, "lon": -1.6951172, "tags": {"name": "Sakamkrom", "place": "village"}}, {"type": "node", "id": 11681689371, "lat": 7.0397029, "lon": -1.7395681, "tags": {"name": "Kontomah", "place": "hamlet"}}, {"type": "node", "id": 11681689372, "lat": 7.0140779, "lon": -1.7096642, "tags": {"name": "Anyinasuso", "place": "village"}}, {"type": "node", "id": 11681689373, "lat": 7.0282775, "lon": -1.7090794, "tags": {"name": "Kayera", "place": "village"}}, {"type": "node", "id": 11681689374, "lat": 7.1050714, "lon": -1.7218642, "tags": {"name": "Nyamebekyere", "place": "village"}}, {"type": "node", "id": 11681689375, "lat": 7.0755133, "lon": -1.7870942, "tags": {"name": "Anhwerekrom", "place": "village"}}]}