{"version": 0.6, "generator": "Overpass API 0.7.61.5 4133829e", "osm3s": {"timestamp_osm_base": "2024-03-05T15:07:00Z", "copyright": "The data included in this document is from www.openstreetmap.org. The data is made available under ODbL."}, "elements": [{"type": "node", "id": 1200556620, "lat": 66.1014378, "lon": 14.8469649, "tags": {"name": "Mj\u00f6lkb\u00e4cken", "place": "hamlet", "source": "local_knowledge"}}, {"type": "node", "id": 1200556621, "lat": 66.1226396, "lon": 14.7872267, "tags": {"name": "K\u00e5taviken", "name:sma": "G\u00e5etieloekte", "name:sv": "K\u00e5taviken", "place": "hamlet", "source": "local_knowledge"}}, {"type": "node", "id": 1200556624, "lat": 66.1237513, "lon": 14.7424231, "tags": {"name": "Bredviken", "place": "hamlet", "source": "local_knowledge"}}, {"type": "node", "id": 4216354439, "lat": 66.3019544, "lon": 14.8400002, "tags": {"name": "\u00d8sterdal", "place": "hamlet", "ssr:stedsnr": "258547"}}, {"type": "node", "id": 9890227697, "lat": 66.2826146, "lon": 14.7330679, "tags": {"alt_name": "Jordbru", "name": "Jordbrua", "place": "hamlet", "ssr:stedsnr": "805556"}}, {"type": "node", "id": 9890227779, "lat": 66.5074396, "lon": 14.9443098, "tags": {"name": "Nylaenget", "place": "hamlet", "ssr:stedsnr": "726364"}}, {"type": "node", "id": 9890227787, "lat": 66.3100432, "lon": 14.8060724, "tags": {"name": "Rundhaugen", "place": "hamlet", "ssr:stedsnr": "441541"}}, {"type": "node", "id": 9890227847, "lat": 66.462315, "lon": 15.0930665, "tags": {"name": "Krokstranda", "place": "hamlet", "ssr:stedsnr": "744445"}}]}