{"version": 0.6, "generator": "Overpass API 0.7.61.5 4133829e", "osm3s": {"timestamp_osm_base": "2024-03-05T14:45:30Z", "copyright": "The data included in this document is from www.openstreetmap.org. The data is made available under ODbL."}, "elements": [{"type": "node", "id": 665063231, "lat": 59.3269735, "lon": 18.3924049, "tags": {"amenity": "bank", "atm": "yes", "brand": "Handelsbanken", "brand:wikidata": "Q1421630", "brand:wikipedia": "en:Handelsbanken", "name": "Handelsbanken", "opening_hours": "Mo,We 10:00-19:00; Tu,Th 10:00-16:00; Fr 08:00-15:00; Sa 10:00-14:00"}}, {"type": "node", "id": 2290928495, "lat": 59.3269881, "lon": 18.3908445, "tags": {"amenity": "bank", "atm": "no", "name": "Swedbank Gustavsberg", "opening_hours": "Mo-Fr 10:00-15:00; Th 10:00-18:00"}}, {"type": "node", "id": 4348993645, "lat": 59.4804918, "lon": 18.2989926, "tags": {"amenity": "bank", "brand": "Handelsbanken", "brand:wikidata": "Q1421630", "brand:wikipedia": "en:Handelsbanken", "name": "Handelsbanken"}}, {"type": "node", "id": 5549536421, "lat": 59.3089699, "lon": 18.1660056, "tags": {"amenity": "bank", "email": "nacka@handelsbanken.se", "name": "Handelsbanken Nacka", "phone": "+46 08-666 42 40", "website": "https://www.handelsbanken.se/sv/hitta-bankkontor/nacka-forum"}}, {"type": "node", "id": 5549601049, "lat": 59.3100161, "lon": 18.1645566, "tags": {"amenity": "bank", "level": "2", "name": "Forex"}}, {"type": "node", "id": 9440790448, "lat": 59.3090898, "lon": 18.1660197, "tags": {"amenity": "bank", "brand": "Nordea", "brand:wikidata": "Q1123823", "brand:wikipedia": "en:Nordea", "name": "Nordea", "operator": "Nordea"}}]}