{"version": 0.6, "generator": "Overpass API 0.7.61.5 4133829e", "osm3s": {"timestamp_osm_base": "2024-03-06T11:45:15Z", "copyright": "The data included in this document is from www.openstreetmap.org. The data is made available under ODbL."}, "elements": [{"type": "node", "id": 44922393, "lat": 1.6666, "lon": 35.4666, "tags": {"created_by": "JOSM", "is_in": "West pokot,Kenya", "name": "Orwa", "place": "village"}}, {"type": "node", "id": 44926308, "lat": 1.85, "lon": 35.3833, "tags": {"created_by": "JOSM", "is_in": "West pokot,Kenya", "name": "Mukus", "place": "village"}}, {"type": "node", "id": 44930587, "lat": 1.7333, "lon": 35.6333, "tags": {"is_in": "West pokot,Kenya", "name": "Lotongot", "place": "village", "wikidata": "Q6684820"}}, {"type": "node", "id": 45005857, "lat": 1.95, "lon": 35.4166, "tags": {"is_in": "Turkana,Kenya", "name": "Anglogitat", "place": "village", "wikidata": "Q4763715"}}, {"type": "node", "id": 1783528850, "lat": 2.0224451, "lon": 35.33196, "tags": {"name": "Kour", "place": "village"}}, {"type": "node", "id": 3070239401, "lat": 1.7746429, "lon": 35.5030247, "tags": {"name": "Kainuk", "place": "village", "population": "11799", "population:date": "1999", "source:population": "https://en.wikipedia.org/wiki/Turkana_County"}}, {"type": "node", "id": 3237801990, "lat": 1.9197571, "lon": 35.3699329, "tags": {"place": "village"}}, {"type": "node", "id": 3237802027, "lat": 1.9282931, "lon": 35.3650255, "tags": {"name": "Lorokon", "place": "village"}}, {"type": "node", "id": 4519269677, "lat": 1.6186287, "lon": 35.5482809, "tags": {"place": "hamlet"}}, {"type": "node", "id": 4519270251, "lat": 1.6068373, "lon": 35.5433084, "tags": {"place": "hamlet"}}, {"type": "node", "id": 5135168055, "lat": 1.6049448, "lon": 35.3418255, "tags": {"place": "village"}}, {"type": "node", "id": 6745557826, "lat": 1.6117076, "lon": 35.4037077, "tags": {"name": "Mungat", "place": "village"}}, {"type": "node", "id": 6745557827, "lat": 1.593422, "lon": 35.4012508, "tags": {"name": "Mariny", "place": "village"}}, {"type": "node", "id": 8090929616, "lat": 1.8379434, "lon": 35.4802602, "tags": {"place": "village"}}]}