{"version": 0.6, "generator": "Overpass API 0.7.61.5 4133829e", "osm3s": {"timestamp_osm_base": "2024-03-05T11:10:29Z", "copyright": "The data included in this document is from www.openstreetmap.org. The data is made available under ODbL."}, "elements": [{"type": "node", "id": 4599317596, "lat": 7.3987895, "lon": -1.9570562, "tags": {"amenity": "bank", "name": "GCB akumadan", "opening_hours": "Mo-Fr 07:00-16:00"}}, {"type": "node", "id": 4910910873, "lat": 7.5845885, "lon": -1.9368469, "tags": {"alt_name": "CBG", "amenity": "bank", "name": "Consolidated Bank Ghana", "operator": "Consolidated Bank Ghana Limited", "website": "https://cbg.com.gh/"}}, {"type": "node", "id": 4910911729, "lat": 7.5843699, "lon": -1.9367824, "tags": {"amenity": "bank", "atm": "yes", "name": "National Investment Bank"}}, {"type": "node", "id": 6535915957, "lat": 7.3968667, "lon": -1.9529833, "tags": {"amenity": "bank", "name": "Akumadan Rural Bank Limited"}}, {"type": "node", "id": 6535928217, "lat": 7.5869624, "lon": -1.9378413, "tags": {"amenity": "bank", "branch": "Techiman", "brand": "GT Bank", "brand:wikidata": "Q579747", "brand:wikipedia": "en:Guaranty Trust Holding Company PLC", "name": "GT Bank", "official_name": "Guaranty Trust Bank", "opening_hours": "Mo-Fr 08:00-16:30", "operator": "Guaranty Trust Bank Ghana Limited"}}, {"type": "node", "id": 6535938342, "lat": 7.5828877, "lon": -1.9363581, "tags": {"amenity": "bank", "brand": "GCB Bank", "brand:wikidata": "Q1521346", "brand:wikipedia": "en:GCB Bank", "name": "GCB Bank"}}, {"type": "node", "id": 6535947165, "lat": 7.5821014, "lon": -1.9364804, "tags": {"amenity": "bank", "name": "UMB"}}, {"type": "node", "id": 6535948063, "lat": 7.592879, "lon": -1.9365702, "tags": {"amenity": "bank", "name": "ADB"}}, {"type": "node", "id": 6535960605, "lat": 7.5862878, "lon": -1.937976, "tags": {"amenity": "bank", "name": "Multi Credit"}}, {"type": "node", "id": 6535962189, "lat": 7.5928622, "lon": -1.9369572, "tags": {"amenity": "bank", "brand": "Fidelity Bank", "brand:wikidata": "Q5446778", "brand:wikipedia": "en:Fidelity Bank Ghana", "name": "Fidelity Bank"}}, {"type": "node", "id": 6535966344, "lat": 7.4092492, "lon": -1.9689089, "tags": {"amenity": "bank", "name": "Figya Rural Bank"}}, {"type": "node", "id": 6688889859, "lat": 7.5850272, "lon": -1.937067, "tags": {"amenity": "bank", "name": "OmniBSic Bank"}}, {"type": "node", "id": 7064840295, "lat": 7.5689223, "lon": -1.7089688}, {"type": "node", "id": 7065828113, "lat": 7.5689746, "lon": -1.7090122}, {"type": "node", "id": 7065828114, "lat": 7.5688729, "lon": -1.7090294}, {"type": "node", "id": 7065828115, "lat": 7.5689317, "lon": -1.7090648}, {"type": "node", "id": 7065828116, "lat": 7.5689871, "lon": -1.7091108}, {"type": "node", "id": 7065828117, "lat": 7.569091, "lon": -1.7089833}, {"type": "node", "id": 7065828118, "lat": 7.5689255, "lon": -1.7088461}, {"type": "node", "id": 7065828119, "lat": 7.5688152, "lon": -1.7089815}, {"type": "node", "id": 7066469978, "lat": 7.5664095, "lon": -1.7075212}, {"type": "node", "id": 7119220925, "lat": 7.5665071, "lon": -1.707582}, {"type": "node", "id": 7119220926, "lat": 7.5664947, "lon": -1.7076022}, {"type": "node", "id": 7119220927, "lat": 7.5663093, "lon": -1.707685}, {"type": "node", "id": 7119220928, "lat": 7.5665432, "lon": -1.7076324}, {"type": "node", "id": 7119220929, "lat": 7.5664554, "lon": -1.7077759}, {"type": "node", "id": 7787525514, "lat": 7.568621, "lon": -1.7087859}, {"type": "node", "id": 7787525515, "lat": 7.5687005, "lon": -1.7086867}, {"type": "node", "id": 7787525516, "lat": 7.5685715, "lon": -1.7085814}, {"type": "node", "id": 7787525517, "lat": 7.5684566, "lon": -1.7087247}, {"type": "node", "id": 7787525518, "lat": 7.5685144, "lon": -1.7087718}, {"type": "node", "id": 7787525519, "lat": 7.5685505, "lon": -1.7087267}, {"type": "node", "id": 7787525520, "lat": 7.56857, "lon": -1.7087426}, {"type": "node", "id": 7787525521, "lat": 7.5685448, "lon": -1.708774}, {"type": "node", "id": 7787525522, "lat": 7.5685874, "lon": -1.7088088}, {"type": "node", "id": 7787525523, "lat": 7.5686118, "lon": -1.7087784}, {"type": "node", "id": 10875085758, "lat": 7.5952926, "lon": -1.9351227, "tags": {"amenity": "bank", "name": "First Atlantic Bank"}}, {"type": "node", "id": 10875112333, "lat": 7.5924469, "lon": -1.937391, "tags": {"amenity": "bank", "name": "Access Bank"}}, {"type": "node", "id": 10892737027, "lat": 7.5797847, "lon": -1.9357709, "tags": {"addr:city": "Techiman", "addr:country": "GH", "addr:ghanapostgps": "TT-3007-0382", "addr:postcode": "TT3007", "addr:region": "Bono East", "addr:street": "Ohene Ameyaw Avenue", "addr:suburb": "Techiman", "alt_name": "CalBank - Techiman Branch", "amenity": "bank", "atm": "yes", "branch": "Techiman", "brand": "CalBank", "contact:linkedin": "calbank-plc", "contact:twitter": "CalBankPLC", "contact:whatsapp": "+233 24 242 6398", "contact:youtube": "https://www.youtube.com/channel/UCzczU8uI8AFTaXfM-2GDhYQ", "email": "customercare@calbank.net", "facebook": "CalBankPLC", "name": "CalBank", "operator": "CalBank PLC", "operator:type": "public", "operator:wikidata": "Q4035559", "operator:wikipedia": "en:CalBank", "phone": "+233 59 382 3331;+233 59 382 3333;+233 59 382 3332", "website": "https://calbank.net"}}, {"type": "node", "id": 11210039195, "lat": 7.5810457, "lon": -1.9373596, "tags": {"addr:country": "GH", "addr:region": "Bono East", "addr:street": "R71", "addr:town": "Techiman", "alt_name": "Absa - Techiman Branch", "amenity": "bank", "branch": "Techiman", "brand": "Absa", "brand:wikidata": "Q58641733", "brand:wikipedia": "en:Absa Group Limited", "contact:instagram": "absaghana", "contact:linkedin": "absa-ghana", "contact:twitter": "AbsaGhana", "contact:whatsapp": "+233 50 164 4644", "contact:youtube": "https://www.youtube.com/channel/UCKpKPyfJ69tf7lnxudpzKJQ", "description": "Near The Community Centre, Techiman", "email": "service.excellence.GH@absa.africa", "facebook": "AbsaGhana", "name": "Absa", "opening_hours": "Mo-Fr 08:30-16:30; PH off", "operator": "Absa Bank Ghana Limited", "operator:type": "public", "operator:wikidata": "Q96371413", "operator:wikipedia": "en:Absa Bank Ghana", "phone": "+233 35 252 2428", "website": "https://www.absa.com.gh"}}, {"type": "way", "id": 756486120, "nodes": [7065828119, 7065828114, 7064840295, 7065828113, 7065828115, 7065828116, 7065828117, 7065828118, 7065828119], "tags": {"amenity": "bank", "building": "yes", "name": "ADB"}}, {"type": "way", "id": 761969239, "nodes": [7119220929, 7119220928, 7119220926, 7119220925, 7066469978, 7119220927, 7119220929], "tags": {"amenity": "bank", "building": "yes", "name": "Fiagya Rural Bank"}}, {"type": "way", "id": 834234083, "nodes": [7787525514, 7787525515, 7787525516, 7787525517, 7787525518, 7787525519, 7787525520, 7787525521, 7787525522, 7787525523, 7787525514], "tags": {"amenity": "bank", "brand": "GCB Bank", "brand:wikidata": "Q1521346", "brand:wikipedia": "en:GCB Bank", "building": "yes", "name": "GCB Bank"}}]}