{"version": 0.6, "generator": "Overpass API 0.7.61.5 4133829e", "osm3s": {"timestamp_osm_base": "2024-03-06T11:45:15Z", "copyright": "The data included in this document is from www.openstreetmap.org. The data is made available under ODbL."}, "elements": [{"type": "node", "id": 44911329, "lat": 0.4166, "lon": 35.8, "tags": {"created_by": "JOSM", "is_in": "Baringo,Kenya", "name": "Timboywo", "place": "village"}}, {"type": "node", "id": 44911332, "lat": 0.4166, "lon": 35.8, "tags": {"created_by": "JOSM", "is_in": "Baringo,Kenya", "name": "Timboiwo", "place": "village"}}, {"type": "node", "id": 44914590, "lat": 0.6333, "lon": 35.7666, "tags": {"created_by": "JOSM", "is_in": "Baringo,Kenya", "name": "Tiriondonin", "place": "village"}}, {"type": "node", "id": 44914595, "lat": 0.6666, "lon": 35.8166, "tags": {"created_by": "JOSM", "is_in": "Baringo,Kenya", "name": "Tirimionin", "place": "village"}}, {"type": "node", "id": 44915069, "lat": 0.5831713, "lon": 35.8136686, "tags": {"name": "Talai", "place": "village"}}, {"type": "node", "id": 44915511, "lat": 0.684659, "lon": 35.9158738, "tags": {"is_in": "Baringo,Kenya", "name": "Sibilo", "place": "village"}}, {"type": "node", "id": 44915514, "lat": 0.684607, "lon": 35.915874, "tags": {"is_in": "Baringo,Kenya", "name": "Sibillo", "place": "village", "wikidata": "Q7507077"}}, {"type": "node", "id": 44915611, "lat": 0.3909678, "lon": 36.0874054, "tags": {"is_in": "Baringo,Kenya", "name": "Sandai", "place": "village"}}, {"type": "node", "id": 44915690, "lat": 0.5, "lon": 35.8166, "tags": {"created_by": "JOSM", "is_in": "Baringo,Kenya", "name": "Sesia", "place": "village"}}, {"type": "node", "id": 44915696, "lat": 0.5999142, "lon": 35.7666215, "tags": {"name": "Serkongun", "place": "village"}}, {"type": "node", "id": 44915698, "lat": 0.6015549, "lon": 35.7684878, "tags": {"name": "Ossen", "place": "village"}}, {"type": "node", "id": 44917728, "lat": 0.544199, "lon": 36.043579, "tags": {"GNS:dsg_code": "PPL", "GNS:id": "-2262029", "GNS:modify_date": "2013-06-06", "is_in": "Baringo,Kenya", "name": "Salabani", "place": "village", "source": "GNS", "wikidata": "Q7403363"}}, {"type": "node", "id": 44923335, "lat": 0.571063, "lon": 35.7701083, "tags": {"name": "Pemwai", "place": "village"}}, {"type": "node", "id": 44925270, "lat": 0.55, "lon": 35.95, "tags": {"created_by": "JOSM", "is_in": "Baringo,Kenya", "name": "Ndau", "place": "village"}}, {"type": "node", "id": 44930491, "lat": 0.712903, "lon": 36.031113, "tags": {"is_in": "Baringo,Kenya", "is_in:country": "Kenya", "name": "Loruk", "place": "village", "wikidata": "Q6681771"}}, {"type": "node", "id": 44930496, "lat": 0.3477041, "lon": 36.0482162, "tags": {"name": "Lorwok", "place": "hamlet", "wikidata": "Q6681781"}}, {"type": "node", "id": 44931355, "lat": 0.548134, "lon": 36.122244, "tags": {"is_in": "Baringo,Kenya", "name": "Loiminange", "place": "village", "wikidata": "Q6668113"}}, {"type": "node", "id": 44931384, "lat": 0.4575363, "lon": 36.1010337, "tags": {"alt_name": "Logumgum", "name": "Logumukum", "place": "hamlet", "wikidata": "Q6667899"}}, {"type": "node", "id": 44931667, "lat": 0.470188, "lon": 36.045662, "tags": {"is_in": "Baringo,Kenya", "name": "Langarwa", "place": "village", "wikidata": "Q6485728"}}, {"type": "node", "id": 44931839, "lat": 0.5952364, "lon": 35.857172, "tags": {"is_in": "Baringo,Kenya", "name": "Kipcherere", "place": "village", "wikidata": "Q6414611"}}, {"type": "node", "id": 44931860, "lat": 0.3833, "lon": 35.8, "tags": {"created_by": "JOSM", "is_in": "Baringo,Kenya", "name": "Kiptagich", "place": "village"}}, {"type": "node", "id": 44990184, "lat": 0.511583, "lon": 35.867769, "tags": {"is_in": "Baringo,Kenya", "name": "Kibingor", "place": "village", "wikidata": "Q6404025"}}, {"type": "node", "id": 44996342, "lat": 0.7, "lon": 35.7333, "tags": {"is_in": "Baringo,Kenya", "name": "Kaption", "place": "village", "wikidata": "Q6367300"}}, {"type": "node", "id": 44997128, "lat": 0.6339544, "lon": 35.8362933, "tags": {"name": "Kasisit", "place": "village", "wikidata": "Q6374555"}}, {"type": "node", "id": 44997439, "lat": 0.619587, "lon": 36.026009, "tags": {"is_in": "Baringo,Kenya", "is_in:country": "Kenya", "name": "Kampi Ya Samaki", "place": "village", "wikidata": "Q6359235"}}, {"type": "node", "id": 44997869, "lat": 0.616128, "lon": 35.8027573, "tags": {"name": "Kapchepkor", "place": "village", "wikidata": "Q2594655"}}, {"type": "node", "id": 44998126, "lat": 0.3666, "lon": 35.7166, "tags": {"is_in": "E. marakwet,Kenya", "name": "Kapkalelwa", "place": "village", "wikidata": "Q6366790"}}, {"type": "node", "id": 44998132, "lat": 0.6666, "lon": 35.7666, "tags": {"is_in": "Baringo,Kenya", "name": "Kapkiam", "place": "village", "wikidata": "Q6366795"}}, {"type": "node", "id": 44998724, "lat": 0.6301913, "lon": 35.7957509, "tags": {"name": "Kabartonjo", "place": "village", "wikidata": "Q6343915"}}, {"type": "node", "id": 44998727, "lat": 0.6327016, "lon": 35.798079, "tags": {"name": "Kabartonjo Mission", "place": "village"}}, {"type": "node", "id": 44998738, "lat": 0.496524, "lon": 35.743139, "tags": {"is_in": "Baringo,Kenya", "name": "Kabarnet", "place": "town", "population": "24661", "wikidata": "Q166916"}}, {"type": "node", "id": 44998990, "lat": 0.7166, "lon": 35.8166, "tags": {"created_by": "JOSM", "is_in": "Baringo,Kenya", "name": "Issa", "place": "village"}}, {"type": "node", "id": 44998994, "lat": 0.7166, "lon": 35.8166, "tags": {"created_by": "JOSM", "is_in": "Baringo,Kenya", "name": "Issas", "place": "village"}}, {"type": "node", "id": 45006463, "lat": 0.468984, "lon": 35.980235, "tags": {"addr:postcode": "30403", "name": "Marigat", "place": "town", "project:eurosha_2012": "yes", "source": "Field Survey", "source:date": "2013-01-15", "wikidata": "Q15247559"}}, {"type": "node", "id": 45007114, "lat": 0.6833, "lon": 35.8166, "tags": {"is_in": "Baringo,Kenya", "name": "Bartolimo", "place": "village", "wikidata": "Q4865487"}}, {"type": "node", "id": 45007120, "lat": 0.7036988, "lon": 35.7001133, "tags": {"is_in": "Baringo, Kenya", "name": "Barwesa", "place": "village", "wikidata": "Q4865959"}}, {"type": "node", "id": 1998368874, "lat": 0.4701164, "lon": 35.9674382, "tags": {"place": "hamlet", "project:eurosha_2012": "yes"}}, {"type": "node", "id": 2127466743, "lat": 0.4089596, "lon": 35.8625121, "tags": {"name": "Sabor", "place": "village", "project:eurosha_2012": "yes", "source": "survey", "source:date": "2013-01-15"}}, {"type": "node", "id": 2142307670, "lat": 0.4511157, "lon": 36.0793347, "tags": {"name": "Loitip", "place": "village"}}, {"type": "node", "id": 2142307672, "lat": 0.4548629, "lon": 36.0610478, "tags": {"name": "Longewan", "place": "village", "project:eurosha_2012": "yes", "source": "Field survey", "source:date": "2013-01-30"}}, {"type": "node", "id": 3105975691, "lat": 0.667832, "lon": 35.8846271, "tags": {"place": "village"}}, {"type": "node", "id": 3196910254, "lat": 0.5127022, "lon": 36.122991, "tags": {"name": "Sokotei", "place": "hamlet"}}, {"type": "node", "id": 3196910307, "lat": 0.5267647, "lon": 35.9848461, "tags": {"place": "village"}}, {"type": "node", "id": 3196911360, "lat": 0.5784349, "lon": 35.9278971, "tags": {"place": "hamlet"}}, {"type": "node", "id": 3196911479, "lat": 0.5796325, "lon": 35.9376289, "tags": {"place": "hamlet"}}, {"type": "node", "id": 3196911543, "lat": 0.6934789, "lon": 36.0965258, "tags": {"place": "hamlet"}}, {"type": "node", "id": 3196912859, "lat": 0.6428048, "lon": 36.1242392, "tags": {"name": "Rugus", "place": "hamlet"}}, {"type": "node", "id": 3198452637, "lat": 0.4362791, "lon": 36.0025918, "tags": {"name": "Eldume", "place": "village"}}, {"type": "node", "id": 3198452638, "lat": 0.5047023, "lon": 36.0613528, "tags": {"name": "Ng'ambo", "place": "village"}}, {"type": "node", "id": 3198455636, "lat": 0.501822, "lon": 36.0365977, "tags": {"name": "Eldebe", "place": "hamlet"}}, {"type": "node", "id": 3198510605, "lat": 0.3547672, "lon": 36.064545, "tags": {"name": "Loboi", "place": "village"}}, {"type": "node", "id": 3204515166, "lat": 0.6890668, "lon": 36.0867128, "tags": {"name": "Komolion", "place": "hamlet"}}, {"type": "node", "id": 3674804337, "lat": 0.6424263, "lon": 35.6857134, "tags": {"name": "Sessianin", "place": "village"}}, {"type": "node", "id": 7922071153, "lat": 0.4123116, "lon": 36.0721943, "tags": {"name": "Kailer", "place": "hamlet"}}, {"type": "node", "id": 7922151120, "lat": 0.3734314, "lon": 36.0410048, "tags": {"name": "Kapkuikui", "place": "village"}}, {"type": "node", "id": 7922151121, "lat": 0.4029837, "lon": 36.0195103, "tags": {"name": "Kaptombes", "place": "hamlet"}}, {"type": "node", "id": 7924670759, "lat": 0.3766128, "lon": 36.0709441, "tags": {"name": "Chepkotoyan", "place": "hamlet"}}, {"type": "node", "id": 7924673745, "lat": 0.3988015, "lon": 36.0767455, "tags": {"name": "Cheploch", "place": "hamlet"}}, {"type": "node", "id": 7927342490, "lat": 0.4543455, "lon": 36.0343718, "tags": {"name": "Murda", "place": "hamlet"}}, {"type": "node", "id": 8223956862, "lat": 0.4883248, "lon": 35.7281481}, {"type": "node", "id": 8223956863, "lat": 0.4821452, "lon": 35.7445847}, {"type": "node", "id": 8223956864, "lat": 0.4928307, "lon": 35.7544123}, {"type": "node", "id": 8223956865, "lat": 0.4984524, "lon": 35.7313239}, {"type": "node", "id": 8223956866, "lat": 0.4942898, "lon": 35.7272898}, {"type": "node", "id": 8223956867, "lat": 0.5018426, "lon": 35.7439839}, {"type": "node", "id": 8223956868, "lat": 0.4848488, "lon": 35.7517516}, {"type": "node", "id": 8223956869, "lat": 0.4974225, "lon": 35.7537257}, {"type": "node", "id": 8223956870, "lat": 0.4836901, "lon": 35.7338988}, {"type": "node", "id": 9199848409, "lat": 0.5773947, "lon": 35.7745313, "tags": {"name": "Kabarbet", "place": "village"}}, {"type": "node", "id": 9199848414, "lat": 0.5741548, "lon": 35.8008063, "tags": {"name": "Kaptumo", "place": "village"}}, {"type": "way", "id": 884306312, "nodes": [8223956867, 8223956865, 8223956866, 8223956862, 8223956870, 8223956863, 8223956868, 8223956864, 8223956869, 8223956867], "tags": {"name": "Kabarnet", "place": "city"}}]}