{"version": 0.6, "generator": "Overpass API 0.7.61.5 4133829e", "osm3s": {"timestamp_osm_base": "2024-03-05T11:05:12Z", "copyright": "The data included in this document is from www.openstreetmap.org. The data is made available under ODbL."}, "elements": [{"type": "node", "id": 4161229590, "lat": 5.1212163, "lon": -1.2722898, "tags": {"amenity": "atm", "name": "Prudential Bank"}}, {"type": "node", "id": 4396865001, "lat": 5.1160348, "lon": -1.2926932, "tags": {"addr:city": "Cape Coast", "addr:country": "GH", "addr:region": "Central", "addr:street": "University Avenue", "amenity": "atm", "brand": "Absa", "brand:wikidata": "Q58641733", "brand:wikipedia": "en:Absa Group Limited", "contact:instagram": "absaghana", "contact:linkedin": "absa-ghana", "contact:twitter": "AbsaGhana", "contact:whatsapp": "+233 50 164 4644", "contact:youtube": "https://www.youtube.com/channel/UCKpKPyfJ69tf7lnxudpzKJQ", "email": "service.excellence.GH@absa.africa", "facebook": "AbsaGhana", "name": "Absa ATM", "opening_hours": "24/7", "operator": "Absa Bank Ghana Limited", "operator:type": "public", "operator:wikidata": "Q96371413", "operator:wikipedia": "en:Absa Bank Ghana", "phone": "+233 30 242 9150", "website": "https://www.absa.com.gh"}}, {"type": "node", "id": 4396865002, "lat": 5.1160415, "lon": -1.2927603, "tags": {"amenity": "atm", "brand": "GCB"}}, {"type": "node", "id": 5272085148, "lat": 5.1212304, "lon": -1.2722998, "tags": {"amenity": "atm", "name": "Prudential Bank"}}, {"type": "node", "id": 5272085149, "lat": 5.1212414, "lon": -1.2723075, "tags": {"amenity": "atm", "brand": "GCB Bank", "brand:wikidata": "Q1521346", "brand:wikipedia": "en:GCB Bank", "name": "GCB Bank", "operator": "GCB Bank", "operator:wikidata": "Q1521346", "operator:wikipedia": "en:GCB Bank"}}, {"type": "node", "id": 5631447063, "lat": 5.1212049, "lon": -1.2722767, "tags": {"amenity": "atm", "name": "National Investment Bank"}}, {"type": "node", "id": 6853223929, "lat": 5.132753, "lon": -1.2887601, "tags": {"amenity": "atm", "name": "Prudential Bank"}}, {"type": "node", "id": 8121276806, "lat": 5.1532317, "lon": -1.2790492, "tags": {"amenity": "atm", "name": "SG-SSB"}}, {"type": "node", "id": 8121953560, "lat": 5.1531767, "lon": -1.27904, "tags": {"amenity": "atm", "brand": "Zenith Bank", "brand:wikidata": "Q5978240", "brand:wikipedia": "en:Zenith Bank", "name": "Zenith Bank", "operator": "Zenith Bank", "operator:wikidata": "Q5978240", "operator:wikipedia": "en:Zenith Bank"}}, {"type": "node", "id": 8121961998, "lat": 5.1164035, "lon": -1.2926894, "tags": {"amenity": "atm", "name": "SG-SSB"}}, {"type": "node", "id": 8157943222, "lat": 5.1176278, "lon": -1.2856657, "tags": {"amenity": "atm", "brand": "ADB", "wheelchair": "yes"}}, {"type": "node", "id": 8157943223, "lat": 5.1176245, "lon": -1.2857013, "tags": {"amenity": "atm", "brand": "Prudential Bank", "wheelchair": "yes"}}, {"type": "node", "id": 8157943224, "lat": 5.1146464, "lon": -1.2930983, "tags": {"amenity": "atm", "brand": "Prudential Bank", "wheelchair": "yes"}}, {"type": "node", "id": 8157943628, "lat": 5.1177798, "lon": -1.2865177, "tags": {"amenity": "atm", "brand": "Zenith Bank"}}, {"type": "node", "id": 8157943923, "lat": 5.1144049, "lon": -1.2932007, "tags": {"amenity": "atm", "brand": "Fidelity Bank"}}, {"type": "node", "id": 8157962517, "lat": 5.11514, "lon": -1.2795842, "tags": {"amenity": "atm", "brand": "GCB Bank"}}, {"type": "node", "id": 10606539917, "lat": 5.1165165, "lon": -1.2926269, "tags": {"amenity": "atm"}}, {"type": "node", "id": 10606539918, "lat": 5.1164678, "lon": -1.2927065}, {"type": "node", "id": 10606539919, "lat": 5.1164825, "lon": -1.2926288}, {"type": "node", "id": 10606539920, "lat": 5.1165539, "lon": -1.2926424}, {"type": "node", "id": 10606539921, "lat": 5.1165392, "lon": -1.2927201}, {"type": "way", "id": 1137883524, "nodes": [10606539921, 10606539920, 10606539919, 10606539918, 10606539921], "tags": {"amenity": "atm", "building": "yes"}}]}