{"version": 0.6, "generator": "Overpass API 0.7.61.5 4133829e", "osm3s": {"timestamp_osm_base": "2024-03-05T15:10:00Z", "copyright": "The data included in this document is from www.openstreetmap.org. The data is made available under ODbL."}, "elements": [{"type": "node", "id": 714711135, "lat": 66.2877611, "lon": 22.0517187, "tags": {"name": "Tallberg", "place": "hamlet"}}, {"type": "node", "id": 2226880783, "lat": 66.3090581, "lon": 21.3677266, "tags": {"name": "M\u00e5rdsel", "name:fit": "N\u00e4\u00e4t\u00e4suanto", "name:sv": "M\u00e5rdsel", "place": "hamlet", "ref:se:pts:postort": "M\u00c5RDSEL"}}, {"type": "node", "id": 2235761965, "lat": 66.0858781, "lon": 21.8055374, "tags": {"name": "Gunnarsbyn", "place": "hamlet", "ref:se:pts:postort": "GUNNARSBYN"}}, {"type": "node", "id": 2235761986, "lat": 66.0192014, "lon": 21.9883928, "tags": {"name": "Niemisel", "place": "village", "ref:se:pts:postort": "NIEMISEL", "wikidata": "Q1832764"}}, {"type": "node", "id": 3008300056, "lat": 65.9886393, "lon": 21.2102895, "tags": {"name": "\u00c5kerby", "place": "hamlet"}}, {"type": "node", "id": 3017964323, "lat": 66.0146226, "lon": 21.1725778, "tags": {"name": "\u00d6vre Svartl\u00e5", "place": "village"}}, {"type": "node", "id": 3017964329, "lat": 65.9974987, "lon": 21.2113233, "tags": {"name": "Nedre Svartl\u00e5", "place": "hamlet"}}, {"type": "node", "id": 3017964330, "lat": 66.0061117, "lon": 21.1365918, "tags": {"name": "S\u00f6dra Svartl\u00e5", "place": "hamlet"}}, {"type": "node", "id": 3018102846, "lat": 66.1228473, "lon": 21.3225239, "tags": {"name": "Sandtr\u00e4sk", "place": "hamlet"}}, {"type": "node", "id": 3018114391, "lat": 66.1978155, "lon": 21.1824115, "tags": {"name": "Gulltr\u00e4sk", "place": "hamlet"}}, {"type": "node", "id": 3019764009, "lat": 65.9770458, "lon": 21.6060286, "tags": {"name": "Ljus\u00e5", "place": "hamlet"}}, {"type": "node", "id": 3145179359, "lat": 66.2775595, "lon": 22.2328921, "tags": {"name": "Tallj\u00e4rv", "place": "hamlet"}}, {"type": "node", "id": 3394889048, "lat": 65.9506861, "lon": 22.1256516, "tags": {"name": "Orrbyn", "place": "hamlet"}}, {"type": "node", "id": 3402385088, "lat": 66.1669449, "lon": 22.1910739, "tags": {"name": "Forshed", "place": "hamlet"}}, {"type": "node", "id": 4461935444, "lat": 66.03641, "lon": 22.1621613, "tags": {"name": "Bjur\u00e5", "place": "hamlet"}}, {"type": "node", "id": 4462010953, "lat": 66.0536731, "lon": 22.154767, "tags": {"name": "Forsn\u00e4s", "place": "hamlet"}}, {"type": "node", "id": 4462930523, "lat": 66.0052827, "lon": 22.0909951, "tags": {"name": "F\u00e4lltr\u00e4sket", "place": "hamlet"}}, {"type": "node", "id": 4462930544, "lat": 66.0156367, "lon": 22.0971024, "tags": {"name": "Norra F\u00e4lltr\u00e4sket", "place": "hamlet"}}, {"type": "node", "id": 4462930580, "lat": 66.0375647, "lon": 22.090222, "tags": {"name": "Mj\u00f6tr\u00e4sklommen", "place": "hamlet"}}, {"type": "node", "id": 4462930581, "lat": 66.032849, "lon": 22.1127456, "tags": {"name": "Mj\u00f6tr\u00e4sk", "place": "hamlet"}}, {"type": "node", "id": 4462930587, "lat": 66.0323286, "lon": 22.1004557, "tags": {"name": "N\u00e4set", "place": "hamlet"}}, {"type": "node", "id": 4462930877, "lat": 66.0085702, "lon": 22.1627616, "tags": {"name": "\u00c4ngestr\u00e4sk", "place": "hamlet"}}, {"type": "node", "id": 5942528695, "lat": 66.1030606, "lon": 21.7953265, "tags": {"name": "\u00d6verstbyn", "place": "hamlet"}}, {"type": "node", "id": 5942528696, "lat": 66.146494, "lon": 21.6907448, "tags": {"name": "Valvtr\u00e4sk", "place": "hamlet"}}, {"type": "node", "id": 5942528697, "lat": 66.1964839, "lon": 21.6343732, "tags": {"name": "Aspliden", "place": "hamlet"}}, {"type": "node", "id": 5942528698, "lat": 66.1969664, "lon": 21.4914819, "tags": {"name": "Klingersel", "place": "hamlet"}}, {"type": "node", "id": 5942528699, "lat": 66.227067, "lon": 21.4250035, "tags": {"name": "Holmsvattensel", "place": "hamlet"}}, {"type": "node", "id": 5942528762, "lat": 66.0482948, "lon": 21.7729598, "tags": {"name": "S\u00f6rbyn", "place": "hamlet"}}, {"type": "node", "id": 6703675884, "lat": 66.2446547, "lon": 21.7856437, "tags": {"name": "Grundtr\u00e4sk", "place": "hamlet"}}, {"type": "node", "id": 6703675885, "lat": 66.2390442, "lon": 21.7949135, "tags": {"name": "Norri\u00e5n", "place": "hamlet"}}, {"type": "node", "id": 6703901091, "lat": 66.1049371, "lon": 21.5794693, "tags": {"name": "\u00c5tr\u00e4sk", "place": "hamlet"}}, {"type": "node", "id": 6703901252, "lat": 66.0600222, "lon": 21.8209111, "tags": {"name": "Lassbyn", "place": "hamlet"}}, {"type": "node", "id": 6721070661, "lat": 66.1579976, "lon": 21.5582223, "tags": {"name": "\u00d6vre Fl\u00e5sj\u00f6n", "place": "hamlet"}}, {"type": "node", "id": 6761086877, "lat": 66.108439, "lon": 21.979021, "tags": {"name": "Gunnarsdjuptr\u00e4sk", "place": "hamlet"}}, {"type": "node", "id": 6761086878, "lat": 66.1112024, "lon": 22.0110573, "tags": {"name": "Forstr\u00e4sk", "place": "hamlet"}}, {"type": "node", "id": 6761129969, "lat": 66.1315481, "lon": 21.7426709, "tags": {"name": "F\u00e4llviken", "place": "hamlet"}}, {"type": "node", "id": 6767132316, "lat": 65.959895, "lon": 21.8268341, "tags": {"name": "Edet", "place": "hamlet"}}, {"type": "node", "id": 6767132317, "lat": 65.9605768, "lon": 21.8090886, "tags": {"name": "N\u00e4set", "place": "hamlet"}}, {"type": "node", "id": 6767292156, "lat": 65.9427154, "lon": 21.7430907, "tags": {"name": "Legotr\u00e4sk", "place": "hamlet"}}, {"type": "node", "id": 6767292218, "lat": 65.9484879, "lon": 21.8040735, "tags": {"name": "Hundsj\u00f6n", "place": "hamlet"}}, {"type": "node", "id": 6767313739, "lat": 65.961063, "lon": 21.8594216, "tags": {"name": "Nedre Fl\u00e5sj\u00f6n", "place": "hamlet"}}, {"type": "node", "id": 7468399398, "lat": 66.0023611, "lon": 21.1654327, "tags": {"name": "S\u00f6dra Svartl\u00e5", "place": "hamlet"}}, {"type": "node", "id": 7468405714, "lat": 66.1134861, "lon": 21.7693582, "tags": {"name": "Br\u00e4ndheden", "place": "hamlet"}}, {"type": "node", "id": 7469012902, "lat": 65.9960007, "lon": 21.7844958, "tags": {"name": "Aldern\u00e4s", "place": "hamlet"}}, {"type": "node", "id": 7469016867, "lat": 66.0366431, "lon": 21.8052927, "tags": {"name": "Sundsn\u00e4s", "place": "hamlet"}}, {"type": "node", "id": 7469021637, "lat": 66.0106159, "lon": 21.9645735, "tags": {"name": "\u00c5n", "place": "hamlet"}}, {"type": "node", "id": 7469027611, "lat": 66.0146126, "lon": 21.8894903, "tags": {"name": "Degerselet", "place": "hamlet"}}, {"type": "node", "id": 7469038536, "lat": 66.0206841, "lon": 21.8600579, "tags": {"name": "Furun\u00e4set", "place": "hamlet"}}, {"type": "node", "id": 7469039237, "lat": 66.0458459, "lon": 21.7929027, "tags": {"name": "Lill\u00e4nget", "place": "hamlet"}}, {"type": "node", "id": 7469046738, "lat": 66.02117, "lon": 21.9389808, "tags": {"name": "Sandviken", "place": "hamlet"}}, {"type": "node", "id": 7469291329, "lat": 65.9405861, "lon": 22.1373339, "tags": {"name": "Skravelholmen", "place": "hamlet"}}, {"type": "node", "id": 7469297876, "lat": 66.0304045, "lon": 22.0123264, "tags": {"name": "Kungsbacken", "place": "hamlet"}}, {"type": "node", "id": 7469304644, "lat": 65.9349868, "lon": 22.1390347, "tags": {"name": "Skogen", "place": "hamlet"}}, {"type": "node", "id": 7469310593, "lat": 65.9294032, "lon": 22.1409557, "tags": {"name": "Gunnarsheden", "place": "hamlet"}}, {"type": "node", "id": 7469312709, "lat": 65.9978052, "lon": 22.1296403, "tags": {"name": "Lillholmen", "place": "hamlet"}}, {"type": "node", "id": 7469359047, "lat": 66.115725, "lon": 21.7891913, "tags": {"name": "Inadill", "place": "hamlet"}}, {"type": "node", "id": 7469376564, "lat": 66.192043, "lon": 21.5013438, "tags": {"name": "Br\u00e4ndberget", "place": "hamlet"}}, {"type": "node", "id": 7469381347, "lat": 66.0748273, "lon": 21.9923387, "tags": {"name": "V\u00e4stab\u00e4cken", "place": "hamlet"}}, {"type": "node", "id": 7469385257, "lat": 66.1147565, "lon": 21.812726, "tags": {"name": "R\u00f6r\u00e5n", "place": "hamlet"}}, {"type": "node", "id": 7469385628, "lat": 66.1197972, "lon": 21.6995662, "tags": {"name": "Korpdal", "place": "hamlet"}}, {"type": "node", "id": 7469390676, "lat": 66.0780409, "lon": 21.8100865, "tags": {"name": "Holmen", "place": "hamlet"}}, {"type": "node", "id": 7469395275, "lat": 66.0591799, "lon": 22.1526353, "tags": {"name": "Bjur\u00e5n\u00e4s", "place": "hamlet"}}, {"type": "node", "id": 7469397257, "lat": 66.0877613, "lon": 21.9768656, "tags": {"name": "Lilltr\u00e4sk", "place": "hamlet"}}, {"type": "node", "id": 7469402915, "lat": 66.1327233, "lon": 22.144477, "tags": {"name": "Kroktr\u00e4sk", "place": "hamlet"}}, {"type": "node", "id": 7469403998, "lat": 66.080998, "lon": 22.0087896, "tags": {"name": "Forstr\u00e4skhed", "place": "hamlet"}}, {"type": "node", "id": 7469404002, "lat": 66.0905636, "lon": 22.1718222, "tags": {"name": "Bjur\u00e5hed", "place": "hamlet"}}, {"type": "node", "id": 7469407744, "lat": 66.0408991, "lon": 22.0352127, "tags": {"name": "Fredrikafors", "place": "hamlet"}}, {"type": "node", "id": 7470355799, "lat": 66.0073549, "lon": 21.1227627, "tags": {"name": "\u00d6sterby", "place": "hamlet"}}, {"type": "node", "id": 7470357467, "lat": 66.0250907, "lon": 21.1125163, "tags": {"name": "V\u00e4sterbyn", "place": "hamlet"}}, {"type": "node", "id": 7470361447, "lat": 65.9654636, "lon": 21.2465155, "tags": {"name": "\u00d6ver\u00e4ng", "place": "hamlet"}}, {"type": "node", "id": 7470366140, "lat": 65.9865499, "lon": 21.228524, "tags": {"name": "\u00d6ver\u00e4nget", "place": "hamlet"}}, {"type": "node", "id": 7470367874, "lat": 66.0603757, "lon": 21.353866, "tags": {"name": "Nybyn", "place": "hamlet"}}, {"type": "node", "id": 7470378521, "lat": 65.9679402, "lon": 21.231932, "tags": {"name": "\u00c5kerby", "place": "hamlet"}}, {"type": "node", "id": 7470386777, "lat": 66.1192206, "lon": 21.7765747, "tags": {"name": "Nyv\u00e4gen", "place": "hamlet"}}, {"type": "node", "id": 7470400005, "lat": 66.1103069, "lon": 21.7934517, "tags": {"name": "N\u00e4set", "place": "hamlet"}}, {"type": "node", "id": 7470400410, "lat": 66.0753537, "lon": 21.6360196, "tags": {"name": "Abrams\u00e5n", "place": "hamlet"}}, {"type": "node", "id": 7470400896, "lat": 66.0809667, "lon": 21.4321597, "tags": {"name": "Degervattentj\u00e4rn", "place": "hamlet"}}, {"type": "node", "id": 7470402718, "lat": 66.1007299, "lon": 21.7743921, "tags": {"name": "S\u00f6riavan", "place": "hamlet"}}, {"type": "node", "id": 8238392195, "lat": 66.3799792, "lon": 21.6199554, "tags": {"name": "Aspberget", "place": "hamlet"}}, {"type": "node", "id": 9836985017, "lat": 66.1940083, "lon": 21.3413071, "tags": {"name": "Holmsvattnet", "place": "hamlet"}}, {"type": "node", "id": 9856051190, "lat": 66.3064137, "lon": 21.2236333, "tags": {"name": "Lill\u00e5fors", "place": "hamlet"}}]}