{"version": 0.6, "generator": "Overpass API 0.7.61.5 4133829e", "osm3s": {"timestamp_osm_base": "2024-03-05T15:10:59Z", "copyright": "The data included in this document is from www.openstreetmap.org. The data is made available under ODbL."}, "elements": [{"type": "node", "id": 28831095, "lat": 58.6990356, "lon": 12.4543462, "tags": {"name": "Mellerud", "name:ru": "\u041c\u0435\u043b\u043b\u0435\u0440\u0443\u0434", "place": "town", "population": "3871", "population:date": "2016", "ref:se:pts:postort": "MELLERUD", "ref:se:scb": "4952", "source:population": "SCB"}}, {"type": "node", "id": 28831161, "lat": 59.054803, "lon": 12.7057062, "tags": {"name": "\u00c5m\u00e5l", "name:ru": "\u041e\u043c\u043e\u043b\u044c", "place": "town", "population": "9065", "ref:se:pts:postort": "\u00c5M\u00c5L", "ref:se:scb": "5140"}}, {"type": "node", "id": 278975075, "lat": 58.9949441, "lon": 12.4639629, "tags": {"name": "Fengersfors", "place": "village", "population": "345", "ref:se:pts:postort": "FENGERSFORS", "ref:se:scb": "4800", "wikidata": "Q2204858"}}, {"type": "node", "id": 278975076, "lat": 58.9259057, "lon": 12.3063826, "tags": {"name": "Dals L\u00e5nged", "place": "village", "population": "1462", "population:date": "2016", "ref:se:pts:postort": "DALS L\u00c5NGED", "ref:se:scb": "4772", "source:population": "SCB", "wikidata": "Q1839844"}}, {"type": "node", "id": 278977353, "lat": 58.7484977, "lon": 12.2929043, "tags": {"name": "Dalskog", "place": "hamlet", "population": "133", "population:date": "2010", "ref:se:pts:postort": "DALSKOG", "ref:se:scb": "S4929", "source:population": "SCB"}}, {"type": "node", "id": 278977561, "lat": 58.6325356, "lon": 12.4122144, "tags": {"name": "Erikstad", "place": "hamlet", "population": "64", "population:date": "2010", "ref:se:scb": "S4957", "source:population": "SCB", "wikidata": "Q4349594"}}, {"type": "node", "id": 288703800, "lat": 58.9833543, "lon": 12.2467712, "tags": {"name": "Billingsfors", "place": "village", "population": "1207", "population:date": "2016", "ref:se:pts:postort": "BILLINGSFORS", "ref:se:scb": "4728", "source:population": "SCB", "wikidata": "Q2663175"}}, {"type": "node", "id": 288731537, "lat": 58.7140856, "lon": 12.3556541, "tags": {"name": "Dals Rostock", "place": "village", "population": "918", "population:date": "2016", "ref:se:pts:postort": "DALS ROSTOCK", "ref:se:scb": "4776", "source:population": "SCB", "wikidata": "Q1158074"}}, {"type": "node", "id": 290954744, "lat": 59.0228398, "lon": 12.2890024, "tags": {"name": "Sk\u00e5pafors", "place": "village", "population": "357", "population:date": "2016", "ref:se:pts:postort": "SK\u00c5PAFORS", "ref:se:scb": "5040", "source:population": "SCB", "wikidata": "Q1891564"}}, {"type": "node", "id": 304874809, "lat": 58.8237245, "lon": 12.4151414, "tags": {"name": "H\u00e5verud", "place": "hamlet", "population": "141", "population:date": "2010", "ref:se:pts:postort": "H\u00c5VERUD", "ref:se:scb": "S5063", "source:population": "SCB"}}, {"type": "node", "id": 410706742, "lat": 58.9719043, "lon": 12.6448606, "tags": {"name": "T\u00f6sse", "place": "village", "population": "305", "ref:se:pts:postort": "T\u00d6SSE", "ref:se:scb": "5096", "wikidata": "Q2196309"}}, {"type": "node", "id": 410706749, "lat": 58.9643483, "lon": 12.6589926, "tags": {"name": "T\u00f6sseb\u00e4cken", "place": "hamlet"}}, {"type": "node", "id": 411397901, "lat": 59.0013974, "lon": 12.6292278, "tags": {"name": "Sotebyn", "place": "hamlet"}}, {"type": "node", "id": 411397926, "lat": 59.0168454, "lon": 12.5713913, "tags": {"name": "Stora Bodane", "place": "hamlet"}}, {"type": "node", "id": 411397928, "lat": 58.9998686, "lon": 12.5900682, "tags": {"name": "Gunnebyn", "place": "hamlet"}}, {"type": "node", "id": 411399712, "lat": 58.9366103, "lon": 12.5254053, "tags": {"name": "Sandbol", "place": "hamlet"}}, {"type": "node", "id": 411399744, "lat": 58.8292538, "lon": 12.495872, "tags": {"name": "Sn\u00e4cke", "place": "hamlet"}}, {"type": "node", "id": 464007162, "lat": 59.0582051, "lon": 12.4603121, "tags": {"name": "Edsleskog", "place": "hamlet", "population": "73", "ref:se:scb": "S4937"}}, {"type": "node", "id": 627752034, "lat": 58.9771817, "lon": 12.468427, "tags": {"name": "Fr\u00f6skog", "place": "hamlet", "population": "73", "ref:se:scb": "S4985"}}, {"type": "node", "id": 863275085, "lat": 59.0168485, "lon": 12.5253616, "tags": {"name": "Knuffelbodane", "place": "hamlet"}}, {"type": "node", "id": 1282600798, "lat": 58.8123667, "lon": 12.4373002, "tags": {"name": "Upperud", "place": "hamlet"}}, {"type": "node", "id": 2235762167, "lat": 58.7755335, "lon": 12.5049807, "tags": {"name": "K\u00f6pmannebro", "place": "hamlet", "population": "79", "population:date": "2010", "ref:se:pts:postort": "K\u00d6PMANNEBRO", "ref:se:scb": "S5115", "source:population": "SCB"}}, {"type": "node", "id": 2235762168, "lat": 58.8777964, "lon": 12.5681461, "tags": {"name": "\u00c5nimskog", "place": "hamlet", "population": "52", "ref:se:pts:postort": "\u00c5NIMSKOG", "ref:se:scb": "S5277"}}, {"type": "node", "id": 2236313294, "lat": 58.8072431, "lon": 12.4194782, "tags": {"name": "\u00c5sensbruk", "place": "village", "population": "755", "population:date": "2016", "ref:se:pts:postort": "\u00c5SENSBRUK", "ref:se:scb": "5144", "source:population": "SCB"}}, {"type": "node", "id": 2308406187, "lat": 58.9521214, "lon": 12.2855489, "tags": {"name": "Ekebol", "place": "hamlet", "population": "64", "population:date": "2010", "ref:se:scb": "S4945", "source:population": "SCB"}}, {"type": "node", "id": 2422538176, "lat": 59.0337079, "lon": 12.3034043, "tags": {"name": "Flatebyn", "place": "hamlet"}}, {"type": "node", "id": 2766417628, "lat": 58.9605976, "lon": 12.3154824, "tags": {"name": "S\u00f6dra Fj\u00e4ll", "place": "hamlet"}}, {"type": "node", "id": 3071939407, "lat": 58.6879697, "lon": 12.2887629}, {"type": "node", "id": 3071939408, "lat": 58.6870889, "lon": 12.2878226}, {"type": "node", "id": 3512891725, "lat": 58.6879796, "lon": 12.2883626}, {"type": "node", "id": 3647727233, "lat": 58.640061, "lon": 12.659836}, {"type": "node", "id": 3647727234, "lat": 58.6396228, "lon": 12.659608}, {"type": "node", "id": 3647727235, "lat": 58.6404421, "lon": 12.6523767}, {"type": "node", "id": 3647727236, "lat": 58.6397142, "lon": 12.6521404}, {"type": "node", "id": 3647729032, "lat": 58.6401427, "lon": 12.6609713}, {"type": "node", "id": 3647729033, "lat": 58.6400024, "lon": 12.6609457}, {"type": "node", "id": 3647729034, "lat": 58.639895, "lon": 12.6612146}, {"type": "node", "id": 3647729035, "lat": 58.6398025, "lon": 12.6612194}, {"type": "node", "id": 3647729036, "lat": 58.6397151, "lon": 12.6613923}, {"type": "node", "id": 3647729037, "lat": 58.6396551, "lon": 12.6617284}, {"type": "node", "id": 3647729038, "lat": 58.6395427, "lon": 12.6605328}, {"type": "node", "id": 3647729039, "lat": 58.6389122, "lon": 12.6599987}, {"type": "node", "id": 3647729040, "lat": 58.6388648, "lon": 12.6630861}, {"type": "node", "id": 3647729041, "lat": 58.6388105, "lon": 12.6645191}, {"type": "node", "id": 3647729042, "lat": 58.6385461, "lon": 12.6647926}, {"type": "node", "id": 3647729043, "lat": 58.6388783, "lon": 12.6662256}, {"type": "node", "id": 3647729044, "lat": 58.6393034, "lon": 12.6665472}, {"type": "node", "id": 3647729045, "lat": 58.6392909, "lon": 12.6675074}, {"type": "node", "id": 3647729046, "lat": 58.639111, "lon": 12.6677475}, {"type": "node", "id": 3647729047, "lat": 58.6385437, "lon": 12.6677283}, {"type": "node", "id": 3647729048, "lat": 58.6384663, "lon": 12.6675362}, {"type": "node", "id": 3647729049, "lat": 58.6383214, "lon": 12.6663983}, {"type": "node", "id": 3647729050, "lat": 58.6381939, "lon": 12.6656301}, {"type": "node", "id": 3647729051, "lat": 58.6382293, "lon": 12.6646876}, {"type": "node", "id": 3647729052, "lat": 58.6382417, "lon": 12.6602411}, {"type": "node", "id": 3647729053, "lat": 58.638357, "lon": 12.658248}, {"type": "node", "id": 3647729054, "lat": 58.638734, "lon": 12.6539602}, {"type": "node", "id": 3660253167, "lat": 58.7079686, "lon": 12.2833374}, {"type": "node", "id": 3660253168, "lat": 58.7074225, "lon": 12.2856978}, {"type": "node", "id": 3660253169, "lat": 58.7064862, "lon": 12.2839812}, {"type": "node", "id": 3660253170, "lat": 58.7057841, "lon": 12.2824148}, {"type": "node", "id": 3660253171, "lat": 58.7062968, "lon": 12.2799471}, {"type": "node", "id": 3660253172, "lat": 58.7074559, "lon": 12.2800973}, {"type": "node", "id": 3660253173, "lat": 58.7079574, "lon": 12.2818139}, {"type": "node", "id": 3660260297, "lat": 58.6890557, "lon": 12.2926018}, {"type": "node", "id": 3660260298, "lat": 58.6881971, "lon": 12.2918937}, {"type": "node", "id": 3660260299, "lat": 58.6869425, "lon": 12.2887287}, {"type": "node", "id": 3660260300, "lat": 58.6856043, "lon": 12.2883532}, {"type": "node", "id": 3660260301, "lat": 58.6858552, "lon": 12.2869906}, {"type": "node", "id": 3660260302, "lat": 58.6869091, "lon": 12.2861752}, {"type": "node", "id": 3708708279, "lat": 58.6959865, "lon": 12.3704914, "tags": {"name": "Eriksbyn", "place": "hamlet"}}, {"type": "node", "id": 3709124203, "lat": 58.6856507, "lon": 12.2877613}, {"type": "node", "id": 3709124204, "lat": 58.6857377, "lon": 12.2872773}, {"type": "node", "id": 3709124205, "lat": 58.6862937, "lon": 12.286546}, {"type": "node", "id": 3709124206, "lat": 58.6862558, "lon": 12.2886418}, {"type": "node", "id": 3709124207, "lat": 58.6858398, "lon": 12.2883689}, {"type": "node", "id": 3709124208, "lat": 58.6865925, "lon": 12.2887001}, {"type": "node", "id": 3709124300, "lat": 58.6888, "lon": 12.2893626}, {"type": "node", "id": 3709124301, "lat": 58.688554, "lon": 12.2901182}, {"type": "node", "id": 3709124302, "lat": 58.6890997, "lon": 12.2914774}, {"type": "node", "id": 3917766782, "lat": 58.7074339, "lon": 12.2856484}, {"type": "node", "id": 3919648602, "lat": 58.6886023, "lon": 12.2911392}, {"type": "node", "id": 3981365681, "lat": 58.8517904, "lon": 12.3987174, "tags": {"name": "Buterud", "place": "hamlet"}}, {"type": "node", "id": 4268521765, "lat": 58.6388778, "lon": 12.6525279}, {"type": "node", "id": 4281278682, "lat": 58.6385642, "lon": 12.6557964}, {"type": "node", "id": 4281278854, "lat": 58.6390405, "lon": 12.6519733}, {"type": "node", "id": 4281278971, "lat": 58.6395883, "lon": 12.6521056}, {"type": "node", "id": 4281278982, "lat": 58.6396573, "lon": 12.6596777}, {"type": "node", "id": 4281279005, "lat": 58.6397885, "lon": 12.6520733}, {"type": "node", "id": 4281279008, "lat": 58.6398192, "lon": 12.6597179}, {"type": "node", "id": 4281279039, "lat": 58.639949, "lon": 12.6597689}, {"type": "node", "id": 4281279042, "lat": 58.6399979, "lon": 12.6603563}, {"type": "node", "id": 4281279043, "lat": 58.6400272, "lon": 12.6606514}, {"type": "node", "id": 4281279044, "lat": 58.6400509, "lon": 12.6601364}, {"type": "node", "id": 4281279050, "lat": 58.6401748, "lon": 12.6520559}, {"type": "node", "id": 4332921549, "lat": 58.7069163, "lon": 12.4315037, "tags": {"name": "Br\u00f6ttorp", "place": "hamlet", "source": "survey"}}, {"type": "node", "id": 4336157481, "lat": 58.7157957, "lon": 12.3733814, "tags": {"name": "H\u00e4llan", "place": "hamlet", "source": "survey"}}, {"type": "node", "id": 4336157484, "lat": 58.709053, "lon": 12.4070968, "tags": {"name": "Lindstorp", "place": "hamlet", "source": "survey"}}, {"type": "node", "id": 4336157568, "lat": 58.6993089, "lon": 12.3947522, "tags": {"name": "\u00d6stevatten", "place": "hamlet", "source": "survey"}}, {"type": "node", "id": 4338616047, "lat": 58.7083477, "lon": 12.4844749, "tags": {"name": "Sunnan\u00e5 S\u00e4ter", "place": "hamlet"}}, {"type": "node", "id": 4338632276, "lat": 58.715768, "lon": 12.4834369, "tags": {"name": "\u00d6stan\u00e5", "place": "hamlet"}}, {"type": "node", "id": 4343630831, "lat": 58.6630103, "lon": 12.5321855, "tags": {"name": "B\u00f6n", "place": "hamlet", "source": "survey"}}, {"type": "node", "id": 4343630832, "lat": 58.6741826, "lon": 12.5278605, "tags": {"name": "Furusand", "place": "hamlet", "source": "survey"}}, {"type": "node", "id": 4343630833, "lat": 58.6610194, "lon": 12.5539926, "tags": {"name": "N\u00e4s Sannar", "place": "hamlet", "source": "survey"}}, {"type": "node", "id": 4343633577, "lat": 58.6584441, "lon": 12.551643, "tags": {"name": "\u00d6stra J\u00e4rn", "place": "hamlet", "source": "survey"}}, {"type": "node", "id": 4343695386, "lat": 58.6440423, "lon": 12.612625, "tags": {"name": "Jakobsbyn", "place": "village", "source": "survey"}}, {"type": "node", "id": 4343695387, "lat": 58.6343101, "lon": 12.6290462, "tags": {"name": "Stocken\u00e4s", "place": "hamlet", "source": "survey"}}, {"type": "node", "id": 4343695388, "lat": 58.6543685, "lon": 12.6360231, "tags": {"name": "Svarteb\u00e4ck", "place": "hamlet", "source": "survey"}}, {"type": "node", "id": 4343695389, "lat": 58.6392651, "lon": 12.657608, "tags": {"name": "Udden", "place": "hamlet", "source": "survey"}}, {"type": "node", "id": 4346515525, "lat": 58.6457207, "lon": 12.4544876, "tags": {"name": "Hamrane", "place": "hamlet", "source": "survey"}}, {"type": "node", "id": 4356667198, "lat": 58.6422668, "lon": 12.4201013, "tags": {"name": "\u00c4ckerud", "place": "hamlet", "source": "survey"}}, {"type": "node", "id": 4356686506, "lat": 58.6930998, "lon": 12.3930167, "tags": {"name": "\u00c5snebyn", "place": "hamlet", "source": "survey"}}, {"type": "node", "id": 4356709904, "lat": 58.6784625, "lon": 12.3389396, "tags": {"name": "Frestersbyn", "place": "hamlet", "source": "survey"}}, {"type": "node", "id": 4356709905, "lat": 58.682461, "lon": 12.326197, "tags": {"name": "Hagen", "place": "hamlet", "source": "survey"}}, {"type": "node", "id": 4356709906, "lat": 58.6860861, "lon": 12.34196, "tags": {"name": "Rud", "place": "hamlet"}}, {"type": "node", "id": 4356709908, "lat": 58.6321282, "lon": 12.3577027, "tags": {"name": "\u00d6rn\u00e4s", "place": "hamlet", "source": "survey"}}, {"type": "node", "id": 4356709910, "lat": 58.6564875, "lon": 12.3419019, "tags": {"name": "\u00d6rsberg", "place": "hamlet", "source": "survey"}}, {"type": "node", "id": 4374591083, "lat": 58.68097, "lon": 12.3707118, "tags": {"name": "Gatan", "place": "hamlet", "source": "survey"}}, {"type": "node", "id": 4374669634, "lat": 58.7643314, "lon": 12.3909852, "tags": {"name": "Anolfsbyn", "place": "hamlet", "source": "survey"}}, {"type": "node", "id": 4374669635, "lat": 58.7411323, "lon": 12.3874673, "tags": {"name": "L\u00e5ttsbyn", "place": "hamlet", "source": "survey"}}, {"type": "node", "id": 4374701310, "lat": 58.7902106, "lon": 12.4295206, "tags": {"name": "Sk\u00e5llerud", "place": "hamlet"}}, {"type": "node", "id": 4386070643, "lat": 58.6239305, "lon": 12.3502855, "tags": {"name": "Assarebyn", "place": "hamlet"}}, {"type": "node", "id": 4386090229, "lat": 58.6599852, "lon": 12.2872711, "tags": {"name": "Gunvarbyn", "place": "hamlet"}}, {"type": "node", "id": 4394890680, "lat": 58.8160932, "lon": 12.4591388, "tags": {"name": "\u00d6stebo", "place": "hamlet", "source": "survey"}}, {"type": "node", "id": 4408679512, "lat": 58.9243711, "lon": 12.4360279, "tags": {"name": "H\u00f6gelund", "place": "hamlet", "source": "survey"}}, {"type": "node", "id": 4431807637, "lat": 58.8989891, "lon": 12.3827578, "tags": {"name": "H\u00f6gsbyn", "place": "hamlet", "source": "survey"}}, {"type": "node", "id": 5032905213, "lat": 58.9348753, "lon": 12.6507934, "tags": {"name": "Rolfsk\u00e4rs Stugby", "place": "hamlet"}}, {"type": "node", "id": 5032909726, "lat": 58.9382501, "lon": 12.6339401, "tags": {"name": "Rolfsbyn", "place": "hamlet"}}, {"type": "node", "id": 6239684654, "lat": 58.9085353, "lon": 12.3976421, "tags": {"name": "Tisselskog", "place": "hamlet"}}, {"type": "node", "id": 7099536614, "lat": 58.6839535, "lon": 12.2864377, "tags": {"name": "Forsebol", "place": "hamlet"}}, {"type": "node", "id": 7099538845, "lat": 58.6671254, "lon": 12.2834229, "tags": {"name": "\u00c5smule", "place": "hamlet"}}, {"type": "node", "id": 7449898995, "lat": 58.9421166, "lon": 12.3166965, "tags": {"name": "\u00d6stra Havden", "place": "hamlet"}}, {"type": "node", "id": 7473071756, "lat": 59.0327924, "lon": 13.0740036, "tags": {"name": "Rud", "place": "hamlet"}}, {"type": "node", "id": 7473370870, "lat": 59.0628274, "lon": 13.0087285, "tags": {"name": "Anneberg", "place": "hamlet"}}, {"type": "node", "id": 7473375543, "lat": 59.0713359, "lon": 12.9511156, "tags": {"name": "Arvsbyn", "place": "hamlet"}}, {"type": "node", "id": 7473378373, "lat": 59.0644024, "lon": 13.0722764, "tags": {"name": "NorraTorp", "place": "hamlet"}}, {"type": "node", "id": 7473382527, "lat": 59.0710644, "lon": 12.9609045, "tags": {"name": "Mon", "place": "hamlet"}}, {"type": "node", "id": 7473384940, "lat": 59.0722498, "lon": 12.9429427, "tags": {"name": "V\u00e4sby", "place": "hamlet"}}, {"type": "node", "id": 7482047236, "lat": 58.8947932, "lon": 12.5453344, "tags": {"name": "\u00c5nimskogs g\u00e5rd", "place": "hamlet"}}, {"type": "node", "id": 7482053422, "lat": 58.9662244, "lon": 12.6133619, "tags": {"name": "Norra Torpane", "place": "hamlet"}}, {"type": "node", "id": 7482057625, "lat": 58.948933, "lon": 12.6382956, "tags": {"name": "\u00d6stra Sj\u00f6gar", "place": "hamlet"}}, {"type": "node", "id": 7482058408, "lat": 58.8441415, "lon": 12.5631526, "tags": {"name": "Yllingebol", "place": "hamlet"}}, {"type": "node", "id": 7482058824, "lat": 59.0559634, "lon": 12.671079, "tags": {"name": "V\u00e4stra \u00c5sen", "place": "hamlet"}}, {"type": "node", "id": 7482059603, "lat": 58.8487194, "lon": 12.5594132, "tags": {"name": "Sk\u00e5llebyn", "place": "hamlet"}}, {"type": "node", "id": 7482060246, "lat": 58.8478052, "lon": 12.5300119, "tags": {"name": "Knollen", "place": "hamlet"}}, {"type": "node", "id": 7482064605, "lat": 58.8801506, "lon": 12.540034, "tags": {"name": "Stora Mossen", "place": "hamlet"}}, {"type": "node", "id": 7482064606, "lat": 58.9482889, "lon": 12.5210536, "tags": {"name": "Stora Strand", "place": "hamlet"}}, {"type": "node", "id": 7482064702, "lat": 58.8431269, "lon": 12.5446318, "tags": {"name": "\u00c5rebol", "place": "hamlet"}}, {"type": "node", "id": 7482074413, "lat": 58.8559851, "lon": 12.5521961, "tags": {"name": "Slobol", "place": "hamlet"}}, {"type": "node", "id": 7482074888, "lat": 58.8681155, "lon": 12.6294564, "tags": {"name": "\u00d6stra Bodane", "place": "hamlet"}}, {"type": "node", "id": 7482085050, "lat": 58.8402985, "lon": 12.5255562, "tags": {"name": "S\u00e4ljebyn", "place": "hamlet"}}, {"type": "node", "id": 7482104243, "lat": 58.8416235, "lon": 12.5583965, "tags": {"name": "Orrebol", "place": "hamlet"}}, {"type": "node", "id": 7482163929, "lat": 58.9670717, "lon": 12.5054354, "tags": {"name": "Vallsj\u00f6n", "place": "hamlet"}}, {"type": "node", "id": 7482172049, "lat": 58.9565952, "lon": 12.5149068, "tags": {"name": "\u00d6stersbyn", "place": "hamlet"}}, {"type": "node", "id": 7482232480, "lat": 58.8878598, "lon": 12.499839, "tags": {"name": "Annolfsbyn", "place": "hamlet"}}, {"type": "node", "id": 7482290135, "lat": 58.8740075, "lon": 12.5387045, "tags": {"name": "Bolet", "place": "hamlet"}}, {"type": "node", "id": 7482391757, "lat": 58.9290738, "lon": 12.5321077, "tags": {"name": "S\u00e4byn", "place": "hamlet"}}, {"type": "node", "id": 7482394266, "lat": 58.9267789, "lon": 12.5408052, "tags": {"name": "Galmen", "place": "hamlet"}}, {"type": "node", "id": 7482439394, "lat": 58.9183662, "lon": 12.5010902, "tags": {"name": "Vingn\u00e4s", "place": "hamlet"}}, {"type": "node", "id": 7482443553, "lat": 58.9193934, "lon": 12.5251905, "tags": {"name": "Kingebol", "place": "hamlet"}}, {"type": "node", "id": 7482525676, "lat": 59.0353788, "lon": 12.5062047, "tags": {"name": "Torpane", "place": "hamlet"}}, {"type": "node", "id": 7482530535, "lat": 59.0525563, "lon": 12.5044342, "tags": {"name": "R\u00e5detorp", "place": "hamlet"}}, {"type": "node", "id": 7482544437, "lat": 58.9356911, "lon": 12.601068, "tags": {"name": "G\u00e4rdsbyn", "place": "hamlet"}}, {"type": "node", "id": 7482622883, "lat": 59.0108278, "lon": 12.5677271, "tags": {"name": "Utbodane", "place": "hamlet"}}, {"type": "node", "id": 7482625553, "lat": 58.9405328, "lon": 12.5862962, "tags": {"name": "\u00c5lerud", "place": "hamlet"}}, {"type": "node", "id": 7482654511, "lat": 58.983135, "lon": 12.5458061, "tags": {"name": "Hannebol", "place": "hamlet"}}, {"type": "node", "id": 7482674168, "lat": 58.9368703, "lon": 12.5983334, "tags": {"name": "Hult", "place": "hamlet"}}, {"type": "node", "id": 7482713380, "lat": 58.9751169, "lon": 12.5993377, "tags": {"name": "H\u00e4sselbacka", "place": "hamlet"}}, {"type": "node", "id": 7482759748, "lat": 58.9533598, "lon": 12.5538873, "tags": {"name": "L\u00e5ngerud", "place": "hamlet"}}, {"type": "node", "id": 7482767558, "lat": 58.9651866, "lon": 12.537657, "tags": {"name": "Hult", "place": "hamlet"}}, {"type": "node", "id": 7482767916, "lat": 58.9686847, "lon": 12.5230298, "tags": {"name": "Sp\u00e4tthult", "place": "hamlet"}}, {"type": "node", "id": 7482769608, "lat": 59.0166548, "lon": 12.5684137, "tags": {"name": "Skr\u00e4nna", "place": "hamlet"}}, {"type": "node", "id": 7482770918, "lat": 58.8910475, "lon": 12.5991437, "tags": {"name": "\u00d6stra Berg", "place": "hamlet"}}, {"type": "node", "id": 7482772288, "lat": 59.0056762, "lon": 12.571954, "tags": {"name": "S\u00f6derbodane", "place": "hamlet"}}, {"type": "node", "id": 7482772462, "lat": 58.9834715, "lon": 12.5948165, "tags": {"name": "H\u00e4ngelsrud", "place": "hamlet"}}, {"type": "node", "id": 7482773081, "lat": 58.9538811, "lon": 12.6405396, "tags": {"name": "Nyg\u00e5rd", "place": "hamlet"}}, {"type": "node", "id": 7482774342, "lat": 58.8950265, "lon": 12.5824002, "tags": {"name": "Hult", "place": "hamlet"}}, {"type": "node", "id": 7482776344, "lat": 59.0464305, "lon": 12.611105, "tags": {"name": "Sk\u00e4llebyn", "place": "hamlet"}}, {"type": "node", "id": 7482778307, "lat": 59.0103039, "lon": 12.6136332, "tags": {"name": "Dalen", "place": "hamlet"}}, {"type": "node", "id": 7482779505, "lat": 58.8949081, "lon": 12.5766428, "tags": {"name": "Krusebol", "place": "hamlet"}}, {"type": "node", "id": 7482788657, "lat": 58.8925161, "lon": 12.5903143, "tags": {"name": "L\u00e5gen", "place": "hamlet"}}, {"type": "node", "id": 7482801673, "lat": 58.8854373, "lon": 12.6015237, "tags": {"name": "Tollesbyn", "place": "hamlet"}}, {"type": "node", "id": 7482801676, "lat": 58.9563862, "lon": 12.6174243, "tags": {"name": "Tydjebyn", "place": "hamlet"}}, {"type": "node", "id": 7482804678, "lat": 58.9379858, "lon": 12.635146, "tags": {"name": "Rolfsk\u00e4rr", "place": "hamlet"}}, {"type": "node", "id": 7482810541, "lat": 59.0071593, "lon": 12.6910542, "tags": {"name": "Bj\u00e4kebol", "place": "hamlet"}}, {"type": "node", "id": 7482810740, "lat": 58.9569644, "lon": 12.6500786, "tags": {"name": "Tybyb\u00e4cken", "place": "hamlet"}}, {"type": "node", "id": 7482811766, "lat": 58.9713088, "lon": 12.6025801, "tags": {"name": "Hallebol", "place": "hamlet"}}, {"type": "node", "id": 7482814393, "lat": 58.9681008, "lon": 12.6345171, "tags": {"name": "Frills\u00e4ter", "place": "hamlet"}}, {"type": "node", "id": 7482819808, "lat": 58.9308564, "lon": 12.6221594, "tags": {"name": "Sl\u00e4dek\u00e4rr", "place": "hamlet"}}, {"type": "node", "id": 7482820699, "lat": 58.9552337, "lon": 12.6066957, "tags": {"name": "V\u00e4stan\u00e5", "place": "hamlet"}}, {"type": "node", "id": 7482830917, "lat": 58.9360509, "lon": 12.6120351, "tags": {"name": "Rolfsbyn", "place": "hamlet"}}, {"type": "node", "id": 7482850847, "lat": 59.0065827, "lon": 12.6854815, "tags": {"name": "Torsbyn", "place": "hamlet"}}, {"type": "node", "id": 7482850991, "lat": 58.9964323, "lon": 12.6812995, "tags": {"name": "Bredvik", "place": "hamlet"}}, {"type": "node", "id": 7482855299, "lat": 59.0253322, "lon": 12.6256207, "tags": {"name": "Slommerud", "place": "hamlet"}}, {"type": "node", "id": 7482878096, "lat": 59.0342378, "lon": 12.6158909, "tags": {"name": "Sigerud", "place": "hamlet"}}, {"type": "node", "id": 7482893199, "lat": 59.0543498, "lon": 12.6183678, "tags": {"name": "Fagerhult", "place": "hamlet"}}, {"type": "node", "id": 7482897553, "lat": 59.0309607, "lon": 12.7071397, "tags": {"name": "M\u00f6rtebol", "place": "hamlet"}}, {"type": "node", "id": 7482912106, "lat": 59.0493168, "lon": 12.6230011, "tags": {"name": "Gunrabol", "place": "hamlet"}}, {"type": "node", "id": 7482912602, "lat": 59.0573224, "lon": 12.6395777, "tags": {"name": "Larsbol", "place": "hamlet"}}, {"type": "node", "id": 7482916475, "lat": 59.0446485, "lon": 12.6636002, "tags": {"name": "S\u00e4ter", "place": "hamlet"}}, {"type": "node", "id": 7482938205, "lat": 59.0196744, "lon": 12.7034398, "tags": {"name": "Knyttk\u00e4rr", "place": "hamlet"}}, {"type": "node", "id": 7482955011, "lat": 59.0431328, "lon": 12.6267887, "tags": {"name": "Jakobsbyn", "place": "hamlet"}}, {"type": "node", "id": 7482975547, "lat": 59.0610366, "lon": 12.6108224, "tags": {"name": "Kroken", "place": "hamlet"}}, {"type": "node", "id": 7482975552, "lat": 59.0550986, "lon": 12.5153862, "tags": {"name": "R\u00e5dane", "place": "hamlet"}}, {"type": "node", "id": 7483850051, "lat": 58.6720216, "lon": 12.3444086, "tags": {"name": "Svalungebyn", "place": "hamlet"}}, {"type": "node", "id": 7483903261, "lat": 58.8134394, "lon": 12.3954675, "tags": {"name": "Stora Liane", "place": "hamlet"}}, {"type": "node", "id": 7483905075, "lat": 58.7787398, "lon": 12.4932545, "tags": {"name": "Norra \u00d6deg\u00e5rden", "place": "hamlet"}}, {"type": "node", "id": 7483906354, "lat": 58.7037171, "lon": 12.3682914, "tags": {"name": "S\u00f6dra B\u00e4ckebol", "place": "hamlet"}}, {"type": "node", "id": 7483913955, "lat": 58.7224471, "lon": 12.3723223, "tags": {"name": "Norra B\u00e4ckebol", "place": "hamlet"}}, {"type": "node", "id": 7483939012, "lat": 58.720471, "lon": 12.4472748, "tags": {"name": "V\u00e4stra V\u00e4ssby", "place": "hamlet"}}, {"type": "node", "id": 7483939434, "lat": 58.7148966, "lon": 12.4554108, "tags": {"name": "\u00d6stra V\u00e4ssby", "place": "hamlet"}}, {"type": "node", "id": 7483976678, "lat": 58.7737315, "lon": 12.3064221, "tags": {"name": "Norra B\u00e5sane", "place": "hamlet"}}, {"type": "node", "id": 7484423512, "lat": 58.6254304, "lon": 12.2932951, "tags": {"name": "Torbj\u00f6rbyn", "place": "hamlet"}}, {"type": "node", "id": 7484435825, "lat": 58.6311162, "lon": 12.3352118, "tags": {"name": "Anolfsbol", "place": "hamlet"}}, {"type": "node", "id": 7484452608, "lat": 58.6244391, "lon": 12.3311895, "tags": {"name": "Kyrkebol", "place": "hamlet"}}, {"type": "node", "id": 7484463563, "lat": 58.623874, "lon": 12.285907, "tags": {"name": "Gullesbyn", "place": "hamlet"}}, {"type": "node", "id": 7484630469, "lat": 58.6452801, "lon": 12.3879437, "tags": {"name": "R\u00e5skogen", "place": "hamlet"}}, {"type": "node", "id": 7484631048, "lat": 58.6573378, "lon": 12.403901, "tags": {"name": "F\u00e5gelbacka", "place": "hamlet"}}, {"type": "node", "id": 7484647118, "lat": 58.6416335, "lon": 12.3880506, "tags": {"name": "Runneberget", "place": "hamlet"}}, {"type": "node", "id": 7484651046, "lat": 58.6346049, "lon": 12.3694132, "tags": {"name": "H\u00e4lleb\u00e4ck", "place": "hamlet"}}, {"type": "node", "id": 7484651378, "lat": 58.6286231, "lon": 12.4148278, "tags": {"name": "Sk\u00e5kerud", "place": "hamlet"}}, {"type": "node", "id": 7484757069, "lat": 58.6336858, "lon": 12.4337724, "tags": {"name": "Bj\u00f6rnebol", "place": "hamlet"}}, {"type": "node", "id": 7484781845, "lat": 58.6577746, "lon": 12.4475321, "tags": {"name": "Smedsbol", "place": "hamlet"}}, {"type": "node", "id": 7484792021, "lat": 58.6521406, "lon": 12.446816, "tags": {"name": "Siribyn", "place": "hamlet"}}, {"type": "node", "id": 7484805785, "lat": 58.6483483, "lon": 12.4626244, "tags": {"name": "Simmerud", "place": "hamlet"}}, {"type": "node", "id": 7484821924, "lat": 58.6265374, "lon": 12.449001, "tags": {"name": "B\u00f6n", "place": "hamlet"}}, {"type": "node", "id": 7484875574, "lat": 58.6320247, "lon": 12.4734204, "tags": {"name": "K\u00e4llingerud", "place": "hamlet"}}, {"type": "node", "id": 7484930308, "lat": 58.6601732, "lon": 12.476873, "tags": {"name": "Kroken", "place": "hamlet"}}, {"type": "node", "id": 7484936201, "lat": 58.638808, "lon": 12.4813898, "tags": {"name": "Kl\u00e4tten", "place": "hamlet"}}, {"type": "node", "id": 7487503530, "lat": 58.6524981, "lon": 12.3581354, "tags": {"name": "Gr\u00f6s\u00e4ter", "place": "hamlet"}}, {"type": "node", "id": 7487510810, "lat": 58.6440476, "lon": 12.3153637, "tags": {"name": "Sk\u00f6ttevattnet", "place": "hamlet"}}, {"type": "node", "id": 7487522310, "lat": 58.6565369, "lon": 12.3047878, "tags": {"name": "Backen", "place": "hamlet"}}, {"type": "node", "id": 7487560613, "lat": 58.7066177, "lon": 12.2741317, "tags": {"name": "Blikserud", "place": "hamlet"}}, {"type": "node", "id": 7487581138, "lat": 58.7224123, "lon": 12.2711308, "tags": {"name": "\u00d6jerud", "place": "hamlet"}}, {"type": "node", "id": 7487606068, "lat": 58.7419566, "lon": 12.2803635, "tags": {"name": "Gunnersbyn", "place": "hamlet"}}, {"type": "node", "id": 7487687079, "lat": 58.6741629, "lon": 12.435536, "tags": {"name": "Rearsbyn", "place": "hamlet"}}, {"type": "node", "id": 7487702668, "lat": 58.6909915, "lon": 12.4331333, "tags": {"name": "G\u00e4rdsrud", "place": "hamlet"}}, {"type": "node", "id": 7487714513, "lat": 58.6830101, "lon": 12.4207221, "tags": {"name": "Svennungerud", "place": "hamlet"}}, {"type": "node", "id": 7487714661, "lat": 58.6609041, "lon": 12.3754805, "tags": {"name": "Hj\u00e4rtungen", "place": "hamlet"}}, {"type": "node", "id": 7487720223, "lat": 58.6714693, "lon": 12.3761161, "tags": {"name": "H\u00e4llan", "place": "hamlet"}}, {"type": "node", "id": 7487721069, "lat": 58.6721585, "lon": 12.4061476, "tags": {"name": "Jonserud", "place": "hamlet"}}, {"type": "node", "id": 7487731203, "lat": 58.6814049, "lon": 12.4157019, "tags": {"name": "Kambol", "place": "hamlet"}}, {"type": "node", "id": 7487732436, "lat": 58.6598956, "lon": 12.3572238, "tags": {"name": "Korpetorp", "place": "hamlet"}}, {"type": "node", "id": 7487733298, "lat": 58.6660526, "lon": 12.4690692, "tags": {"name": "L\u00e5ssbyn", "place": "hamlet"}}, {"type": "node", "id": 7487733575, "lat": 58.6608989, "lon": 12.4362141, "tags": {"name": "P\u00e5lb\u00f6n", "place": "hamlet"}}, {"type": "node", "id": 7487738164, "lat": 58.6883091, "lon": 12.472254, "tags": {"name": "T\u00e4ppan", "place": "hamlet"}}, {"type": "node", "id": 7487739649, "lat": 58.6608951, "lon": 12.4103484, "tags": {"name": "H\u00e4rlogsbyn", "place": "hamlet"}}, {"type": "node", "id": 7487739950, "lat": 58.6852041, "lon": 12.4883565, "tags": {"name": "Raglebr\u00e5na", "place": "hamlet"}}, {"type": "node", "id": 7487740344, "lat": 58.6768136, "lon": 12.4752155, "tags": {"name": "Gunnebyn", "place": "hamlet"}}, {"type": "node", "id": 7487740710, "lat": 58.6885443, "lon": 12.4111424, "tags": {"name": "L\u00e4perud", "place": "hamlet"}}, {"type": "node", "id": 7487744208, "lat": 58.6752568, "lon": 12.4803274, "tags": {"name": "Br\u00e5na", "place": "hamlet"}}, {"type": "node", "id": 7487744226, "lat": 58.7264431, "lon": 12.4639749, "tags": {"name": "Nordk\u00e4rr", "place": "hamlet"}}, {"type": "node", "id": 7487747718, "lat": 58.663856, "lon": 12.3987083, "tags": {"name": "Svecklingebyn", "place": "hamlet"}}, {"type": "node", "id": 7487749410, "lat": 58.6855583, "lon": 12.3097258, "tags": {"name": "Str\u00e4nge", "place": "hamlet"}}, {"type": "node", "id": 7487753092, "lat": 58.6806688, "lon": 12.4904636, "tags": {"name": "Br\u00e4ckan", "place": "hamlet"}}, {"type": "node", "id": 7487754884, "lat": 58.6896128, "lon": 12.4795847, "tags": {"name": "K\u00e4llstorp", "place": "hamlet"}}, {"type": "node", "id": 7487757454, "lat": 58.7503349, "lon": 12.4679723, "tags": {"name": "Snarstigen", "place": "hamlet"}}, {"type": "node", "id": 7487758921, "lat": 58.7255821, "lon": 12.4752516, "tags": {"name": "Torp", "place": "hamlet"}}, {"type": "node", "id": 7487764010, "lat": 58.6960984, "lon": 12.3409821, "tags": {"name": "Hult", "place": "hamlet"}}, {"type": "node", "id": 7487768416, "lat": 58.7081269, "lon": 12.4246373, "tags": {"name": "\u00d6deg\u00e5rden", "place": "hamlet"}}, {"type": "node", "id": 7487769985, "lat": 58.687988, "lon": 12.2999561, "tags": {"name": "\u00c5sen", "place": "hamlet"}}, {"type": "node", "id": 7487772183, "lat": 58.7560244, "lon": 12.4034636, "tags": {"name": "Sandviken", "place": "hamlet"}}, {"type": "node", "id": 7487778152, "lat": 58.7744662, "lon": 12.4801166, "tags": {"name": "Svankila", "place": "hamlet"}}, {"type": "node", "id": 7487778553, "lat": 58.7411032, "lon": 12.4764622, "tags": {"name": "Linderud", "place": "hamlet"}}, {"type": "node", "id": 7487781839, "lat": 58.7343366, "lon": 12.4405752, "tags": {"name": "K\u00e4lleberg", "place": "hamlet"}}, {"type": "node", "id": 7487782941, "lat": 58.7560015, "lon": 12.4248244, "tags": {"name": "Ingribyn", "place": "hamlet"}}, {"type": "node", "id": 7487784335, "lat": 58.7448955, "lon": 12.4138735, "tags": {"name": "Rinneboda", "place": "hamlet"}}, {"type": "node", "id": 7487784512, "lat": 58.752744, "lon": 12.4332841, "tags": {"name": "T\u00f6rsbyn", "place": "hamlet"}}, {"type": "node", "id": 7487784911, "lat": 58.7632367, "lon": 12.4110641, "tags": {"name": "R\u00f6nningen", "place": "hamlet"}}, {"type": "node", "id": 7487785517, "lat": 58.7287535, "lon": 12.4489466, "tags": {"name": "Torpane", "place": "hamlet"}}, {"type": "node", "id": 7487787146, "lat": 58.7442974, "lon": 12.4007263, "tags": {"name": "Rinnen", "place": "hamlet"}}, {"type": "node", "id": 7487787336, "lat": 58.7380259, "lon": 12.4341755, "tags": {"name": "\u00d6deg\u00e5rden", "place": "hamlet"}}, {"type": "node", "id": 7487789990, "lat": 58.7405178, "lon": 12.4360081, "tags": {"name": "Lilla Gatan", "place": "hamlet"}}, {"type": "node", "id": 7487791119, "lat": 58.7262398, "lon": 12.4287516, "tags": {"name": "Vedbyholm", "place": "hamlet"}}, {"type": "node", "id": 7487799515, "lat": 58.7725127, "lon": 12.4671222, "tags": {"name": "Edet", "place": "hamlet"}}, {"type": "node", "id": 7487799831, "lat": 58.7394423, "lon": 12.3748625, "tags": {"name": "Sverkersbyn", "place": "hamlet"}}, {"type": "node", "id": 7487800997, "lat": 58.7343685, "lon": 12.3849969, "tags": {"name": "S\u00e4lls\u00e4ter", "place": "hamlet"}}, {"type": "node", "id": 7487801147, "lat": 58.7414035, "lon": 12.3878051, "tags": {"name": "Hunnerud", "place": "hamlet"}}, {"type": "node", "id": 7487804934, "lat": 58.7475753, "lon": 12.3550974, "tags": {"name": "\u00c5rbol", "place": "hamlet"}}, {"type": "node", "id": 7487810541, "lat": 58.7325362, "lon": 12.3045762, "tags": {"name": "Kabbo", "place": "hamlet"}}, {"type": "node", "id": 7487812454, "lat": 58.7862889, "lon": 12.3471328, "tags": {"name": "\u00d6fse", "place": "hamlet"}}, {"type": "node", "id": 7487817628, "lat": 58.7835419, "lon": 12.4307455, "tags": {"name": "Backen", "place": "hamlet"}}, {"type": "node", "id": 7487823031, "lat": 58.7665771, "lon": 12.3725313, "tags": {"name": "Heden", "place": "hamlet"}}, {"type": "node", "id": 7487824803, "lat": 58.7599761, "lon": 12.4687066, "tags": {"name": "H\u00f6keberg", "place": "hamlet"}}, {"type": "node", "id": 7487826066, "lat": 58.7727782, "lon": 12.4112564, "tags": {"name": "Torgrinsbyn", "place": "hamlet"}}, {"type": "node", "id": 7487834625, "lat": 58.7763201, "lon": 12.3511531, "tags": {"name": "Kopparebol", "place": "hamlet"}}, {"type": "node", "id": 7487835539, "lat": 58.7961158, "lon": 12.4301472, "tags": {"name": "Idala", "place": "hamlet"}}, {"type": "node", "id": 7487835951, "lat": 58.7632199, "lon": 12.3471837, "tags": {"name": "Tegen", "place": "hamlet"}}, {"type": "node", "id": 7487835952, "lat": 58.7891972, "lon": 12.4522617, "tags": {"name": "Kniperud", "place": "hamlet"}}, {"type": "node", "id": 7487836936, "lat": 58.7729039, "lon": 12.3439346, "tags": {"name": "K\u00e4rr", "place": "hamlet"}}, {"type": "node", "id": 7487846522, "lat": 58.7810927, "lon": 12.4097302, "tags": {"name": "Eriksbyn", "place": "hamlet"}}, {"type": "node", "id": 7487854049, "lat": 58.7883465, "lon": 12.4651503, "tags": {"name": "Hj\u00e4rterud", "place": "hamlet"}}, {"type": "node", "id": 7487855117, "lat": 58.79571, "lon": 12.3706891, "tags": {"name": "Gr\u00f6nhult", "place": "hamlet"}}, {"type": "node", "id": 7487870177, "lat": 58.8017512, "lon": 12.3319377, "tags": {"name": "H\u00e5bolsbyn", "place": "hamlet"}}, {"type": "node", "id": 7487875445, "lat": 58.8071711, "lon": 12.4887711, "tags": {"name": "Ryr", "place": "hamlet"}}, {"type": "node", "id": 7487876106, "lat": 58.8045314, "lon": 12.3336219, "tags": {"name": "Hallersbyn", "place": "hamlet"}}, {"type": "node", "id": 7487901488, "lat": 58.7811921, "lon": 12.3328633, "tags": {"name": "K\u00e4llhult", "place": "hamlet"}}, {"type": "node", "id": 7487901788, "lat": 58.7659407, "lon": 12.3167445, "tags": {"name": "Myrevarv", "place": "hamlet"}}, {"type": "node", "id": 7487921175, "lat": 58.8241815, "lon": 12.3170895, "tags": {"name": "Halleb\u00e4ck", "place": "hamlet"}}, {"type": "node", "id": 7495779834, "lat": 58.7909814, "lon": 12.5261605, "tags": {"name": "Knutsdalen", "place": "hamlet"}}, {"type": "node", "id": 7495799982, "lat": 58.7760737, "lon": 12.4965016, "tags": {"name": "S\u00f6dra \u00d6deg\u00e5rden", "place": "hamlet"}}, {"type": "node", "id": 7495809745, "lat": 58.8908281, "lon": 12.4875632, "tags": {"name": "V\u00e4stra Berg", "place": "hamlet"}}, {"type": "node", "id": 7495813005, "lat": 58.8965194, "lon": 12.4899846, "tags": {"name": "V\u00e4stra Korsbyn", "place": "hamlet"}}, {"type": "node", "id": 7495813836, "lat": 58.8613975, "lon": 12.4946847, "tags": {"name": "Stora Kilane", "place": "hamlet"}}, {"type": "node", "id": 7495815712, "lat": 58.8352179, "lon": 12.5427251, "tags": {"name": "Vassviken", "place": "hamlet"}}, {"type": "node", "id": 7495816273, "lat": 58.8347958, "lon": 12.5573211, "tags": {"name": "Viken", "place": "hamlet"}}, {"type": "node", "id": 7495823839, "lat": 58.7469555, "lon": 12.4981555, "tags": {"name": "Smedsbol", "place": "hamlet"}}, {"type": "node", "id": 7495824821, "lat": 58.8268645, "lon": 12.572772, "tags": {"name": "Yttre Bodane", "place": "hamlet"}}, {"type": "node", "id": 7495825385, "lat": 58.7553081, "lon": 12.4991695, "tags": {"name": "Guttvik", "place": "hamlet"}}, {"type": "node", "id": 7495829204, "lat": 58.8014832, "lon": 12.5120163, "tags": {"name": "Ransberg", "place": "hamlet"}}, {"type": "node", "id": 7495832591, "lat": 58.8201844, "lon": 12.5333822, "tags": {"name": "\u00c4skek\u00e4rr", "place": "hamlet"}}, {"type": "node", "id": 7495832712, "lat": 58.838238, "lon": 12.3978816, "tags": {"name": "Korserud", "place": "hamlet"}}, {"type": "node", "id": 7495853390, "lat": 58.8400309, "lon": 12.3300546, "tags": {"name": "R\u00e4nsliden", "place": "hamlet"}}, {"type": "node", "id": 7495857826, "lat": 58.8647093, "lon": 12.3282885, "tags": {"name": "Heden", "place": "hamlet"}}, {"type": "node", "id": 7495969499, "lat": 58.9351775, "lon": 12.27215, "tags": {"name": "Sandviken", "place": "hamlet"}}, {"type": "node", "id": 7496200753, "lat": 58.9951425, "lon": 12.2768775, "tags": {"name": "Sk\u00e5pen\u00e4s", "place": "hamlet"}}, {"type": "node", "id": 7496214346, "lat": 58.9853464, "lon": 12.279743, "tags": {"name": "\u00d6san", "place": "hamlet"}}, {"type": "node", "id": 7496285932, "lat": 59.01235, "lon": 12.2624485, "tags": {"name": "Hedane", "place": "hamlet"}}, {"type": "node", "id": 7496297583, "lat": 58.9136403, "lon": 12.3091134, "tags": {"name": "Br\u00e4ckan", "place": "hamlet"}}, {"type": "node", "id": 7496299426, "lat": 59.0274305, "lon": 12.2433363, "tags": {"name": "Majbergsdal", "place": "hamlet"}}, {"type": "node", "id": 7496303967, "lat": 58.9189929, "lon": 12.3056956, "tags": {"name": "Kash\u00f6jden", "place": "hamlet"}}, {"type": "node", "id": 7496314999, "lat": 58.9077895, "lon": 12.3738687, "tags": {"name": "H\u00e4ljebol", "place": "hamlet"}}, {"type": "node", "id": 7496319286, "lat": 58.8950508, "lon": 12.3039882, "tags": {"name": "Sk\u00e5rdalen", "place": "hamlet"}}, {"type": "node", "id": 7496329882, "lat": 58.8804797, "lon": 12.3330205, "tags": {"name": "Flaterud", "place": "hamlet"}}, {"type": "node", "id": 7496330998, "lat": 58.8795971, "lon": 12.350358, "tags": {"name": "Ramdalen", "place": "hamlet"}}, {"type": "node", "id": 7496359065, "lat": 58.9101267, "lon": 12.396667, "tags": {"name": "Stommen", "place": "hamlet"}}, {"type": "node", "id": 7496360583, "lat": 58.9265404, "lon": 12.3412145, "tags": {"name": "Bj\u00f6rke", "place": "hamlet"}}, {"type": "node", "id": 7496383874, "lat": 58.9575483, "lon": 12.350346, "tags": {"name": "K\u00e4ttilsbo", "place": "hamlet"}}, {"type": "node", "id": 7496426192, "lat": 59.0187055, "lon": 12.366143, "tags": {"name": "Haget", "place": "hamlet"}}, {"type": "node", "id": 7496448755, "lat": 58.9503778, "lon": 12.3630961, "tags": {"name": "Ulvsrud", "place": "hamlet"}}, {"type": "node", "id": 7496454326, "lat": 58.9899222, "lon": 12.38693, "tags": {"name": "S\u00f6rg\u00e5rden", "place": "hamlet"}}, {"type": "node", "id": 7496458648, "lat": 59.0281822, "lon": 12.3880948, "tags": {"name": "\u00d6deg\u00e5rden", "place": "hamlet"}}, {"type": "node", "id": 7496459205, "lat": 59.007977, "lon": 12.3773388, "tags": {"name": "Kronan", "place": "hamlet"}}, {"type": "node", "id": 7496459939, "lat": 59.024838, "lon": 12.3754456, "tags": {"name": "Heden", "place": "hamlet"}}, {"type": "node", "id": 7496466930, "lat": 58.9611904, "lon": 12.4362287, "tags": {"name": "Bocklarud", "place": "hamlet"}}, {"type": "node", "id": 7496476207, "lat": 58.9586569, "lon": 12.4217868, "tags": {"name": "Smedserud", "place": "hamlet"}}, {"type": "node", "id": 7496479404, "lat": 59.0333611, "lon": 12.488327, "tags": {"name": "Gr\u00e4ttve", "place": "hamlet"}}, {"type": "node", "id": 7496489987, "lat": 59.0050604, "lon": 12.4476348, "tags": {"name": "Grimsheden", "place": "hamlet"}}, {"type": "node", "id": 7496495115, "lat": 59.0250054, "lon": 12.4035885, "tags": {"name": "Germundebyn", "place": "hamlet"}}, {"type": "node", "id": 7496499337, "lat": 59.0344948, "lon": 12.4033123, "tags": {"name": "Sockan", "place": "hamlet"}}, {"type": "node", "id": 7496518704, "lat": 58.99758, "lon": 12.4808194, "tags": {"name": "Humletorp", "place": "hamlet"}}, {"type": "node", "id": 7496519239, "lat": 58.9902749, "lon": 12.4628113, "tags": {"name": "\u00c4mnebyn", "place": "hamlet"}}, {"type": "node", "id": 7496519782, "lat": 58.9568024, "lon": 12.4832884, "tags": {"name": "Tranerud", "place": "hamlet"}}, {"type": "node", "id": 7496523252, "lat": 58.8776592, "lon": 12.4944283, "tags": {"name": "Salebol", "place": "hamlet"}}, {"type": "node", "id": 7496529515, "lat": 58.8668642, "lon": 12.4914373, "tags": {"name": "K\u00e4nsbyn", "place": "hamlet"}}, {"type": "node", "id": 7496530088, "lat": 58.9649947, "lon": 12.4836132, "tags": {"name": "Viken", "place": "hamlet"}}, {"type": "node", "id": 7496531292, "lat": 58.9728987, "lon": 12.4511508, "tags": {"name": "Hensbyn", "place": "hamlet"}}, {"type": "node", "id": 7496558991, "lat": 58.9016632, "lon": 12.4915747, "tags": {"name": "Kraksbyn", "place": "hamlet"}}, {"type": "node", "id": 7496577779, "lat": 59.0380592, "lon": 12.4656628, "tags": {"name": "N\u00e4s", "place": "hamlet"}}, {"type": "node", "id": 7496580456, "lat": 59.0463448, "lon": 12.4442489, "tags": {"name": "H\u00f6gheden", "place": "hamlet"}}, {"type": "node", "id": 7496602590, "lat": 59.0215908, "lon": 12.3148177, "tags": {"name": "Bratterud", "place": "hamlet"}}, {"type": "node", "id": 7496603020, "lat": 59.0263814, "lon": 12.3235512, "tags": {"name": "N\u00e4rsbyn", "place": "hamlet"}}, {"type": "node", "id": 7496608686, "lat": 59.0383011, "lon": 12.3145832, "tags": {"name": "Berg", "place": "hamlet"}}, {"type": "node", "id": 7496611269, "lat": 59.0099152, "lon": 12.2765823, "tags": {"name": "Kn\u00f6steviken", "place": "hamlet"}}, {"type": "node", "id": 7496613033, "lat": 59.0280111, "lon": 12.2848349, "tags": {"name": "Bodane", "place": "hamlet"}}, {"type": "node", "id": 7496614364, "lat": 59.0182707, "lon": 12.2863914, "tags": {"name": "Galth\u00f6gen", "place": "hamlet"}}, {"type": "node", "id": 7496618174, "lat": 59.0157316, "lon": 12.3942143, "tags": {"name": "Backetomten", "place": "hamlet"}}, {"type": "node", "id": 7496628967, "lat": 59.0316155, "lon": 12.3415135, "tags": {"name": "\u00d6versidan", "place": "hamlet"}}, {"type": "node", "id": 7496637121, "lat": 59.0526268, "lon": 12.3734222, "tags": {"name": "Gr\u00f6ven", "place": "hamlet"}}, {"type": "node", "id": 7496637138, "lat": 59.0454872, "lon": 12.3461841, "tags": {"name": "Rud", "place": "hamlet"}}, {"type": "node", "id": 7496637206, "lat": 59.0444798, "lon": 12.3670515, "tags": {"name": "Kaserna", "place": "hamlet"}}, {"type": "node", "id": 7496640075, "lat": 59.0388695, "lon": 12.3449669, "tags": {"name": "Liden", "place": "hamlet"}}, {"type": "node", "id": 7496678831, "lat": 59.0557644, "lon": 12.3813065, "tags": {"name": "Backa", "place": "hamlet"}}, {"type": "node", "id": 7500190825, "lat": 58.6343095, "lon": 12.5048372, "tags": {"name": "B\u00e4cken", "place": "hamlet"}}, {"type": "node", "id": 7500194109, "lat": 58.6418021, "lon": 12.514519, "tags": {"name": "Berg", "place": "hamlet"}}, {"type": "node", "id": 7500202105, "lat": 58.6474371, "lon": 12.5038716, "tags": {"name": "\u00c5ker", "place": "hamlet"}}, {"type": "node", "id": 7500204976, "lat": 58.6585405, "lon": 12.512201, "tags": {"name": "F\u00e4llan", "place": "hamlet"}}, {"type": "node", "id": 7500208899, "lat": 58.6613477, "lon": 12.5011771, "tags": {"name": "V\u00e4stanv\u00e4gatorp", "place": "hamlet"}}, {"type": "node", "id": 7500208900, "lat": 58.6562784, "lon": 12.5024838, "tags": {"name": "V\u00e4stanv\u00e4ga", "place": "hamlet"}}, {"type": "node", "id": 7500210872, "lat": 58.6348421, "lon": 12.5116096, "tags": {"name": "Krynebol", "place": "hamlet"}}, {"type": "node", "id": 7500217062, "lat": 58.6291651, "lon": 12.5126087, "tags": {"name": "Torpet", "place": "hamlet"}}, {"type": "node", "id": 7500229213, "lat": 58.6511139, "lon": 12.5225547, "tags": {"name": "Norra R\u00e5dane", "place": "hamlet"}}, {"type": "node", "id": 7500263731, "lat": 58.6473291, "lon": 12.5178783, "tags": {"name": "S\u00f6dra R\u00e5dane", "place": "hamlet"}}, {"type": "node", "id": 7500270357, "lat": 58.6270292, "lon": 12.5271769, "tags": {"name": "Norra Hagen", "place": "hamlet"}}, {"type": "node", "id": 7500281267, "lat": 58.6361656, "lon": 12.5761493, "tags": {"name": "L\u00e5ngerud", "place": "hamlet"}}, {"type": "node", "id": 7500281495, "lat": 58.6374504, "lon": 12.5505118, "tags": {"name": "R\u00e5skog", "place": "hamlet"}}, {"type": "node", "id": 7500281817, "lat": 58.6310761, "lon": 12.615881, "tags": {"name": "\u00d6detorp", "place": "hamlet"}}, {"type": "node", "id": 7500291220, "lat": 58.6341387, "lon": 12.6191335, "tags": {"name": "Luserud", "place": "hamlet"}}, {"type": "node", "id": 7500291273, "lat": 58.6777361, "lon": 12.4970024, "tags": {"name": "Tormansbol", "place": "hamlet"}}, {"type": "node", "id": 7500291558, "lat": 58.6486441, "lon": 12.6284272, "tags": {"name": "Bj\u00f6rk\u00e5sen", "place": "hamlet"}}, {"type": "node", "id": 7500302542, "lat": 58.6506769, "lon": 12.6438068, "tags": {"name": "Muggerud", "place": "hamlet"}}, {"type": "node", "id": 7500303280, "lat": 58.6521006, "lon": 12.576762, "tags": {"name": "N\u00e4s", "place": "hamlet"}}, {"type": "node", "id": 7500304286, "lat": 58.6364329, "lon": 12.5882209, "tags": {"name": "Tj\u00e4regraven", "place": "hamlet"}}, {"type": "node", "id": 7500315444, "lat": 58.6492671, "lon": 12.6581027, "tags": {"name": "Korshamnen", "place": "hamlet"}}, {"type": "node", "id": 7500333001, "lat": 58.6710293, "lon": 12.508746, "tags": {"name": "Brakarebol", "place": "hamlet"}}, {"type": "node", "id": 7500349016, "lat": 58.7057407, "lon": 12.4987637, "tags": {"name": "Sunnan\u00e5", "place": "hamlet"}}, {"type": "way", "id": 360165983, "nodes": [4268521765, 4281278854, 4281278971, 3647727236, 4281279005, 4281279050, 3647727235, 3647727234, 4281278982, 4281279008, 4281279039, 3647727233, 4281279044, 4281279042, 4281279043, 3647729032, 3647729033, 3647729034, 3647729035, 3647729036, 3647729037, 3647729038, 3647729039, 3647729040, 3647729041, 3647729042, 3647729043, 3647729044, 3647729045, 3647729046, 3647729047, 3647729048, 3647729049, 3647729050, 3647729051, 3647729052, 3647729053, 4281278682, 3647729054, 4268521765], "tags": {"place": "hamlet"}}, {"type": "way", "id": 361571763, "nodes": [3660253167, 3917766782, 3660253168, 3660253169, 3660253170, 3660253171, 3660253172, 3660253173, 3660253167], "tags": {"name": "H\u00f6gsbyn", "place": "hamlet"}}, {"type": "way", "id": 361571980, "nodes": [3919648602, 3709124302, 3660260297, 3660260298, 3660260299, 3709124208, 3709124206, 3709124207, 3660260300, 3709124203, 3709124204, 3660260301, 3709124205, 3660260302, 3071939408, 3512891725, 3071939407, 3709124300, 3709124301, 3919648602], "tags": {"name": "Ed", "place": "hamlet"}}]}