{"version": 0.6, "generator": "Overpass API 0.7.61.5 4133829e", "osm3s": {"timestamp_osm_base": "2024-03-05T13:45:00Z", "copyright": "The data included in this document is from www.openstreetmap.org. The data is made available under ODbL."}, "elements": [{"type": "node", "id": 3388677946, "lat": 32.6216526, "lon": 69.8386515, "tags": {"alt_name": "Makeen", "name": "\u0645\u0627\u06a9\u06cc\u0646\u200e", "name:en": "Makin", "place": "village"}}, {"type": "node", "id": 3388677947, "lat": 32.6873366, "lon": 69.8339608, "tags": {"name": "\u0631\u0632\u0645\u06a9", "name:en": "Razmak", "name:ps": "\u0631\u0632\u0645\u06a9", "name:ur": "\u0631\u0632\u0645\u06a9", "place": "town"}}, {"type": "node", "id": 3388677948, "lat": 32.521381, "lon": 69.7959916, "tags": {"name": "\u06a9\u0627\u0646\u06cc\u06af\u0648\u0631\u0645", "name:en": "Kaniguram", "name:ps": "\u06a9\u0627\u0646\u064a\u06ab\u0648\u0631\u0645", "name:ur": "\u06a9\u0627\u0646\u06cc\u06af\u0648\u0631\u0645", "place": "town", "population": "13809"}}, {"type": "node", "id": 3534236415, "lat": 32.87337, "lon": 69.5545512, "tags": {"name": "Dwa Toi", "place": "village"}}, {"type": "node", "id": 3636039146, "lat": 32.9029352, "lon": 69.6212908, "tags": {"name": "Tarmora", "place": "village"}}, {"type": "node", "id": 3636039147, "lat": 32.868922, "lon": 69.5546585, "tags": {"name": "Nawe Kot", "place": "village"}}, {"type": "node", "id": 3636039148, "lat": 32.8840059, "lon": 69.6151673, "tags": {"name": "Manz Kili", "place": "village"}}, {"type": "node", "id": 3636039149, "lat": 32.8784917, "lon": 69.6218406, "tags": {"name": "Sar Kili", "place": "village"}}, {"type": "node", "id": 3636039150, "lat": 32.8714814, "lon": 69.6148025, "tags": {"name": "Sitara Parsha", "place": "village"}}, {"type": "node", "id": 3647848230, "lat": 32.5695863, "lon": 69.8339093, "tags": {"name": "\u0644\u062f\u06be\u0627", "name:en": "Ladha", "name:ps": "\u0644\u062f\u0647", "name:ur": "\u0644\u062f\u06be\u0627", "place": "village"}}, {"type": "node", "id": 3660628722, "lat": 32.9065015, "lon": 69.7445791, "tags": {"name": "\u062f\u062a\u0627 \u062e\u064a\u0644", "name:en": "Datta Khel", "name:ps": "\u062f\u062a\u0647 \u062e\u06d0\u0644", "name:ur": "\u062f\u062a\u0627 \u062e\u064a\u0644", "place": "village"}}, {"type": "node", "id": 4259632375, "lat": 32.8920833, "lon": 69.6429406, "tags": {"name": "Sheranni", "place": "village"}}, {"type": "node", "id": 4259632841, "lat": 32.883079, "lon": 69.5933151, "tags": {"name": "Esurram", "place": "village"}}, {"type": "node", "id": 4259632842, "lat": 32.8664703, "lon": 69.5398118, "tags": {"name": "Mamuk", "place": "village"}}, {"type": "node", "id": 4259632843, "lat": 32.8642998, "lon": 69.5195127, "tags": {"name": "Pitao Kili", "place": "village"}}, {"type": "node", "id": 4259632844, "lat": 32.8630885, "lon": 69.513747, "tags": {"name": "Shakhar Khel", "place": "village"}}, {"type": "node", "id": 4259632845, "lat": 32.857264, "lon": 69.5034841, "tags": {"name": "Landan", "place": "village", "population": "200"}}, {"type": "node", "id": 4826310333, "lat": 32.8542141, "lon": 69.4769569, "tags": {"name": "Imal Khel", "place": "village", "population": "100"}}, {"type": "node", "id": 11253957222, "lat": 32.6332658, "lon": 69.5058074, "tags": {"name": "\u0634\u0648\u0627\u0644", "name:en": "Shawal", "name:ps": "\u0634\u0627\u0648\u0644", "name:ur": "\u0634\u0648\u0627\u0644", "place": "village"}}]}