{"version": 0.6, "generator": "Overpass API 0.7.61.5 4133829e", "osm3s": {"timestamp_osm_base": "2024-03-06T11:43:14Z", "copyright": "The data included in this document is from www.openstreetmap.org. The data is made available under ODbL."}, "elements": [{"type": "node", "id": 44927885, "lat": -1.793991, "lon": 40.8083, "tags": {"is_in": "Lamu,Kenya", "name": "Milimani", "place": "village", "wikidata": "Q6851871"}}, {"type": "node", "id": 45006924, "lat": -1.85, "lon": 40.7166, "tags": {"is_in": "Lamu,Kenya", "name": "Bodhei", "place": "village", "wikidata": "Q4936528"}}, {"type": "node", "id": 45007034, "lat": -1.7166, "lon": 40.9666, "tags": {"created_by": "JOSM", "is_in": "Garissa,Kenya", "name": "Baure", "place": "village"}}, {"type": "node", "id": 4541427220, "lat": -1.8235633, "lon": 40.6768828, "tags": {"name": "Budhei", "place": "hamlet"}}, {"type": "node", "id": 4541581801, "lat": -1.4530698, "lon": 40.6563332, "tags": {"name": "Handaro", "place": "hamlet"}}]}