{"version": 0.6, "generator": "Overpass API 0.7.61.5 4133829e", "osm3s": {"timestamp_osm_base": "2024-03-05T15:07:00Z", "copyright": "The data included in this document is from www.openstreetmap.org. The data is made available under ODbL."}, "elements": [{"type": "node", "id": 27428841, "lat": 56.9977705, "lon": 15.2849478, "tags": {"name": "Lenhovda", "place": "village", "ref:se:pts:postort": "LENHOVDA", "ref:se:scb": "1912"}}, {"type": "node", "id": 97918380, "lat": 57.1691268, "lon": 15.3525029, "tags": {"name": "\u00c5seda", "name:ru": "\u041e\u0441\u0435\u0434\u0430", "name:sv": "\u00c5seda", "place": "town", "population": "2430", "ref:se:pts:postort": "\u00c5SEDA", "ref:se:scb": "2036", "wikidata": "Q271255", "wikipedia": "sv:\u00c5seda"}}, {"type": "node", "id": 251100930, "lat": 57.2159785, "lon": 15.4382901, "tags": {"name": "Hultan\u00e4s", "place": "hamlet"}}, {"type": "node", "id": 266715339, "lat": 57.0091236, "lon": 15.5738881, "tags": {"name": "\u00c4lghult", "place": "village", "population": "446", "ref:se:pts:postort": "\u00c4LGHULT", "ref:se:scb": "2040", "wikidata": "Q254761"}}, {"type": "node", "id": 270190033, "lat": 57.0216769, "lon": 14.8921004, "tags": {"name": "Rottne", "place": "village", "ref:se:pts:postort": "ROTTNE", "ref:se:scb": "1956", "wikidata": "Q2291661"}}, {"type": "node", "id": 395382447, "lat": 57.3059623, "lon": 15.1258605, "tags": {"name": "Korsberga", "place": "village", "ref:se:pts:postort": "KORSBERGA", "ref:se:scb": "1752"}}, {"type": "node", "id": 535250890, "lat": 57.2246532, "lon": 15.1438341, "tags": {"name": "Lindshammar", "place": "village"}}, {"type": "node", "id": 663041754, "lat": 57.0700125, "lon": 14.9292231, "tags": {"name": "Varetorp", "place": "hamlet"}}, {"type": "node", "id": 663041755, "lat": 57.0597928, "lon": 15.0483561, "tags": {"name": "Bra\u00e5s", "place": "village", "ref:se:pts:postort": "BRA\u00c5S", "ref:se:scb": "1820", "wikidata": "Q2513859", "wikipedia": "sv:Bra\u00e5s"}}, {"type": "node", "id": 663041756, "lat": 57.0791565, "lon": 15.0615741, "tags": {"name": "Kvarnag\u00e5rden", "place": "hamlet"}}, {"type": "node", "id": 663041757, "lat": 57.026501, "lon": 14.8753215, "tags": {"name": "Rydet", "place": "hamlet"}}, {"type": "node", "id": 663041758, "lat": 57.0249127, "lon": 14.8485423, "tags": {"name": "Borlanda", "place": "hamlet"}}, {"type": "node", "id": 663041759, "lat": 57.0348034, "lon": 14.9428059, "tags": {"name": "Brittatorp", "place": "village"}}, {"type": "node", "id": 663041760, "lat": 57.0231842, "lon": 15.0278426, "tags": {"name": "Eke", "place": "hamlet"}}, {"type": "node", "id": 704803556, "lat": 56.9843551, "lon": 14.8466701, "tags": {"name": "Stojby", "place": "hamlet"}}, {"type": "node", "id": 717725347, "lat": 57.1077875, "lon": 15.0608433, "tags": {"name": "Vi\u00e5s", "place": "hamlet"}}, {"type": "node", "id": 717725348, "lat": 57.107238, "lon": 15.0822895, "tags": {"name": "Sandreda", "place": "hamlet"}}, {"type": "node", "id": 717725349, "lat": 57.099197, "lon": 15.1812967, "tags": {"name": "Notteb\u00e4ck", "place": "hamlet"}}, {"type": "node", "id": 798700960, "lat": 57.2725061, "lon": 14.984826, "tags": {"name": "\u00c5skog", "place": "hamlet"}}, {"type": "node", "id": 889312361, "lat": 57.0108336, "lon": 15.1062151, "tags": {"name": "D\u00e4desj\u00f6", "place": "village", "source": "survey"}}, {"type": "node", "id": 972541731, "lat": 56.91468, "lon": 15.5694877, "tags": {"name": "M\u00e5ler\u00e5s", "place": "village", "ref:se:pts:postort": "M\u00c5LER\u00c5S", "ref:se:scb": "2332"}}, {"type": "node", "id": 1148217071, "lat": 57.0633165, "lon": 14.8648231, "tags": {"name": "Barsbro", "place": "hamlet", "source": "Bing"}}, {"type": "node", "id": 1148217072, "lat": 57.0383355, "lon": 14.872897, "tags": {"name": "Norraby", "place": "hamlet", "source": "Bing"}}, {"type": "node", "id": 1149001737, "lat": 57.0719416, "lon": 14.9832264, "tags": {"name": "Drev", "place": "hamlet", "source": "Bing"}}, {"type": "node", "id": 1149001738, "lat": 57.0891933, "lon": 14.9062347, "tags": {"name": "Stenkulla", "place": "hamlet", "source": "Bing"}}, {"type": "node", "id": 1162150386, "lat": 56.972676, "lon": 14.8807451, "tags": {"name": "Norrg\u00e5rda", "place": "hamlet", "source": "Bing"}}, {"type": "node", "id": 1414865176, "lat": 57.0764773, "lon": 15.1464122, "tags": {"name": "Galtab\u00e4ck", "place": "hamlet"}}, {"type": "node", "id": 1446414610, "lat": 57.1788775, "lon": 15.4887996, "tags": {"name": "Kuttaboda", "place": "hamlet"}}, {"type": "node", "id": 1643394507, "lat": 57.3326274, "lon": 15.5129158, "tags": {"name": "H\u00e4sslid", "place": "hamlet"}}, {"type": "node", "id": 1643394527, "lat": 57.3117864, "lon": 15.5517696, "tags": {"name": "Hjort\u00f6str\u00f6m", "place": "hamlet"}}, {"type": "node", "id": 1701758666, "lat": 57.2043774, "lon": 14.9542023, "tags": {"name": "Ramkvilla", "place": "village", "ref:se:pts:postort": "RAMKVILLA", "source": "Bing", "wikidata": "Q3288034", "wikipedia": "sv:Ramkvilla"}}, {"type": "node", "id": 1704352286, "lat": 57.1506087, "lon": 15.0700235, "tags": {"name": "Harshult", "place": "hamlet"}}, {"type": "node", "id": 1705754688, "lat": 57.3244767, "lon": 15.5402262, "tags": {"name": "Bj\u00f6rkmossa", "place": "hamlet"}}, {"type": "node", "id": 1764086500, "lat": 57.1587183, "lon": 15.1648315, "tags": {"name": "Skruv", "place": "hamlet"}}, {"type": "node", "id": 1801786959, "lat": 57.1657063, "lon": 14.7948293, "tags": {"name": "Asa", "place": "hamlet"}}, {"type": "node", "id": 1825706845, "lat": 57.0075346, "lon": 14.8199387, "tags": {"name": "Eknaholm", "place": "hamlet"}}, {"type": "node", "id": 1825706846, "lat": 57.034348, "lon": 14.7988368, "tags": {"name": "Hagaborg", "place": "hamlet"}}, {"type": "node", "id": 1825706866, "lat": 56.9622633, "lon": 14.8350245, "tags": {"name": "Nyg\u00e5rd", "place": "hamlet"}}, {"type": "node", "id": 1863559608, "lat": 57.194162, "lon": 15.2506419, "tags": {"name": "\u00d6sj\u00f6bol", "place": "hamlet"}}, {"type": "node", "id": 1863577573, "lat": 57.2560449, "lon": 15.3004235, "tags": {"name": "Fagerhult", "place": "hamlet"}}, {"type": "node", "id": 1863577595, "lat": 57.2851714, "lon": 15.2759766, "tags": {"name": "Lemnhult", "place": "hamlet"}}, {"type": "node", "id": 1872563492, "lat": 57.3317293, "lon": 15.0291625, "tags": {"name": "Br\u00e4ndam\u00e5la", "place": "hamlet"}}, {"type": "node", "id": 1872567454, "lat": 57.2907747, "lon": 14.940714, "tags": {"name": "Slageryd", "place": "hamlet"}}, {"type": "node", "id": 1872609888, "lat": 57.2788511, "lon": 14.9716404, "tags": {"name": "H\u00e4ttebo", "place": "hamlet"}}, {"type": "node", "id": 1872611733, "lat": 57.2711199, "lon": 14.9520281, "tags": {"name": "B\u00e4ckg\u00f6l", "place": "hamlet"}}, {"type": "node", "id": 1872657350, "lat": 57.28109, "lon": 15.0238251, "tags": {"name": "Sandebo", "place": "hamlet"}}, {"type": "node", "id": 1872798273, "lat": 57.2600951, "lon": 14.9877321, "tags": {"name": "Gudmunds\u00e5s", "place": "hamlet"}}, {"type": "node", "id": 1872830427, "lat": 57.2692444, "lon": 14.9820995, "tags": {"name": "\u00c5skogkvarn", "place": "hamlet"}}, {"type": "node", "id": 1872832587, "lat": 57.2682698, "lon": 14.926095, "tags": {"name": "B\u00e4ckaby", "place": "village"}}, {"type": "node", "id": 1874929284, "lat": 57.2591101, "lon": 14.9500326, "tags": {"name": "R\u00f6s\u00e5s", "place": "hamlet"}}, {"type": "node", "id": 1874931188, "lat": 57.2630325, "lon": 14.9193481, "tags": {"name": "S\u00e4by", "place": "hamlet"}}, {"type": "node", "id": 1876510938, "lat": 57.289815, "lon": 15.0211817, "tags": {"name": "Ekekull", "place": "hamlet"}}, {"type": "node", "id": 1876535124, "lat": 57.302678, "lon": 14.9920582, "tags": {"name": "Puk\u00e5s", "place": "hamlet"}}, {"type": "node", "id": 1876554420, "lat": 57.2759224, "lon": 15.0238252, "tags": {"name": "L\u00f6vstad", "place": "hamlet"}}, {"type": "node", "id": 1876586832, "lat": 57.2430568, "lon": 15.0459914, "tags": {"name": "S\u00f6dra Solberga", "place": "hamlet"}}, {"type": "node", "id": 1876587516, "lat": 57.25119, "lon": 15.0355276, "tags": {"name": "R\u00f6shult", "place": "hamlet"}}, {"type": "node", "id": 1876648652, "lat": 57.2347389, "lon": 15.0487989, "tags": {"name": "K\u00e4lledal", "place": "hamlet"}}, {"type": "node", "id": 1876652786, "lat": 57.2352556, "lon": 15.0293904, "tags": {"name": "Nyebro", "place": "hamlet"}}, {"type": "node", "id": 1876652787, "lat": 57.2381703, "lon": 15.026161, "tags": {"name": "Hillhult", "place": "hamlet"}}, {"type": "node", "id": 1876653364, "lat": 57.2362021, "lon": 15.0352054, "tags": {"name": "Erikstorp", "place": "hamlet"}}, {"type": "node", "id": 1876659112, "lat": 57.2271317, "lon": 14.9459308, "tags": {"name": "H\u00f6reda", "place": "hamlet"}}, {"type": "node", "id": 1881768114, "lat": 57.2221592, "lon": 14.9662043, "tags": {"name": "T\u00e5sseg\u00e4rde", "place": "hamlet"}}, {"type": "node", "id": 1881799128, "lat": 57.2084213, "lon": 15.003467, "tags": {"name": "H\u00f6gar\u00f6r", "place": "hamlet"}}, {"type": "node", "id": 1881799134, "lat": 57.2125233, "lon": 15.0114278, "tags": {"name": "Varhester", "place": "hamlet"}}, {"type": "node", "id": 1881801583, "lat": 57.2216188, "lon": 15.0006303, "tags": {"name": "Viaskog", "place": "hamlet"}}, {"type": "node", "id": 1882214685, "lat": 57.197376, "lon": 15.0197345, "tags": {"name": "Karsebo", "place": "hamlet"}}, {"type": "node", "id": 1882223771, "lat": 57.1902959, "lon": 14.9933523, "tags": {"name": "Nyan\u00e4s", "place": "hamlet"}}, {"type": "node", "id": 1882278683, "lat": 57.1773876, "lon": 14.9289109, "tags": {"name": "Barkaryd", "place": "hamlet"}}, {"type": "node", "id": 1882289732, "lat": 57.1601844, "lon": 14.9383362, "tags": {"name": "Svarthult", "place": "hamlet"}}, {"type": "node", "id": 1882295735, "lat": 57.1611909, "lon": 14.9241044, "tags": {"name": "Hulu", "place": "hamlet"}}, {"type": "node", "id": 1883794659, "lat": 57.1019748, "lon": 15.0054043, "tags": {"name": "F\u00f6reda", "place": "hamlet"}}, {"type": "node", "id": 1883866697, "lat": 57.1384205, "lon": 14.9677129, "tags": {"name": "Skogslund", "place": "hamlet"}}, {"type": "node", "id": 1883901538, "lat": 57.1125095, "lon": 14.9751575, "tags": {"name": "Hornaryd", "place": "hamlet"}}, {"type": "node", "id": 1883944530, "lat": 57.1184279, "lon": 14.9683125, "tags": {"name": "Karstorp", "place": "hamlet"}}, {"type": "node", "id": 1883948139, "lat": 57.128713, "lon": 14.9543006, "tags": {"name": "Klackhult", "place": "hamlet"}}, {"type": "node", "id": 1884005664, "lat": 57.1119386, "lon": 14.9221356, "tags": {"name": "Kolsboda", "place": "hamlet"}}, {"type": "node", "id": 1884054400, "lat": 57.106516, "lon": 14.9845843, "tags": {"name": "K\u00e4rr", "place": "hamlet"}}, {"type": "node", "id": 1884116841, "lat": 57.0747649, "lon": 15.0097541, "tags": {"name": "Brandstorp", "place": "hamlet"}}, {"type": "node", "id": 1884281776, "lat": 57.2028922, "lon": 15.0309812, "tags": {"name": "Stora Moshult", "place": "hamlet"}}, {"type": "node", "id": 1884287626, "lat": 57.2200204, "lon": 15.0296401, "tags": {"name": "Lilla Moshult", "place": "hamlet"}}, {"type": "node", "id": 1884289559, "lat": 57.2273387, "lon": 15.0432657, "tags": {"name": "Simonsryd", "place": "hamlet"}}, {"type": "node", "id": 1884444956, "lat": 57.2634738, "lon": 14.8705476, "tags": {"name": "F\u00e5gelleken", "place": "hamlet"}}, {"type": "node", "id": 1884446243, "lat": 57.2577937, "lon": 14.8698821, "tags": {"name": "Doestorp", "place": "hamlet"}}, {"type": "node", "id": 1884449480, "lat": 57.2484239, "lon": 14.8857769, "tags": {"name": "Knutstorp", "place": "hamlet"}}, {"type": "node", "id": 1885688308, "lat": 57.1091586, "lon": 15.0351378, "tags": {"name": "Pil\u00e5s", "place": "hamlet"}}, {"type": "node", "id": 1885688434, "lat": 57.1292816, "lon": 15.0437695, "tags": {"name": "Hagreda", "place": "hamlet"}}, {"type": "node", "id": 1885809014, "lat": 57.2504838, "lon": 14.9017029, "tags": {"name": "Puketorp", "place": "hamlet"}}, {"type": "node", "id": 1885867998, "lat": 57.2300598, "lon": 14.9021964, "tags": {"name": "Herrelida", "place": "hamlet"}}, {"type": "node", "id": 1885892395, "lat": 57.2175723, "lon": 14.9019067, "tags": {"name": "L\u00f6v\u00e5s", "place": "hamlet"}}, {"type": "node", "id": 1885896927, "lat": 57.2101184, "lon": 14.904664, "tags": {"name": "Ur\u00e5s", "place": "hamlet"}}, {"type": "node", "id": 1887120045, "lat": 57.2458285, "lon": 14.8381646, "tags": {"name": "R\u00f6shult", "place": "hamlet"}}, {"type": "node", "id": 1887138087, "lat": 57.2541403, "lon": 14.8327875, "tags": {"name": "Bj\u00f6rkelund", "place": "hamlet"}}, {"type": "node", "id": 1887147703, "lat": 57.258643, "lon": 14.8331327, "tags": {"name": "Huluboda", "place": "hamlet"}}, {"type": "node", "id": 1887172077, "lat": 57.3080717, "lon": 14.8684091, "tags": {"name": "\u00c5rset", "place": "hamlet"}}, {"type": "node", "id": 1887182920, "lat": 57.3037717, "lon": 14.8585923, "tags": {"name": "Anderstorp", "place": "hamlet"}}, {"type": "node", "id": 1887278506, "lat": 57.2902888, "lon": 14.809422, "tags": {"name": "N\u00e4s", "place": "hamlet"}}, {"type": "node", "id": 1887347487, "lat": 57.3082572, "lon": 14.80056, "tags": {"name": "Hj\u00e4lm\u00e5kra", "place": "hamlet"}}, {"type": "node", "id": 1887353425, "lat": 57.3060817, "lon": 14.7860954, "tags": {"name": "\u00c4lmes\u00e5s", "place": "hamlet"}}, {"type": "node", "id": 1887376225, "lat": 57.3328307, "lon": 14.7880072, "tags": {"name": "Solkaryd", "place": "hamlet"}}, {"type": "node", "id": 1904126592, "lat": 57.2745797, "lon": 14.9285607, "tags": {"name": "Bj\u00f6rkelund", "place": "hamlet"}}, {"type": "node", "id": 1917694884, "lat": 57.2932542, "lon": 14.8797051, "tags": {"name": "H\u00f6khult", "place": "hamlet"}}, {"type": "node", "id": 1918869849, "lat": 57.3210828, "lon": 14.8693091, "tags": {"name": "Fr\u00f6deryd", "place": "hamlet"}}, {"type": "node", "id": 1918996983, "lat": 57.3250724, "lon": 14.8988886, "tags": {"name": "\u00c4sprilla", "place": "hamlet"}}, {"type": "node", "id": 1919038485, "lat": 57.3266652, "lon": 14.852422, "tags": {"name": "Amnabro", "place": "hamlet"}}, {"type": "node", "id": 1946091639, "lat": 57.3370633, "lon": 14.8630082, "tags": {"name": "Ljungan\u00e4s", "place": "hamlet"}}, {"type": "node", "id": 1970012393, "lat": 57.3108522, "lon": 15.0015372, "tags": {"name": "Skr\u00e4ppeboda", "place": "hamlet"}}, {"type": "node", "id": 2226880990, "lat": 57.0412591, "lon": 14.8157504, "tags": {"name": "Tjureda", "place": "hamlet", "ref:se:pts:postort": "TJUREDA"}}, {"type": "node", "id": 2226880995, "lat": 57.0927354, "lon": 14.8033754, "tags": {"name": "Tolg", "place": "hamlet", "ref:se:pts:postort": "TOLG"}}, {"type": "node", "id": 2235314894, "lat": 57.3082664, "lon": 15.5780449, "tags": {"name": "Semesterbyn", "place": "hamlet"}}, {"type": "node", "id": 2291171266, "lat": 57.1275518, "lon": 15.1621897, "tags": {"name": "Norrhult-Klavrestr\u00f6m", "place": "village", "population": "1215", "ref:se:scb": "1948"}}, {"type": "node", "id": 2427918352, "lat": 57.0029133, "lon": 15.4068232, "tags": {"name": "S\u00e4vsj\u00f6str\u00f6m", "place": "hamlet", "ref:se:pts:postort": "S\u00c4VSJ\u00d6STR\u00d6M"}}, {"type": "node", "id": 2428432781, "lat": 57.0004081, "lon": 14.8130677, "tags": {"name": "Ekna", "place": "hamlet"}}, {"type": "node", "id": 2498817787, "lat": 57.1536593, "lon": 15.5604587, "tags": {"name": "Gruvebo", "place": "hamlet"}}, {"type": "node", "id": 2498848947, "lat": 57.1429766, "lon": 15.5739985, "tags": {"name": "Danstorp", "place": "hamlet"}}, {"type": "node", "id": 2548944060, "lat": 57.1433082, "lon": 15.5634639, "tags": {"name": "M\u00e5ketorp", "place": "hamlet"}}, {"type": "node", "id": 2548945538, "lat": 57.1450311, "lon": 15.5467162, "tags": {"name": "M\u00f6sj\u00f6hult", "place": "hamlet"}}, {"type": "node", "id": 2603046588, "lat": 57.1261207, "lon": 15.5535221, "tags": {"name": "St\u00f6dsboda", "place": "hamlet"}}, {"type": "node", "id": 2927744928, "lat": 57.0526319, "lon": 14.7800292, "tags": {"name": "Skaven\u00e4s", "place": "hamlet"}}, {"type": "node", "id": 3197283002, "lat": 56.9339419, "lon": 15.445402, "tags": {"name": "M\u00f6cklehult", "place": "village"}}, {"type": "node", "id": 3245452678, "lat": 56.932401, "lon": 15.1947479, "tags": {"name": "Herr\u00e5kra", "place": "village"}}, {"type": "node", "id": 3431511391, "lat": 57.2203225, "lon": 15.5755886, "tags": {"name": "Triabo", "place": "hamlet"}}, {"type": "node", "id": 3593222450, "lat": 56.9995476, "lon": 15.4138344, "tags": {"name": "Lustigkulla", "place": "hamlet"}}, {"type": "node", "id": 3593514038, "lat": 57.006907, "lon": 15.1817967, "tags": {"name": "N\u00e4sbykulla", "place": "hamlet"}}, {"type": "node", "id": 3593517204, "lat": 57.0120391, "lon": 15.1885953, "tags": {"name": "Asby", "place": "hamlet"}}, {"type": "node", "id": 3601187108, "lat": 57.0031725, "lon": 15.5015708, "tags": {"name": "Hageskruv", "place": "hamlet"}}, {"type": "node", "id": 3716562035, "lat": 57.2684051, "lon": 15.3819343, "tags": {"name": "N\u00e4shult", "place": "village"}}, {"type": "node", "id": 3716585341, "lat": 57.3246647, "lon": 15.4214594, "tags": {"name": "Stenberga", "place": "village"}}, {"type": "node", "id": 3834817044, "lat": 57.1992113, "lon": 15.2636899, "tags": {"name": "Baggatorp", "place": "hamlet"}}, {"type": "node", "id": 3835035745, "lat": 57.2223574, "lon": 15.5333271, "tags": {"name": "R\u00e5s", "place": "hamlet"}}, {"type": "node", "id": 3835041910, "lat": 57.23707, "lon": 15.534577, "tags": {"name": "Triabo", "place": "hamlet"}}, {"type": "node", "id": 3835199101, "lat": 57.2321449, "lon": 15.5356499, "tags": {"name": "Lorth\u00e5lan", "place": "hamlet"}}, {"type": "node", "id": 3835201293, "lat": 57.2261401, "lon": 15.5245455, "tags": {"name": "Gnemaden", "place": "hamlet"}}, {"type": "node", "id": 4086434934, "lat": 57.309526, "lon": 15.1881496, "tags": {"name": "Huluboda", "place": "hamlet"}}, {"type": "node", "id": 4087180798, "lat": 57.2973073, "lon": 15.1909748, "tags": {"addr:postcode": "570 10", "name": "Alekull", "place": "hamlet"}}, {"type": "node", "id": 4087206763, "lat": 57.2922225, "lon": 15.1812983, "tags": {"addr:postcode": "570 10", "name": "Storag\u00e5rd", "place": "hamlet"}}, {"type": "node", "id": 4094142506, "lat": 57.2993034, "lon": 15.2032972, "tags": {"addr:postcode": "570 10", "name": "Ekeberg", "place": "hamlet"}}, {"type": "node", "id": 4465325465, "lat": 57.101182, "lon": 15.3310508, "tags": {"name": "Tvinnesheda", "place": "hamlet"}}, {"type": "node", "id": 5970318703, "lat": 56.9065212, "lon": 14.9112545, "tags": {"name": "Vikensved", "place": "hamlet"}}, {"type": "node", "id": 7455032611, "lat": 57.2478901, "lon": 15.3606702, "tags": {"name": "Stora Hillhult", "place": "hamlet"}}, {"type": "node", "id": 7455033111, "lat": 57.3297177, "lon": 15.5115644, "tags": {"name": "Stora Ulvarp", "place": "hamlet"}}, {"type": "node", "id": 7455042576, "lat": 57.2790706, "lon": 15.146519, "tags": {"name": "Herra-Knixhult", "place": "hamlet"}}, {"type": "node", "id": 7455113057, "lat": 57.2168011, "lon": 15.4759921, "tags": {"name": "Lilla H\u00e4radssk\u00f6gle", "place": "hamlet"}}, {"type": "node", "id": 7455119948, "lat": 57.2805723, "lon": 15.1527945, "tags": {"name": "V\u00e4sterg\u00e5rden", "place": "hamlet"}}, {"type": "node", "id": 7455124129, "lat": 57.2885686, "lon": 15.1090969, "tags": {"name": "Bockaberg", "place": "hamlet"}}, {"type": "node", "id": 7455160572, "lat": 57.214083, "lon": 15.4842688, "tags": {"name": "Stora H\u00e4radssk\u00f6gle", "place": "hamlet"}}, {"type": "node", "id": 7455184157, "lat": 57.2454763, "lon": 15.4782833, "tags": {"name": "Stora H\u00f6ghult", "place": "hamlet"}}, {"type": "node", "id": 7455259066, "lat": 57.2416218, "lon": 14.8884895, "tags": {"name": "Stora Rulla", "place": "hamlet"}}, {"type": "node", "id": 7455281178, "lat": 57.2925875, "lon": 15.3923789, "tags": {"name": "Norra Ekag\u00e5rd", "place": "hamlet"}}, {"type": "node", "id": 7455350932, "lat": 57.2368248, "lon": 14.8900957, "tags": {"name": "Stora Br\u00e5nskog", "place": "hamlet"}}, {"type": "node", "id": 7455369639, "lat": 57.2384211, "lon": 15.4837756, "tags": {"name": "Lilla H\u00f6ghult", "place": "hamlet"}}, {"type": "node", "id": 7455393148, "lat": 57.214296, "lon": 15.5099838, "tags": {"name": "L\u00e5nghult", "place": "hamlet"}}, {"type": "node", "id": 7455393238, "lat": 57.2382802, "lon": 15.1858376, "tags": {"name": "Milletorp", "place": "hamlet"}}, {"type": "node", "id": 7455418715, "lat": 57.2486673, "lon": 15.178118, "tags": {"name": "G\u00f6ljaryd", "place": "hamlet"}}, {"type": "node", "id": 7455422112, "lat": 57.2202985, "lon": 15.4321356, "tags": {"name": "Svartarp", "place": "hamlet"}}, {"type": "node", "id": 7455432954, "lat": 57.2235592, "lon": 15.5162731, "tags": {"name": "Hulu", "place": "hamlet"}}, {"type": "node", "id": 7455433977, "lat": 57.2670946, "lon": 15.2456898, "tags": {"name": "Borsask\u00f6gle", "place": "hamlet"}}, {"type": "node", "id": 7455434211, "lat": 57.2759161, "lon": 15.1856865, "tags": {"name": "Sk\u00e4ftesfall", "place": "hamlet"}}, {"type": "node", "id": 7455436448, "lat": 57.2464853, "lon": 15.1838407, "tags": {"name": "Bostenstorp", "place": "hamlet"}}, {"type": "node", "id": 7455442966, "lat": 57.3346317, "lon": 15.2399111, "tags": {"name": "Bladekulla", "place": "hamlet"}}, {"type": "node", "id": 7455443310, "lat": 57.2401377, "lon": 15.1987703, "tags": {"name": "Herrstenstorp", "place": "hamlet"}}, {"type": "node", "id": 7455455118, "lat": 57.3244549, "lon": 15.248795, "tags": {"name": "Byestad", "place": "hamlet"}}, {"type": "node", "id": 7455458624, "lat": 57.2787512, "lon": 15.2866896, "tags": {"name": "Boatorp", "place": "hamlet"}}, {"type": "node", "id": 7455475314, "lat": 57.2848176, "lon": 15.2720177, "tags": {"name": "Gatu", "place": "hamlet"}}, {"type": "node", "id": 7455476537, "lat": 57.2728177, "lon": 15.2753619, "tags": {"name": "Sevedstorp", "place": "hamlet"}}, {"type": "node", "id": 7455477750, "lat": 57.3276517, "lon": 15.2870983, "tags": {"name": "Virkesbo", "place": "hamlet"}}, {"type": "node", "id": 7455489079, "lat": 57.2426929, "lon": 15.2893865, "tags": {"name": "Saxhult", "place": "hamlet"}}, {"type": "node", "id": 7455490003, "lat": 57.3333838, "lon": 15.2827077, "tags": {"name": "Karsn\u00e4s", "place": "hamlet"}}, {"type": "node", "id": 7455491183, "lat": 57.2369, "lon": 15.2810912, "tags": {"name": "Boask\u00f6gle", "place": "hamlet"}}, {"type": "node", "id": 7455491195, "lat": 57.3225662, "lon": 15.2673306, "tags": {"name": "V\u00e4ringsn\u00e4s", "place": "hamlet"}}, {"type": "node", "id": 7455491625, "lat": 57.2500235, "lon": 15.3430081, "tags": {"name": "N\u00e4ssja S\u00f6rg\u00e5rd", "place": "hamlet"}}, {"type": "node", "id": 7455491687, "lat": 57.2573935, "lon": 15.3576799, "tags": {"name": "N\u00e4ssja", "place": "hamlet"}}, {"type": "node", "id": 7455491688, "lat": 57.2546377, "lon": 15.3754874, "tags": {"name": "G\u00f6testorp", "place": "hamlet"}}, {"type": "node", "id": 7455498514, "lat": 57.2664791, "lon": 15.3747961, "tags": {"name": "Serarp", "place": "hamlet"}}, {"type": "node", "id": 7455499337, "lat": 57.294297, "lon": 15.3278221, "tags": {"name": "Edstorp", "place": "hamlet"}}, {"type": "node", "id": 7455501772, "lat": 57.3176525, "lon": 15.3481695, "tags": {"name": "Biltingaled", "place": "hamlet"}}, {"type": "node", "id": 7455502007, "lat": 57.2953525, "lon": 15.3226218, "tags": {"name": "Borshult", "place": "hamlet"}}, {"type": "node", "id": 7455509978, "lat": 57.3000509, "lon": 15.3620766, "tags": {"name": "F\u00e5glakulla", "place": "hamlet"}}, {"type": "node", "id": 7455515118, "lat": 57.3047538, "lon": 15.3665876, "tags": {"name": "Penningetorp", "place": "hamlet"}}, {"type": "node", "id": 7455526907, "lat": 57.263341, "lon": 15.386103, "tags": {"name": "Haddarp", "place": "hamlet"}}, {"type": "node", "id": 7455530932, "lat": 57.2638854, "lon": 15.4032362, "tags": {"name": "\u00c4ng", "place": "hamlet"}}, {"type": "node", "id": 7455534513, "lat": 57.2616286, "lon": 15.433516, "tags": {"name": "\u00d6ver\u00e5kra", "place": "hamlet"}}, {"type": "node", "id": 7455535356, "lat": 57.2431915, "lon": 15.4978559, "tags": {"name": "Klemetssk\u00f6gle", "place": "hamlet"}}, {"type": "node", "id": 7455536949, "lat": 57.2763622, "lon": 15.4091101, "tags": {"name": "\u00d6dmundetorp", "place": "hamlet"}}, {"type": "node", "id": 7455539643, "lat": 57.2895131, "lon": 15.3979584, "tags": {"name": "Njupingetorp", "place": "hamlet"}}, {"type": "node", "id": 7455539825, "lat": 57.2170543, "lon": 15.4553141, "tags": {"name": "Pr\u00e4sttorp", "place": "hamlet"}}, {"type": "node", "id": 7455540582, "lat": 57.3235332, "lon": 15.5001452, "tags": {"name": "Bl\u00e5sm\u00e5len", "place": "hamlet"}}, {"type": "node", "id": 7455541863, "lat": 57.2255783, "lon": 15.4267641, "tags": {"name": "Kejsarekulla", "place": "hamlet"}}, {"type": "node", "id": 7455544830, "lat": 57.232494, "lon": 15.4014521, "tags": {"name": "R\u00e5sa", "place": "hamlet"}}, {"type": "node", "id": 7455545413, "lat": 57.2357485, "lon": 15.417474, "tags": {"name": "Mosingetorp", "place": "hamlet"}}, {"type": "node", "id": 7455546732, "lat": 57.2320147, "lon": 15.4190222, "tags": {"name": "R\u00f6sj\u00f6holm", "place": "hamlet"}}, {"type": "node", "id": 7455548648, "lat": 57.2491656, "lon": 15.3992634, "tags": {"name": "Beskvarn", "place": "hamlet"}}, {"type": "node", "id": 7455549119, "lat": 57.2418393, "lon": 15.4007253, "tags": {"name": "R\u00f6sj\u00f6n\u00e4s", "place": "hamlet"}}, {"type": "node", "id": 7455551417, "lat": 57.2411027, "lon": 15.3815624, "tags": {"name": "Smedstorp", "place": "hamlet"}}, {"type": "node", "id": 7455555922, "lat": 57.3186156, "lon": 15.4314301, "tags": {"name": "Boda", "place": "hamlet"}}, {"type": "node", "id": 7455556276, "lat": 57.2061236, "lon": 15.0824344, "tags": {"name": "Granshult", "place": "hamlet"}}, {"type": "node", "id": 7455561725, "lat": 57.1427609, "lon": 14.9706521, "tags": {"name": "S\u00f6draskog", "place": "hamlet"}}, {"type": "node", "id": 7455562082, "lat": 57.1759701, "lon": 15.0388842, "tags": {"name": "H\u00f6rjes\u00e5s", "place": "hamlet"}}, {"type": "node", "id": 7455564154, "lat": 57.2693008, "lon": 15.1719661, "tags": {"name": "Flohult", "place": "hamlet"}}, {"type": "node", "id": 7455565494, "lat": 57.304334, "lon": 15.3810565, "tags": {"name": "Idan\u00e4s", "place": "hamlet"}}, {"type": "node", "id": 7455565927, "lat": 57.1638341, "lon": 14.9624509, "tags": {"name": "Kyrkotorp", "place": "hamlet"}}, {"type": "node", "id": 7455566947, "lat": 57.2429254, "lon": 14.8031031, "tags": {"name": "Tr\u00e4de", "place": "hamlet"}}, {"type": "node", "id": 7455569900, "lat": 57.1596349, "lon": 14.9920649, "tags": {"name": "Marb\u00e4ckshult", "place": "hamlet"}}, {"type": "node", "id": 7455569901, "lat": 57.1515319, "lon": 14.9593948, "tags": {"name": "Sk\u00e4rb\u00e4ck", "place": "hamlet"}}, {"type": "node", "id": 7455571959, "lat": 57.1587174, "lon": 14.9797155, "tags": {"name": "Perstorp", "place": "hamlet"}}, {"type": "node", "id": 7455572638, "lat": 57.1638441, "lon": 14.9241334, "tags": {"name": "Medeltorp", "place": "hamlet"}}, {"type": "node", "id": 7455575254, "lat": 57.2424182, "lon": 15.1026804, "tags": {"name": "Fornebo", "place": "hamlet"}}, {"type": "node", "id": 7455575782, "lat": 57.2344439, "lon": 15.0570029, "tags": {"name": "K\u00e4lleryd", "place": "hamlet"}}, {"type": "node", "id": 7455576829, "lat": 57.2271336, "lon": 14.8822732, "tags": {"name": "Karstorp", "place": "hamlet"}}, {"type": "node", "id": 7455576883, "lat": 57.2769705, "lon": 15.1290799, "tags": {"name": "Yxanshult", "place": "hamlet"}}, {"type": "node", "id": 7455577694, "lat": 57.1796761, "lon": 14.989761, "tags": {"name": "Dragsn\u00e4s", "place": "hamlet"}}, {"type": "node", "id": 7455577892, "lat": 57.1527223, "lon": 14.9663965, "tags": {"name": "Bolsg\u00e5rd", "place": "hamlet"}}, {"type": "node", "id": 7455579846, "lat": 57.2044331, "lon": 14.928881, "tags": {"name": "Torp", "place": "hamlet"}}, {"type": "node", "id": 7455580045, "lat": 57.1505101, "lon": 14.9575557, "tags": {"name": "Nedrag\u00e5rd", "place": "hamlet"}}, {"type": "node", "id": 7455581235, "lat": 57.2398125, "lon": 15.0791956, "tags": {"name": "Stockseryd", "place": "hamlet"}}, {"type": "node", "id": 7455582531, "lat": 57.1911088, "lon": 15.07297, "tags": {"name": "Br\u00e4nderyd", "place": "hamlet"}}, {"type": "node", "id": 7455584574, "lat": 57.2277386, "lon": 14.8762097, "tags": {"name": "Broddatorp", "place": "hamlet"}}, {"type": "node", "id": 7455586218, "lat": 57.2103836, "lon": 15.1327626, "tags": {"name": "Kulla", "place": "hamlet"}}, {"type": "node", "id": 7455589318, "lat": 57.2228723, "lon": 15.1005398, "tags": {"name": "L\u00f6karyd", "place": "hamlet"}}, {"type": "node", "id": 7455591406, "lat": 57.210391, "lon": 14.9540106, "tags": {"name": "Nyg\u00e5rd", "place": "hamlet"}}, {"type": "node", "id": 7455592994, "lat": 57.2288136, "lon": 14.8414232, "tags": {"name": "Notteberg", "place": "hamlet"}}, {"type": "node", "id": 7455600291, "lat": 57.2584013, "lon": 15.1009013, "tags": {"name": "Anglaskruv", "place": "hamlet"}}, {"type": "node", "id": 7455600686, "lat": 57.22429, "lon": 14.837435, "tags": {"name": "Notteryd", "place": "hamlet"}}, {"type": "node", "id": 7455600913, "lat": 57.2344299, "lon": 14.8409928, "tags": {"name": "H\u00f6rnebo", "place": "hamlet"}}, {"type": "node", "id": 7455601264, "lat": 57.2601092, "lon": 14.796663, "tags": {"name": "Kristerstorp", "place": "hamlet"}}, {"type": "node", "id": 7455603234, "lat": 57.2493604, "lon": 14.8755408, "tags": {"name": "Vresekull", "place": "hamlet"}}, {"type": "node", "id": 7455612675, "lat": 57.2651709, "lon": 14.8032446, "tags": {"name": "Sandvik", "place": "hamlet"}}, {"type": "node", "id": 7455615018, "lat": 57.2379484, "lon": 14.802434, "tags": {"name": "Angseboda", "place": "hamlet"}}, {"type": "node", "id": 7455615660, "lat": 57.2613612, "lon": 15.1313656, "tags": {"name": "Stockatorp", "place": "hamlet"}}, {"type": "node", "id": 7455621567, "lat": 57.2730975, "lon": 14.9679408, "tags": {"name": "\u00c5slatorp", "place": "hamlet"}}, {"type": "node", "id": 7455621569, "lat": 57.2867523, "lon": 14.8328799, "tags": {"name": "Kallsj\u00f6", "place": "hamlet"}}, {"type": "node", "id": 7455624731, "lat": 57.2773346, "lon": 14.8235681, "tags": {"name": "Torp", "place": "hamlet"}}, {"type": "node", "id": 7455627970, "lat": 57.2871337, "lon": 15.1162592, "tags": {"name": "Notteberg", "place": "hamlet"}}, {"type": "node", "id": 7455628721, "lat": 57.2771231, "lon": 15.0550789, "tags": {"name": "Kullskog", "place": "hamlet"}}, {"type": "node", "id": 7455655437, "lat": 57.300821, "lon": 14.9281908, "tags": {"name": "Norrskog", "place": "hamlet"}}, {"type": "node", "id": 7455657627, "lat": 57.2826207, "lon": 15.1456544, "tags": {"name": "Knixhult", "place": "hamlet"}}, {"type": "node", "id": 7455658297, "lat": 57.2985026, "lon": 15.0998826, "tags": {"name": "Sj\u00f6ag\u00e5rd", "place": "hamlet"}}, {"type": "node", "id": 7455658602, "lat": 57.2923962, "lon": 14.9307126, "tags": {"name": "Tostatorp", "place": "hamlet"}}, {"type": "node", "id": 7455672863, "lat": 57.312, "lon": 15.0929964, "tags": {"name": "Bondan\u00e4s", "place": "hamlet"}}, {"type": "node", "id": 7455673686, "lat": 57.2879665, "lon": 15.0976978, "tags": {"name": "Lida", "place": "hamlet"}}, {"type": "node", "id": 7455674586, "lat": 57.3039695, "lon": 15.1405769, "tags": {"name": "Tovaholm", "place": "hamlet"}}, {"type": "node", "id": 7455678387, "lat": 57.3054205, "lon": 14.9740081, "tags": {"name": "Paddingetorp", "place": "hamlet"}}, {"type": "node", "id": 7455683190, "lat": 57.2989333, "lon": 15.057285, "tags": {"name": "Hultsvik", "place": "hamlet"}}, {"type": "node", "id": 7455693255, "lat": 57.3332707, "lon": 15.094512, "tags": {"name": "Bestorp", "place": "hamlet"}}, {"type": "node", "id": 7455700818, "lat": 57.3159752, "lon": 14.8266541, "tags": {"name": "S\u00f6rag\u00e5rd", "place": "hamlet"}}, {"type": "node", "id": 7455701297, "lat": 57.3224317, "lon": 14.8249633, "tags": {"name": "Fr\u00f6set", "place": "hamlet"}}, {"type": "node", "id": 7455715937, "lat": 57.3206059, "lon": 15.0795526, "tags": {"name": "Klacken\u00e4s", "place": "hamlet"}}, {"type": "node", "id": 7455719140, "lat": 57.329576, "lon": 15.0916405, "tags": {"name": "Folkatorp", "place": "hamlet"}}, {"type": "node", "id": 7455726612, "lat": 57.3178989, "lon": 15.0691033, "tags": {"name": "M\u00e5gebo", "place": "hamlet"}}, {"type": "node", "id": 7456074729, "lat": 56.9566636, "lon": 15.006281, "tags": {"name": "Lilla Bj\u00f6rnamo", "place": "hamlet"}}, {"type": "node", "id": 7456113156, "lat": 56.9295806, "lon": 14.8150587, "tags": {"name": "Stora Hultet", "place": "hamlet"}}, {"type": "node", "id": 7456199158, "lat": 57.1361714, "lon": 15.1059379, "tags": {"name": "Stora Heda", "place": "hamlet"}}, {"type": "node", "id": 7456203516, "lat": 57.0205613, "lon": 15.0362794, "tags": {"name": "Klockareg\u00e5rden", "place": "hamlet"}}, {"type": "node", "id": 7456212316, "lat": 57.1676116, "lon": 15.0489959, "tags": {"name": "Lilla \u00c4sk\u00e5s", "place": "hamlet"}}, {"type": "node", "id": 7456231035, "lat": 57.127679, "lon": 15.1094325, "tags": {"name": "Lilla Heda", "place": "hamlet"}}, {"type": "node", "id": 7456328588, "lat": 56.9505466, "lon": 15.0070028, "tags": {"name": "Stora Bj\u00f6rnamo", "place": "hamlet"}}, {"type": "node", "id": 7456332864, "lat": 57.1124041, "lon": 14.9003736, "tags": {"name": "Stora Br\u00e5na", "place": "hamlet"}}, {"type": "node", "id": 7456398487, "lat": 56.9800566, "lon": 14.9867718, "tags": {"name": "Norra \u00c5reda", "place": "hamlet"}}, {"type": "node", "id": 7456408962, "lat": 57.1702033, "lon": 15.0600791, "tags": {"name": "Stora \u00c4sk\u00e5s", "place": "hamlet"}}, {"type": "node", "id": 7461113956, "lat": 56.9026699, "lon": 14.8837394, "tags": {"name": "Notteryd", "place": "hamlet"}}, {"type": "node", "id": 7461217207, "lat": 56.9338351, "lon": 14.8915791, "tags": {"name": "Toftah\u00f6jden", "place": "hamlet"}}, {"type": "node", "id": 7461331746, "lat": 56.9003637, "lon": 15.2639794, "tags": {"name": "Kylleskruv", "place": "hamlet"}}, {"type": "node", "id": 7461338068, "lat": 57.0284773, "lon": 15.504587, "tags": {"name": "Rabbetorp", "place": "hamlet"}}, {"type": "node", "id": 7461367704, "lat": 56.9564026, "lon": 15.4191149, "tags": {"name": "Merhult", "place": "hamlet"}}, {"type": "node", "id": 7461380796, "lat": 56.9363603, "lon": 15.5427669, "tags": {"name": "Silverekem\u00e5la", "place": "hamlet"}}, {"type": "node", "id": 7461380877, "lat": 56.9776744, "lon": 14.9142872, "tags": {"name": "Gasslanda", "place": "hamlet"}}, {"type": "node", "id": 7461380918, "lat": 56.9977966, "lon": 15.5698834, "tags": {"name": "Kvarterbo", "place": "hamlet"}}, {"type": "node", "id": 7461381179, "lat": 57.0284691, "lon": 15.5429722, "tags": {"name": "Kr\u00e5kem\u00e5la", "place": "hamlet"}}, {"type": "node", "id": 7461388622, "lat": 56.9696033, "lon": 15.531555, "tags": {"name": "H\u00f6neskruv", "place": "hamlet"}}, {"type": "node", "id": 7461388631, "lat": 57.000187, "lon": 15.5349711, "tags": {"name": "Svartshult", "place": "hamlet"}}, {"type": "node", "id": 7461392986, "lat": 56.9514869, "lon": 15.5412274, "tags": {"name": "Silvereke", "place": "hamlet"}}, {"type": "node", "id": 7461393443, "lat": 57.0174385, "lon": 15.5616532, "tags": {"name": "Kylle", "place": "hamlet"}}, {"type": "node", "id": 7461393987, "lat": 57.0357423, "lon": 15.5247381, "tags": {"name": "H\u00e4ltek\u00e4rr", "place": "hamlet"}}, {"type": "node", "id": 7461445445, "lat": 57.0537844, "lon": 14.9588855, "tags": {"name": "Bj\u00f6rkekull", "place": "hamlet"}}, {"type": "node", "id": 7461446763, "lat": 56.982158, "lon": 14.950047, "tags": {"name": "Udden", "place": "hamlet"}}, {"type": "node", "id": 7461448908, "lat": 57.0047772, "lon": 14.9144386, "tags": {"name": "S\u00f6drag\u00e5rden", "place": "hamlet"}}, {"type": "node", "id": 7461454423, "lat": 56.9926307, "lon": 14.8623593, "tags": {"name": "Stocke", "place": "hamlet"}}, {"type": "node", "id": 7461456277, "lat": 56.9580373, "lon": 14.9369743, "tags": {"name": "Kr\u00e5ken\u00e4sryd", "place": "hamlet"}}, {"type": "node", "id": 7461462843, "lat": 56.9379239, "lon": 14.985916, "tags": {"name": "Kyrkeryd", "place": "hamlet"}}, {"type": "node", "id": 7461483000, "lat": 56.9403174, "lon": 14.96192, "tags": {"name": "Tveta", "place": "hamlet"}}, {"type": "node", "id": 7461488352, "lat": 56.9071051, "lon": 14.9627907, "tags": {"name": "Gummatorp", "place": "hamlet"}}, {"type": "node", "id": 7461504881, "lat": 57.0141546, "lon": 15.0317497, "tags": {"name": "Bj\u00f6rka", "place": "hamlet"}}, {"type": "node", "id": 7461504970, "lat": 56.91993, "lon": 15.0104959, "tags": {"name": "Holkaryd", "place": "hamlet"}}, {"type": "node", "id": 7461514659, "lat": 57.0420993, "lon": 14.958289, "tags": {"name": "Br\u00f6ttjaryd", "place": "hamlet"}}, {"type": "node", "id": 7461522403, "lat": 57.0264716, "lon": 14.9713364, "tags": {"name": "M\u00e5lajord", "place": "hamlet"}}, {"type": "node", "id": 7461542744, "lat": 56.998729, "lon": 15.0250789, "tags": {"name": "Sp\u00e5ngaberg", "place": "hamlet"}}, {"type": "node", "id": 7461544087, "lat": 56.9938244, "lon": 15.0351721, "tags": {"name": "Sk\u00e5rtaryd", "place": "hamlet"}}, {"type": "node", "id": 7461545650, "lat": 56.9462412, "lon": 14.9858474, "tags": {"name": "H\u00e4ljaryd", "place": "hamlet"}}, {"type": "node", "id": 7461547636, "lat": 56.995406, "lon": 15.0657913, "tags": {"name": "Betingetorp", "place": "hamlet"}}, {"type": "node", "id": 7461570554, "lat": 57.0331194, "lon": 15.0270208, "tags": {"name": "V\u00e4rendseke", "place": "hamlet"}}, {"type": "node", "id": 7461571355, "lat": 57.0437231, "lon": 15.006625, "tags": {"name": "Sevedstorp", "place": "hamlet"}}, {"type": "node", "id": 7461571358, "lat": 57.0232375, "lon": 15.0304398, "tags": {"name": "Torpa", "place": "hamlet"}}, {"type": "node", "id": 7461596120, "lat": 56.986485, "lon": 15.0588289, "tags": {"name": "Brant\u00e5sa", "place": "hamlet"}}, {"type": "node", "id": 7461601369, "lat": 56.9744492, "lon": 15.0910892, "tags": {"name": "Ramn\u00e5sa", "place": "hamlet"}}, {"type": "node", "id": 7461618450, "lat": 56.9560928, "lon": 15.1013165, "tags": {"name": "Hager\u00e5s", "place": "hamlet"}}, {"type": "node", "id": 7461625779, "lat": 56.9281305, "lon": 15.1789045, "tags": {"name": "Holma", "place": "hamlet"}}, {"type": "node", "id": 7461631750, "lat": 57.0389758, "lon": 15.1531205, "tags": {"name": "Mo", "place": "hamlet"}}, {"type": "node", "id": 7461645966, "lat": 56.9333036, "lon": 15.1978266, "tags": {"name": "Vraneke", "place": "hamlet"}}, {"type": "node", "id": 7461647002, "lat": 56.9339667, "lon": 15.1613664, "tags": {"name": "Magersryd", "place": "hamlet"}}, {"type": "node", "id": 7461652043, "lat": 56.9246998, "lon": 15.1646754, "tags": {"name": "Holmahult", "place": "hamlet"}}, {"type": "node", "id": 7461656261, "lat": 57.0519055, "lon": 15.1849558, "tags": {"name": "\u00c4lmeshult", "place": "hamlet"}}, {"type": "node", "id": 7461670799, "lat": 57.0550681, "lon": 15.1264789, "tags": {"name": "M\u00e4streda", "place": "hamlet"}}, {"type": "node", "id": 7461678856, "lat": 56.9778922, "lon": 15.2640014, "tags": {"name": "Bostorp", "place": "hamlet"}}, {"type": "node", "id": 7461681458, "lat": 56.9880865, "lon": 15.1905623, "tags": {"name": "N\u00e4sby", "place": "hamlet"}}, {"type": "node", "id": 7461692972, "lat": 57.0448422, "lon": 15.1982871, "tags": {"name": "Glos\u00e4ng", "place": "hamlet"}}, {"type": "node", "id": 7461699875, "lat": 56.9942627, "lon": 15.2712766, "tags": {"name": "N\u00f6bbele", "place": "hamlet"}}, {"type": "node", "id": 7461706772, "lat": 57.0148437, "lon": 15.263818, "tags": {"name": "Hassla", "place": "hamlet"}}, {"type": "node", "id": 7461719288, "lat": 57.104003, "lon": 15.2168762, "tags": {"name": "Hult\u00e5kra", "place": "hamlet"}}, {"type": "node", "id": 7461723131, "lat": 57.0607418, "lon": 15.1990313, "tags": {"name": "Vithult", "place": "hamlet"}}, {"type": "node", "id": 7461730414, "lat": 56.9425547, "lon": 15.2350376, "tags": {"name": "Hult", "place": "hamlet"}}, {"type": "node", "id": 7461731636, "lat": 56.910541, "lon": 15.242555, "tags": {"name": "Bihult", "place": "hamlet"}}, {"type": "node", "id": 7461737506, "lat": 57.0254588, "lon": 15.2375322, "tags": {"name": "Marhult", "place": "hamlet"}}, {"type": "node", "id": 7461746257, "lat": 56.9705908, "lon": 15.3633319, "tags": {"name": "V\u00e4straby", "place": "hamlet"}}, {"type": "node", "id": 7461750388, "lat": 57.0774822, "lon": 15.2964957, "tags": {"name": "Karskruv", "place": "hamlet"}}, {"type": "node", "id": 7461753558, "lat": 56.9623407, "lon": 15.3736282, "tags": {"name": "\u00d6stervik", "place": "hamlet"}}, {"type": "node", "id": 7461762170, "lat": 56.952086, "lon": 15.3095396, "tags": {"name": "H\u00f6kaskruv", "place": "hamlet"}}, {"type": "node", "id": 7461763491, "lat": 57.025317, "lon": 15.2219203, "tags": {"name": "Sl\u00e4ttebol", "place": "hamlet"}}, {"type": "node", "id": 7461764720, "lat": 57.0581375, "lon": 15.3502715, "tags": {"name": "Sk\u00e4raskog", "place": "hamlet"}}, {"type": "node", "id": 7461785251, "lat": 56.9659026, "lon": 15.353649, "tags": {"name": "\u00c4nghult", "place": "hamlet"}}, {"type": "node", "id": 7461790144, "lat": 57.0361508, "lon": 15.3703645, "tags": {"name": "H\u00f6khult", "place": "hamlet"}}, {"type": "node", "id": 7461801998, "lat": 57.0053509, "lon": 15.3125998, "tags": {"name": "Singelstorp", "place": "hamlet"}}, {"type": "node", "id": 7461815859, "lat": 56.9473907, "lon": 15.4378359, "tags": {"name": "Bohult", "place": "hamlet"}}, {"type": "node", "id": 7461823309, "lat": 56.9304459, "lon": 15.3434875, "tags": {"name": "V\u00e4gershult", "place": "hamlet"}}, {"type": "node", "id": 7461833911, "lat": 56.937547, "lon": 15.4213519, "tags": {"name": "Johanstorp", "place": "hamlet"}}, {"type": "node", "id": 7461862643, "lat": 56.9679487, "lon": 15.3801029, "tags": {"name": "\u00d6straby", "place": "hamlet"}}, {"type": "node", "id": 7461899453, "lat": 56.9433536, "lon": 14.8774817, "tags": {"name": "Tofta", "place": "hamlet"}}, {"type": "node", "id": 7461968064, "lat": 57.0068874, "lon": 14.9130018, "tags": {"name": "L\u00f6pan\u00e4s", "place": "hamlet"}}, {"type": "node", "id": 7461992887, "lat": 57.0253048, "lon": 14.8145732, "tags": {"name": "Stavs\u00e5kra", "place": "hamlet"}}, {"type": "node", "id": 7462062490, "lat": 57.0454243, "lon": 14.8692683, "tags": {"name": "Hanaholm", "place": "hamlet"}}, {"type": "node", "id": 7462071250, "lat": 57.0688729, "lon": 14.8079185, "tags": {"name": "Nykulla", "place": "hamlet"}}, {"type": "node", "id": 7462083478, "lat": 57.0679998, "lon": 15.4689401, "tags": {"name": "Norram\u00e5la", "place": "hamlet"}}, {"type": "node", "id": 7462092192, "lat": 57.0613396, "lon": 14.8500193, "tags": {"name": "M\u00e5lajord", "place": "hamlet"}}, {"type": "node", "id": 7462095828, "lat": 57.0586353, "lon": 15.4720868, "tags": {"name": "Marshult", "place": "hamlet"}}, {"type": "node", "id": 7462111337, "lat": 57.1794485, "lon": 15.5057827, "tags": {"name": "Massam\u00e5la", "place": "hamlet"}}, {"type": "node", "id": 7462116233, "lat": 57.1021299, "lon": 15.5623712, "tags": {"name": "\u00c5kvarn", "place": "hamlet"}}, {"type": "node", "id": 7462122540, "lat": 57.0740301, "lon": 15.5345495, "tags": {"name": "H\u00f6kan\u00e4s", "place": "hamlet"}}, {"type": "node", "id": 7462124059, "lat": 57.162709, "lon": 15.5437314, "tags": {"name": "Rosendal", "place": "hamlet"}}, {"type": "node", "id": 7462128007, "lat": 57.1948653, "lon": 15.5164683, "tags": {"name": "B\u00f6rs\u00e5s", "place": "hamlet"}}, {"type": "node", "id": 7462128593, "lat": 57.1656987, "lon": 15.5331974, "tags": {"name": "Sm\u00f6rtunnem\u00e5la", "place": "hamlet"}}, {"type": "node", "id": 7462145237, "lat": 57.0485134, "lon": 15.5364069, "tags": {"name": "Marskog", "place": "hamlet"}}, {"type": "node", "id": 7462152577, "lat": 57.122958, "lon": 15.5738856, "tags": {"name": "R\u00e4veberg", "place": "hamlet"}}, {"type": "node", "id": 7462158551, "lat": 57.1609763, "lon": 15.2310312, "tags": {"name": "Horshaga", "place": "hamlet"}}, {"type": "node", "id": 7462183578, "lat": 57.1087644, "lon": 15.2003778, "tags": {"name": "Skeda", "place": "hamlet"}}, {"type": "node", "id": 7462188248, "lat": 57.135198, "lon": 15.2192236, "tags": {"name": "Rosenholm", "place": "hamlet"}}, {"type": "node", "id": 7462198353, "lat": 57.1196781, "lon": 15.2552984, "tags": {"name": "Sj\u00f6atorp", "place": "hamlet"}}, {"type": "node", "id": 7462207104, "lat": 57.1263243, "lon": 15.2602496, "tags": {"name": "Flybo", "place": "hamlet"}}, {"type": "node", "id": 7462245866, "lat": 57.1818772, "lon": 15.1747789, "tags": {"name": "Lind\u00e5s", "place": "hamlet"}}, {"type": "node", "id": 7462245994, "lat": 57.1998163, "lon": 15.2734771, "tags": {"name": "Kulla", "place": "hamlet"}}, {"type": "node", "id": 7462245995, "lat": 57.2047776, "lon": 15.2720906, "tags": {"name": "Mulatorp", "place": "hamlet"}}, {"type": "node", "id": 7462255358, "lat": 57.1569558, "lon": 15.3561638, "tags": {"name": "Fr\u00f6seke", "place": "hamlet"}}, {"type": "node", "id": 7462260537, "lat": 57.1657848, "lon": 15.2663635, "tags": {"name": "\u00c4lmedal", "place": "hamlet"}}, {"type": "node", "id": 7462266184, "lat": 57.2105807, "lon": 15.3673588, "tags": {"name": "Sk\u00f6gle", "place": "hamlet"}}, {"type": "node", "id": 7462272644, "lat": 57.1554046, "lon": 15.2808197, "tags": {"name": "T\u00e4lleryd", "place": "hamlet"}}, {"type": "node", "id": 7462274266, "lat": 57.0808808, "lon": 15.3669004, "tags": {"name": "Bredh\u00e4lla", "place": "hamlet"}}, {"type": "node", "id": 7462276073, "lat": 57.1505739, "lon": 15.3760194, "tags": {"name": "Lillahult", "place": "hamlet"}}, {"type": "node", "id": 7462276323, "lat": 57.1473338, "lon": 15.301731, "tags": {"name": "Badeboda", "place": "hamlet"}}, {"type": "node", "id": 7462281925, "lat": 57.1249722, "lon": 15.2627514, "tags": {"name": "Nyg\u00e5rd", "place": "hamlet"}}, {"type": "node", "id": 7462282288, "lat": 57.1406514, "lon": 15.2895813, "tags": {"name": "Linneberg", "place": "hamlet"}}, {"type": "node", "id": 7462282869, "lat": 57.1169172, "lon": 15.2697287, "tags": {"name": "Lill\u00e5ker", "place": "hamlet"}}, {"type": "node", "id": 7462286078, "lat": 57.123185, "lon": 15.2829873, "tags": {"name": "\u00c5ker", "place": "hamlet"}}, {"type": "node", "id": 7462286897, "lat": 57.2143151, "lon": 15.3427921, "tags": {"name": "Toratorp", "place": "hamlet"}}, {"type": "node", "id": 7462300200, "lat": 57.2221521, "lon": 15.3348824, "tags": {"name": "Yggersryd", "place": "hamlet"}}, {"type": "node", "id": 7462316091, "lat": 57.200116, "lon": 15.3033529, "tags": {"name": "T\u00e5ngam\u00e5la", "place": "hamlet"}}, {"type": "node", "id": 7462316561, "lat": 57.1808242, "lon": 15.316032, "tags": {"name": "Torp", "place": "hamlet"}}, {"type": "node", "id": 7462326799, "lat": 57.1760984, "lon": 15.3237268, "tags": {"name": "G\u00f6ljhult", "place": "hamlet"}}, {"type": "node", "id": 7462328985, "lat": 57.195068, "lon": 15.2795819, "tags": {"name": "Horvhult", "place": "hamlet"}}, {"type": "node", "id": 7462329989, "lat": 57.1832796, "lon": 15.3038771, "tags": {"name": "Gassg\u00f6ljhult", "place": "hamlet"}}, {"type": "node", "id": 7462332062, "lat": 57.0880736, "lon": 15.4350703, "tags": {"name": "Labbem\u00e5la", "place": "hamlet"}}, {"type": "node", "id": 7462332349, "lat": 57.0965694, "lon": 15.43852, "tags": {"name": "Rism\u00e5la", "place": "hamlet"}}, {"type": "node", "id": 7462340949, "lat": 57.1069011, "lon": 15.4305189, "tags": {"name": "Fagraskruv", "place": "hamlet"}}, {"type": "node", "id": 7462342778, "lat": 57.1270132, "lon": 15.4140405, "tags": {"name": "Ekhorva", "place": "hamlet"}}, {"type": "node", "id": 7462344710, "lat": 57.0843732, "lon": 15.4189567, "tags": {"name": "Varshult", "place": "hamlet"}}, {"type": "node", "id": 7462344980, "lat": 57.2179477, "lon": 15.3791717, "tags": {"name": "Hult", "place": "hamlet"}}, {"type": "node", "id": 7462344981, "lat": 57.1288673, "lon": 15.4796366, "tags": {"name": "Nykomstorp", "place": "hamlet"}}, {"type": "node", "id": 7462345192, "lat": 57.2164394, "lon": 15.4213298, "tags": {"name": "Stubbetorp", "place": "hamlet"}}, {"type": "node", "id": 7462363171, "lat": 57.1267534, "lon": 15.4660323, "tags": {"name": "Mada", "place": "hamlet"}}, {"type": "node", "id": 7462379760, "lat": 57.1263539, "lon": 15.3934829, "tags": {"name": "Brinkelid", "place": "hamlet"}}, {"type": "node", "id": 7462387328, "lat": 57.1184156, "lon": 15.4514277, "tags": {"name": "Svenshult", "place": "hamlet"}}, {"type": "node", "id": 7462389691, "lat": 57.2113154, "lon": 15.4481077, "tags": {"name": "K\u00e4lleflaga", "place": "hamlet"}}, {"type": "node", "id": 7462395032, "lat": 57.1973387, "lon": 15.500301, "tags": {"name": "Bistockskulla", "place": "hamlet"}}, {"type": "node", "id": 7462400117, "lat": 57.1198145, "lon": 15.3897943, "tags": {"name": "Hulubergshult", "place": "hamlet"}}, {"type": "node", "id": 7462405605, "lat": 57.2052994, "lon": 15.4295783, "tags": {"name": "\u00d6vratorp", "place": "hamlet"}}, {"type": "node", "id": 7462405618, "lat": 57.1964312, "lon": 15.4453956, "tags": {"name": "Brant\u00e5sa", "place": "hamlet"}}, {"type": "node", "id": 7462406971, "lat": 57.1452931, "lon": 15.3959797, "tags": {"name": "Sl\u00e5ttra", "place": "hamlet"}}, {"type": "node", "id": 7462407794, "lat": 57.196337, "lon": 15.4015234, "tags": {"name": "Skruv", "place": "hamlet"}}, {"type": "node", "id": 7462412073, "lat": 57.2052046, "lon": 15.3809439, "tags": {"name": "Sissehult", "place": "hamlet"}}, {"type": "node", "id": 7462413490, "lat": 57.2063049, "lon": 15.4796471, "tags": {"name": "Skrivaretorp", "place": "hamlet"}}, {"type": "node", "id": 7462418188, "lat": 57.1982806, "lon": 15.4631592, "tags": {"name": "Ugglebo", "place": "hamlet"}}, {"type": "node", "id": 7462419063, "lat": 57.1936357, "lon": 15.4607843, "tags": {"name": "Kronoboda", "place": "hamlet"}}, {"type": "node", "id": 7462436826, "lat": 57.1662189, "lon": 15.4251067, "tags": {"name": "Sj\u00f6millan", "place": "hamlet"}}, {"type": "node", "id": 7462439044, "lat": 57.1628516, "lon": 15.4602033, "tags": {"name": "Nyan\u00e4s", "place": "hamlet"}}, {"type": "node", "id": 7462441371, "lat": 57.1587414, "lon": 15.4044222, "tags": {"name": "M\u00f6rtelek", "place": "hamlet"}}, {"type": "node", "id": 7462442330, "lat": 57.136913, "lon": 15.4009953, "tags": {"name": "Sandsj\u00f6ryd", "place": "hamlet"}}, {"type": "node", "id": 7462449672, "lat": 57.1667351, "lon": 15.4693288, "tags": {"name": "Kaxebo", "place": "hamlet"}}, {"type": "node", "id": 7462460876, "lat": 57.088944, "lon": 14.9777734, "tags": {"name": "Gr\u00e4nnast\u00e4mma", "place": "hamlet"}}, {"type": "node", "id": 7462462682, "lat": 57.1513966, "lon": 15.4482593, "tags": {"name": "Raneskruv", "place": "hamlet"}}, {"type": "node", "id": 7462470421, "lat": 57.055599, "lon": 15.0051434, "tags": {"name": "R\u00f6dje", "place": "hamlet"}}, {"type": "node", "id": 7462484759, "lat": 57.0828525, "lon": 15.0855599, "tags": {"name": "Yxnan\u00e4s", "place": "hamlet"}}, {"type": "node", "id": 7462513887, "lat": 57.0716052, "lon": 15.0975407, "tags": {"name": "Sandskog", "place": "hamlet"}}, {"type": "node", "id": 7462516163, "lat": 57.095449, "lon": 15.0686222, "tags": {"name": "R\u00f6dje", "place": "hamlet"}}, {"type": "node", "id": 7462540958, "lat": 57.0735421, "lon": 14.8197432, "tags": {"name": "Skinebacke", "place": "hamlet"}}, {"type": "node", "id": 7462552691, "lat": 57.1111928, "lon": 14.9680684, "tags": {"name": "Sl\u00e4tt", "place": "hamlet"}}, {"type": "node", "id": 7462559737, "lat": 57.1112348, "lon": 14.9578649, "tags": {"name": "Boatorp", "place": "hamlet"}}, {"type": "node", "id": 7462590158, "lat": 57.0903301, "lon": 14.8362059, "tags": {"name": "Rylte", "place": "hamlet"}}, {"type": "node", "id": 7462591514, "lat": 57.0894164, "lon": 14.8163778, "tags": {"name": "\u00d6stan\u00e5kra", "place": "hamlet"}}, {"type": "node", "id": 7462608836, "lat": 57.1000415, "lon": 14.8439705, "tags": {"name": "N\u00f6bbele", "place": "hamlet"}}, {"type": "node", "id": 7462613789, "lat": 57.0830121, "lon": 14.7802101, "tags": {"name": "Holkastorp", "place": "hamlet"}}, {"type": "node", "id": 7462621374, "lat": 57.0953973, "lon": 14.8630257, "tags": {"name": "Munkatorp", "place": "hamlet"}}, {"type": "node", "id": 7462634483, "lat": 57.1623796, "lon": 15.0327525, "tags": {"name": "Leaskog", "place": "hamlet"}}, {"type": "node", "id": 7462639633, "lat": 57.0900632, "lon": 14.853138, "tags": {"name": "\u00d6detofta", "place": "hamlet"}}, {"type": "node", "id": 7462645244, "lat": 57.0838652, "lon": 14.8610154, "tags": {"name": "G\u00f6petorp", "place": "hamlet"}}, {"type": "node", "id": 7462651062, "lat": 57.0791861, "lon": 14.8629141, "tags": {"name": "Bj\u00e4lvatorp", "place": "hamlet"}}, {"type": "node", "id": 7462652350, "lat": 57.1269893, "lon": 14.8573359, "tags": {"name": "Gisshult", "place": "hamlet"}}, {"type": "node", "id": 7462667733, "lat": 57.1229527, "lon": 14.911458, "tags": {"name": "Holmes\u00e5s", "place": "hamlet"}}, {"type": "node", "id": 7462667973, "lat": 57.1098812, "lon": 14.8391414, "tags": {"name": "R\u00e5storp", "place": "hamlet"}}, {"type": "node", "id": 7462673553, "lat": 57.1216, "lon": 14.9172575, "tags": {"name": "Bringeb\u00e4ck", "place": "hamlet"}}, {"type": "node", "id": 7462676149, "lat": 57.1455061, "lon": 14.8495963, "tags": {"name": "Knutskog", "place": "hamlet"}}, {"type": "node", "id": 7462704718, "lat": 57.1409456, "lon": 15.0889979, "tags": {"name": "Karryd", "place": "hamlet"}}, {"type": "node", "id": 7462709379, "lat": 57.13336, "lon": 15.0449029, "tags": {"name": "Broaryd", "place": "hamlet"}}, {"type": "node", "id": 7462715322, "lat": 57.1090444, "lon": 15.0901109, "tags": {"name": "\u00d6stenhaga", "place": "hamlet"}}, {"type": "node", "id": 7462720131, "lat": 57.1521623, "lon": 14.8432717, "tags": {"name": "Saxabj\u00f6rke", "place": "hamlet"}}, {"type": "node", "id": 7462723193, "lat": 57.1317886, "lon": 14.843837, "tags": {"name": "Holstensskog", "place": "hamlet"}}, {"type": "node", "id": 7462739167, "lat": 57.1671356, "lon": 14.8417869, "tags": {"name": "Asaryd", "place": "hamlet"}}, {"type": "node", "id": 7462765631, "lat": 57.1556034, "lon": 14.8366781, "tags": {"name": "Buskatorp", "place": "hamlet"}}, {"type": "node", "id": 7462768267, "lat": 57.19114, "lon": 15.1706431, "tags": {"name": "Boestad", "place": "hamlet"}}, {"type": "node", "id": 7462824365, "lat": 57.1987959, "lon": 15.1620392, "tags": {"name": "Heda", "place": "hamlet"}}, {"type": "node", "id": 7468525958, "lat": 57.2989255, "lon": 15.5214599, "tags": {"name": "Lilla \u00c5nhult", "place": "hamlet"}}, {"type": "node", "id": 7468634357, "lat": 57.2994204, "lon": 15.5057345, "tags": {"name": "Stora \u00c5nhult", "place": "hamlet"}}, {"type": "node", "id": 7469273070, "lat": 57.3313982, "lon": 15.312683, "tags": {"name": "Farstorp", "place": "hamlet"}}, {"type": "node", "id": 7469368031, "lat": 57.3343011, "lon": 15.4058606, "tags": {"name": "Bodaryd", "place": "hamlet"}}, {"type": "node", "id": 7472457363, "lat": 56.9050185, "lon": 15.5694168, "tags": {"name": "Rosenborg", "place": "hamlet"}}, {"type": "node", "id": 7474156152, "lat": 57.296081, "lon": 15.5007938, "tags": {"name": "Dala", "place": "hamlet"}}, {"type": "node", "id": 7474179241, "lat": 57.291599, "lon": 15.5035322, "tags": {"name": "Torp", "place": "hamlet"}}, {"type": "node", "id": 7474182817, "lat": 57.2494568, "lon": 15.5420249, "tags": {"name": "Holm", "place": "hamlet"}}, {"type": "node", "id": 7474183753, "lat": 57.2875187, "lon": 15.5100341, "tags": {"name": "\u00c5nhultaberg", "place": "hamlet"}}, {"type": "node", "id": 7474188436, "lat": 57.2914619, "lon": 15.5297164, "tags": {"name": "Aggatorp", "place": "hamlet"}}, {"type": "node", "id": 7474188617, "lat": 57.2613024, "lon": 15.5041851, "tags": {"name": "\u00d6verbyn", "place": "hamlet"}}, {"type": "node", "id": 7474191261, "lat": 57.2904098, "lon": 15.5708478, "tags": {"name": "R\u00f6dmossa", "place": "hamlet"}}, {"type": "node", "id": 7474195629, "lat": 57.2655312, "lon": 15.5024187, "tags": {"name": "Holmskog", "place": "hamlet"}}, {"type": "node", "id": 7474204960, "lat": 57.2610579, "lon": 15.5537004, "tags": {"name": "T\u00f6nshult", "place": "hamlet"}}, {"type": "node", "id": 7474215676, "lat": 57.2106615, "lon": 15.5324861, "tags": {"name": "Bockask\u00f6gle", "place": "hamlet"}}, {"type": "node", "id": 7474219685, "lat": 57.2878718, "lon": 15.5351564, "tags": {"name": "Mosstorp", "place": "hamlet"}}, {"type": "node", "id": 7474219686, "lat": 57.3002899, "lon": 15.5612093, "tags": {"name": "Misterhult", "place": "hamlet"}}, {"type": "node", "id": 7474240494, "lat": 57.1890714, "lon": 15.5603161, "tags": {"name": "Granskata", "place": "hamlet"}}, {"type": "node", "id": 7474337481, "lat": 57.2772768, "lon": 15.4923255, "tags": {"name": "Korparyd", "place": "hamlet"}}, {"type": "node", "id": 8691469672, "lat": 56.9601224, "lon": 14.8976978, "tags": {"ele": "195", "name": "G\u00e5rdsby", "place": "village"}}]}