{"version": 0.6, "generator": "Overpass API 0.7.61.5 4133829e", "osm3s": {"timestamp_osm_base": "2024-03-06T11:16:45Z", "copyright": "The data included in this document is from www.openstreetmap.org. The data is made available under ODbL."}, "elements": [{"type": "node", "id": 2488600453, "lat": 34.5752818, "lon": 45.6273026, "tags": {"is_in": "Iraq , \u062c\u0645\u0647\u0648\u0631\u064a\u0629 \u0627\u0644\u0639\u0631\u0627\u0642", "name": "\u0626\u06d5\u0644\u06cc \u0645\u06cc\u0631", "name:ar": "\u0639\u0644\u064a \u0645\u064a\u0631", "name:ar1": "\u0639\u0644\u064a \u0645\u064a\u0631", "name:de": "Ali Mir", "name:en": "Ali Mir", "name:fr": "Ali Mir", "name:ku": "\u0626\u0627\u0648\u0627\u0649 \u0639\u0644\u0649 \u0645\u064a\u0631", "place": "village", "wikidata": "Q61390697", "wikipedia": "ckb:\u0626\u06d5\u0644\u06cc \u0645\u06cc\u0631"}}, {"type": "node", "id": 2775864568, "lat": 34.6411921, "lon": 45.7881785, "tags": {"is_in:country": "Iran", "is_in:state": "Kermanshah", "name": "\u0642\u0644\u0645\u0647", "name:en": "Qelemeh", "place": "village"}}, {"type": "node", "id": 3000983663, "lat": 34.5394403, "lon": 45.8633915}, {"type": "node", "id": 3520076909, "lat": 34.7211381, "lon": 45.9892715, "tags": {"is_in:country": "Iran", "is_in:state": "Kermanshah", "name": "\u0627\u0639\u0638\u0645", "name:en": "A`zam", "place": "village", "source:name": "GNS"}}, {"type": "node", "id": 3520076914, "lat": 34.640354, "lon": 45.954252, "tags": {"alt_name": "Anjirebanvareh;Anjir Banavareh;Anjireban Avareh;Sarzal", "alt_name:en": "Anjirebanvareh;Anjir Banavareh;Anjireban Avareh;Sarzal", "is_in:country": "Iran", "is_in:state": "Kermanshah", "name": "\u0627\u0646\u062c\u06cc\u0631\u0647 \u0628\u0627\u0646 \u0622\u0648\u0627\u0631\u0647", "name:en": "Anjireh-ye Ban Avareh", "place": "village", "source:name": "GNS"}}, {"type": "node", "id": 3520076915, "lat": 34.6463, "lon": 46.0933, "tags": {"alt_name": "A'inehvand", "alt_name:en": "A'inehvand", "is_in:country": "Iran", "is_in:state": "Kermanshah", "name": "\u0622\u06cc\u0646\u0647 \u0648\u0646\u062f", "name:en": "Ayenehvand", "place": "village", "source:name": "GNS"}}, {"type": "node", "id": 3520076918, "lat": 34.728482, "lon": 45.961231, "tags": {"is_in:country": "Iran", "is_in:state": "Kermanshah", "name": "\u0628\u0647\u0631\u0627\u0645", "name:en": "Bahram", "place": "village", "source:name": "GNS"}}, {"type": "node", "id": 3520076919, "lat": 34.648547, "lon": 45.9742843, "tags": {"alt_name": "Banzardban Avareh;Banavareh", "alt_name:en": "Banzardban Avareh;Banavareh", "is_in:country": "Iran", "is_in:state": "Kermanshah", "name": "\u0628\u0627\u0646 \u0622\u0648\u0627\u0631\u0647", "name:en": "Ban Avareh", "place": "village", "source:name": "GNS"}}, {"type": "node", "id": 3520076933, "lat": 34.635833, "lon": 45.916111, "tags": {"is_in:country": "Iran", "is_in:state": "Kermanshah", "name": "\u0628\u0627\u06cc\u0631\u0627\u0645 \u0633\u0644\u0637\u0627\u0646", "place": "village", "source:name": "GNS"}}, {"type": "node", "id": 3520076942, "lat": 34.612995, "lon": 45.992231, "tags": {"alt_name": "Bizmarabad;Bazmirabad;Bezmirabad;Bozmir Abad", "alt_name:en": "Bizmarabad;Bazmirabad;Bezmirabad;Bozmir Abad", "is_in:country": "Iran", "is_in:state": "Kermanshah", "name": "\u0628\u0632\u0645\u06cc\u0631\u0622\u0628\u0627\u062f", "name:en": "Bozmirabad", "place": "village", "source:name": "GNS"}}, {"type": "node", "id": 3520076944, "lat": 34.69, "lon": 46.1078, "tags": {"is_in:country": "Iran", "is_in:state": "Kermanshah", "name": "\u0686\u0642\u0627\u0648\u06cc\u0627\u0646 \u06af\u0644 \u0645\u0631\u0627\u062f\u06cc", "name:en": "Chaghavian Gol Moradi", "place": "village", "source:name": "GNS"}}, {"type": "node", "id": 3520076949, "lat": 34.6844182, "lon": 46.1174609, "tags": {"name": "\u0686\u0645 \u0632\u0631\u0634\u06a9 \u0686\u0642\u0627\u0648\u06cc\u0627\u0646 \u06af\u0644 \u0645\u0631\u0627\u062f", "name:en": "Cham Zereshk-e Choqavian Gol Morad", "place": "village", "source:name": "GNS", "wikidata": "Q5868585", "wikipedia": "en:Cham Zereshk-e Choqavian Gol Morad"}}, {"type": "node", "id": 3520076950, "lat": 34.6697, "lon": 46.1287, "tags": {"is_in:country": "Iran", "is_in:state": "Kermanshah", "name": "\u0686\u0645 \u0632\u0631\u0634\u06a9 \u0633\u0641\u0644\u06cc", "name:en": "Cham Zereshk-e Sofla", "place": "village", "source:name": "GNS"}}, {"type": "node", "id": 3520076951, "lat": 34.6656, "lon": 46.1254, "tags": {"is_in:country": "Iran", "is_in:state": "Kermanshah", "name": "\u0686\u0645 \u0632\u0631\u0634\u06a9 \u0639\u0644\u06cc\u0627", "name:en": "Cham Zereshk-e `Olya", "place": "village", "source:name": "GNS"}}, {"type": "node", "id": 3520076952, "lat": 34.636318, "lon": 45.905433, "tags": {"is_in:country": "Iran", "is_in:state": "Kermanshah", "name": "\u0686\u0646\u0627\u0631\u0647 \u06a9\u0627\u06a9\u0627 \u062d\u0633\u0646", "name:en": "Chenareh-ye Kaka Hasan", "place": "village", "source:name": "GNS"}}, {"type": "node", "id": 3520076953, "lat": 34.636535, "lon": 45.910692, "tags": {"alt_name": "Chenareh-ye `Ali Madad", "alt_name:en": "Chenareh-ye `Ali Madad", "is_in:country": "Iran", "is_in:state": "Kermanshah", "name": "\u0686\u0646\u0627\u0631\u0647 \u0639\u0644\u06cc \u0645\u0648\u0631", "name:en": "Chenareh-ye `Ali Mur", "place": "village", "source:name": "GNS"}}, {"type": "node", "id": 3520076955, "lat": 34.679, "lon": 46.1247, "tags": {"alt_name": "Cham Zereshk-e Esperi;Marzeh Jar", "alt_name:en": "Cham Zereshk-e Esperi;Marzeh Jar", "is_in:country": "Iran", "is_in:state": "Kermanshah", "name": "\u0686\u0634\u0645 \u0632\u0631\u0634\u06a9 \u0627\u0633\u067e\u0631\u06cc", "name:en": "Cheshm-e Zereshk Esperi", "place": "village", "source:name": "GNS"}}, {"type": "node", "id": 3520076960, "lat": 34.627033, "lon": 45.98412, "tags": {"alt_name": "Deh Sefid", "alt_name:en": "Deh Sefid", "is_in:country": "Iran", "is_in:state": "Kermanshah", "name": "\u0686\u0634\u0645\u0647 \u0633\u0641\u06cc\u062f", "name:en": "Cheshmeh Sefid", "place": "village", "source:name": "GNS"}}, {"type": "node", "id": 3520076966, "lat": 34.6322342, "lon": 46.0104823, "tags": {"alt_name": "Dengi-ye `Abbas Dareh Zard", "alt_name:en": "Dengi-ye `Abbas Dareh Zard", "is_in:country": "Iran", "is_in:state": "Kermanshah", "name": "\u062f\u0646\u06af\u06cc \u0639\u0628\u0627\u0633", "name:en": "Dangi-ye `Abbas", "place": "village", "source:name": "GNS"}}, {"type": "node", "id": 3520076968, "lat": 34.6188928, "lon": 45.9733644, "tags": {"alt_name": "Dar Larasht;Dareh Rash", "alt_name:en": "Dar Larasht;Dareh Rash", "is_in:country": "Iran", "is_in:state": "Kermanshah", "name": "\u062f\u0627\u0631 \u0631\u0634 \u0633\u0641\u0644\u0649", "name:en": "Dar Rash-e Sofla", "place": "village", "source:name": "GNS"}}, {"type": "node", "id": 3520076969, "lat": 34.7195, "lon": 46.0234, "tags": {"alt_name": "Darlarad", "alt_name:en": "Darlarad", "is_in:country": "Iran", "is_in:state": "Kermanshah", "name": "\u062f\u0627\u0631 \u0627\u0644\u0627\u0631\u062f", "name:en": "Dar-e Alarad", "place": "village", "source:name": "GNS"}}, {"type": "node", "id": 3520076970, "lat": 34.7005, "lon": 46.019, "tags": {"alt_name": "Darnileh-ye Eskandar", "alt_name:en": "Darnileh-ye Eskandar", "is_in:country": "Iran", "is_in:state": "Kermanshah", "name": "\u062f\u0627\u0631\u0646\u06cc\u0644\u0647 \u06af\u0627\u0631", "name:en": "Dar-e Nilehgar", "place": "village", "source:name": "GNS"}}, {"type": "node", "id": 3520076971, "lat": 34.7107, "lon": 46.0087, "tags": {"is_in:country": "Iran", "is_in:state": "Kermanshah", "name": "\u062f\u0627\u0631 \u0632\u0646\u06af\u0646\u0647", "name:en": "Dar-e Zanganeh", "place": "village", "source:name": "GNS"}}, {"type": "node", "id": 3520076976, "lat": 34.710695, "lon": 45.995877, "tags": {"is_in:country": "Iran", "is_in:state": "Kermanshah", "name": "\u062f\u0627\u0631\u0646\u06cc\u0644\u0647", "name:en": "Darnileh", "place": "village", "source:name": "GNS"}}, {"type": "node", "id": 3520078093, "lat": 34.6285329, "lon": 45.9727176, "tags": {"is_in:country": "Iran", "is_in:state": "Kermanshah", "name": "\u062f\u0647 \u0633\u0641\u06cc\u062f", "name:en": "Divkeh", "place": "village", "source:name": "GNS"}}, {"type": "node", "id": 3520078094, "lat": 34.5994023, "lon": 45.9179111, "tags": {"is_in:country": "Iran", "is_in:state": "Kermanshah", "name": "\u0627\u0644\u06cc\u0627\u0633\u06cc \u0635\u0627\u0644\u062d \u0645\u0637\u0627\u0639", "name:en": "Elyasi-ye Saleh Matta`", "place": "village", "source:name": "GNS"}}, {"type": "node", "id": 3520078102, "lat": 34.6621, "lon": 46.0292, "tags": {"is_in:country": "Iran", "is_in:state": "Kermanshah", "name": "\u0648\u0631\u0632\u062f \u0637\u0647\u0645\u0627\u0633\u0628", "name:en": "Varzade Tahmaseb", "place": "village", "source:name": "GNS"}}, {"type": "node", "id": 3520078104, "lat": 34.7241, "lon": 46.0289, "tags": {"is_in:country": "Iran", "is_in:state": "Kermanshah", "name": "\u06af\u0648\u0627\u0631", "name:en": "Gavar", "place": "village", "source:name": "GNS"}}, {"type": "node", "id": 3520078112, "lat": 34.6794, "lon": 46.0778, "tags": {"is_in:country": "Iran", "is_in:state": "Kermanshah", "name": "\u063a\u0648\u0644 \u0631\u0634", "name:en": "Ghul-e Rash", "place": "village", "source:name": "GNS"}}, {"type": "node", "id": 3520078115, "lat": 34.7473, "lon": 46.1312, "tags": {"alt_name": "Mazra`eh-ye Gugerd", "alt_name:en": "Mazra`eh-ye Gugerd", "is_in:country": "Iran", "is_in:state": "Kermanshah", "name": "\u06af\u0648\u06af\u0631\u062f", "name:en": "Gugerd", "place": "village", "source:name": "GNS"}}, {"type": "node", "id": 3520078116, "lat": 34.7576, "lon": 46.1213, "tags": {"is_in:country": "Iran", "is_in:state": "Kermanshah", "name": "\u06af\u0648\u06af\u0631\u062f", "name:en": "Gugerd", "place": "village", "source:name": "GNS"}}, {"type": "node", "id": 3520078125, "lat": 34.6138, "lon": 45.9365, "tags": {"is_in:country": "Iran", "is_in:state": "Kermanshah", "name": "\u062d\u0633\u0646 \u0633\u0644\u06cc\u0645\u0627\u0646", "name:en": "Hasan Soleyman", "place": "village", "source:name": "GNS"}}, {"type": "node", "id": 3520078138, "lat": 34.6887, "lon": 46.0759, "tags": {"is_in:country": "Iran", "is_in:state": "Kermanshah", "name": "\u062c\u0627\u0639\u0648\u0631\u062f\u06cc", "name:en": "Ja`urdi", "place": "village", "source:name": "GNS"}}, {"type": "node", "id": 3520078142, "lat": 34.5979058, "lon": 45.9706634, "tags": {"is_in:country": "Iran", "is_in:state": "Kermanshah", "name": "\u062c\u0648\u0627\u0646 \u0645\u06cc\u0631\u06cc", "name:en": "Javanmiri", "place": "village", "source:name": "GNS"}}, {"type": "node", "id": 3520078147, "lat": 34.622778, "lon": 46.069167, "tags": {"alt_name": "Katkhuda Hasan;Kadkhoda Hasan;Kalkhuda Hasan", "alt_name:en": "Katkhuda Hasan;Kadkhoda Hasan;Kalkhuda Hasan", "is_in:country": "Iran", "is_in:state": "Kermanshah", "name": "\u06a9\u062f\u062e\u062f\u0627 \u062d\u0633\u06cc\u0646", "place": "village", "source:name": "GNS"}}, {"type": "node", "id": 3520078149, "lat": 34.6244728, "lon": 45.9669056, "tags": {"alt_name": "Kafru Salman", "alt_name:en": "Kafru Salman", "is_in:country": "Iran", "is_in:state": "Kermanshah", "name": "\u06a9\u0641\u0631\u0647 \u0633\u0644\u0645\u0627\u0646", "name:en": "Kafreh-e Salman", "place": "village", "source:name": "GNS"}}, {"type": "node", "id": 3520078154, "lat": 34.7518, "lon": 45.9198, "tags": {"is_in:country": "Iran", "is_in:state": "Kermanshah", "name": "\u06a9\u0644\u0627\u0631\u0647", "name:en": "Kalareh", "place": "village", "source:name": "GNS"}}, {"type": "node", "id": 3520078155, "lat": 34.7031, "lon": 46.0538, "tags": {"alt_name": "Kelash Tarkar", "alt_name:en": "Kelash Tarkar", "is_in:country": "Iran", "is_in:state": "Kermanshah", "name": "\u06a9\u0644\u0627\u0634 \u062a\u0631\u06a9\u0647", "name:en": "Kalash Tarkeh", "place": "village", "source:name": "GNS"}}, {"type": "node", "id": 3520078168, "lat": 34.6919, "lon": 46.0715, "tags": {"is_in:country": "Iran", "is_in:state": "Kermanshah", "name": "\u06a9\u0627\u0646\u06cc \u0634\u06cc\u062e", "name:en": "Kani Sheykh", "place": "village", "source:name": "GNS"}}, {"type": "node", "id": 3520078169, "lat": 34.7222, "lon": 46.0126, "tags": {"alt_name": "Kani Karim Yarvali", "alt_name:en": "Kani Karim Yarvali", "is_in:country": "Iran", "is_in:state": "Kermanshah", "name": "\u06a9\u0627\u0646\u06cc \u06a9\u0631\u06cc\u0645 \u062f\u0631 \u0645\u0631\u0627\u0646", "name:en": "Kani-ye Karim Darmaran", "place": "village", "source:name": "GNS"}}, {"type": "node", "id": 3520078170, "lat": 34.7025, "lon": 46.0929, "tags": {"is_in:country": "Iran", "is_in:state": "Kermanshah", "name": "\u06a9\u0627\u0646\u06cc \u06a9\u0644\u0627\u0631\u0646\u06af", "name:en": "Kani-ye Kolarang", "place": "village", "source:name": "GNS"}}, {"type": "node", "id": 3520078266, "lat": 34.683333, "lon": 46.066667, "tags": {"is_in:country": "Iran", "is_in:state": "Kermanshah", "name": "\u0645\u06cc\u0648\u06a9\u0647", "name:en": "Meyvakeh", "place": "village", "source:name": "GNS"}}, {"type": "node", "id": 3520078269, "lat": 34.609868, "lon": 45.941568, "tags": {"alt_name": "Mivali-ye `Olya;Mivali Shirkhan", "alt_name:en": "Mivali-ye `Olya;Mivali Shirkhan", "is_in:country": "Iran", "is_in:state": "Kermanshah", "name": "\u0645\u06cc\u0631\u0639\u0644\u06cc \u062f\u0627\u0631\u0627\u0628", "name:en": "Mir`ali-ye Darab", "place": "village", "source:name": "GNS"}}, {"type": "node", "id": 3520078270, "lat": 34.6080036, "lon": 45.9443921, "tags": {"alt_name": "Meyvoli;Mivali-ye Sofla;Mivali", "alt_name:en": "Meyvoli;Mivali-ye Sofla;Mivali", "is_in:country": "Iran", "is_in:state": "Kermanshah", "name": "\u0645\u06cc\u0631\u0639\u0644\u06cc \u0645\u06cc\u0631\u062e\u0627\u0646", "name:en": "Mir`ali-ye Mirkhan", "place": "village", "source:name": "GNS"}}, {"type": "node", "id": 3520078272, "lat": 34.6851, "lon": 46.0605, "tags": {"is_in:country": "Iran", "is_in:state": "Kermanshah", "name": "\u0645\u06cc\u0648", "name:en": "Miv", "place": "village", "source:name": "GNS"}}, {"type": "node", "id": 3520078274, "lat": 34.699, "lon": 45.991, "tags": {"is_in:country": "Iran", "is_in:state": "Kermanshah", "name": "\u0645\u0644\u0627 \u06a9\u0631\u0645\u06cc\u0646\u0647 \u0634\u0627\u0647 \u0645\u0627\u0631", "name:en": "Molla Karamineh-e Shah Mar", "place": "village", "source:name": "GNS"}}, {"type": "node", "id": 3520078290, "lat": 34.6371, "lon": 46.1182, "tags": {"is_in:country": "Iran", "is_in:state": "Kermanshah", "name": "\u067e\u0627\u0644\u0627\u0646 \u0686\u0634\u0645\u0647 \u0633\u0641\u06cc\u062f \u0633\u0641\u0644\u06cc", "name:en": "Palan-e Cheshmeh Sefid-e Sofla", "place": "village", "source:name": "GNS"}}, {"type": "node", "id": 3520078291, "lat": 34.6408, "lon": 46.0988, "tags": {"is_in:country": "Iran", "is_in:state": "Kermanshah", "name": "\u067e\u0627\u0644\u0627\u0646 \u062d\u0633\u0646", "name:en": "Palan-e Hasan", "place": "village", "source:name": "GNS"}}, {"type": "node", "id": 3520078292, "lat": 34.6381, "lon": 46.0961, "tags": {"is_in:country": "Iran", "is_in:state": "Kermanshah", "name": "\u067e\u0627\u0644\u0627\u0646 \u0646\u0631\u06af\u0633", "name:en": "Palan-e Narges", "place": "village", "source:name": "GNS"}}, {"type": "node", "id": 3520078299, "lat": 34.641, "lon": 46.0848, "tags": {"alt_name": "Mollachiyeh", "alt_name:en": "Mollachiyeh", "is_in:country": "Iran", "is_in:state": "Kermanshah", "name": "\u0645\u0644\u0627\u0686\u06cc\u0647", "name:en": "Malachiyeh", "place": "village", "source:name": "GNS"}}, {"type": "node", "id": 3520078300, "lat": 34.6447, "lon": 46.0881, "tags": {"is_in:country": "Iran", "is_in:state": "Kermanshah", "name": "\u0645\u0644\u0627\u0686\u06cc\u0647", "name:en": "Malachiyeh", "place": "village", "source:name": "GNS"}}, {"type": "node", "id": 3520078306, "lat": 34.6145, "lon": 46.0028, "tags": {"is_in:country": "Iran", "is_in:state": "Kermanshah", "name": "\u0645\u0631\u0634\u0627\u0647", "name:en": "Marshah", "place": "village", "source:name": "GNS"}}, {"type": "node", "id": 3520078307, "lat": 34.6502, "lon": 46.1292, "tags": {"alt_name": "Marzelan-e Mohammad Morad", "alt_name:en": "Marzelan-e Mohammad Morad", "is_in:country": "Iran", "is_in:state": "Kermanshah", "name": "\u0645\u0631\u0632\u0644\u0627\u0646", "name:en": "Marzelan", "place": "village", "source:name": "GNS"}}, {"type": "node", "id": 3520078311, "lat": 34.633333, "lon": 46.033333, "tags": {"is_in:country": "Iran", "is_in:state": "Kermanshah", "name": "\u062a\u0644 \u062e\u0644\u0648\u062a\u06cc \u0642\u0627\u062f\u0631 \u0631\u062d\u0645\u0627\u0646", "name:en": "Tal Khalvati-ye Qader Rahman", "place": "village", "source:name": "GNS", "wikidata": "Q5865929", "wikipedia": "en:Tal Khalvati-ye Qader Rahman"}}, {"type": "node", "id": 3520078312, "lat": 34.6677768, "lon": 45.988517, "tags": {"is_in:country": "Iran", "is_in:state": "Kermanshah", "name": "\u062a\u0627 \u0644\u0627\u0632\u0645", "name:en": "Talazem", "name:fa": "\u0637\u0644\u0633\u0645 \u0634\u0647\u0628\u0627\u0632", "place": "village", "source:name": "GNS"}}, {"type": "node", "id": 3520078313, "lat": 34.652922, "lon": 45.98987, "tags": {"is_in:country": "Iran", "is_in:state": "Kermanshah", "name": "\u062a\u0644\u0647 \u06af\u0631\u062f", "name:en": "Taleh Gerd", "place": "village", "source:name": "GNS"}}, {"type": "node", "id": 3520078318, "lat": 34.743624, "lon": 46.1358151, "tags": {"is_in:country": "Iran", "is_in:state": "Kermanshah", "name": "\u062a\u0627\u0632\u0647 \u0622\u0628\u0627\u062f \u0627\u0645\u06cc\u0646", "name:en": "Tazehabad-e Amin", "place": "village", "source:name": "GNS"}}, {"type": "node", "id": 3520078325, "lat": 34.7037, "lon": 46.0126, "tags": {"is_in:country": "Iran", "is_in:state": "Kermanshah", "name": "\u0648\u0627\u0644\u06cc", "name:en": "Vali", "place": "village", "source:name": "GNS"}}, {"type": "node", "id": 3520078337, "lat": 34.6656, "lon": 46.1417, "tags": {"is_in:country": "Iran", "is_in:state": "Kermanshah", "name": "\u0632\u0644\u06cc\u062e\u0627\u0645\u0631\u062f\u0647", "name:en": "Zoleykha Mordeh", "place": "village", "source:name": "GNS"}}, {"type": "node", "id": 3520078339, "lat": 34.723578, "lon": 45.961949, "tags": {"is_in:country": "Iran", "is_in:state": "Kermanshah", "name": "\u0639\u0628\u0627\u0633", "name:en": "`Abbas", "place": "village", "source:name": "GNS"}}, {"type": "node", "id": 3520078344, "lat": 34.632778, "lon": 46.102778, "tags": {"alt_name": "Ali Baig Sultan;`Ali Bag Soltan", "alt_name:en": "Ali Baig Sultan;`Ali Bag Soltan", "is_in:country": "Iran", "is_in:state": "Kermanshah", "name": "\u0639\u0644\u06cc \u0628\u06cc\u06af \u0633\u0644\u0637\u0627\u0646", "place": "village", "source:name": "GNS"}}, {"type": "node", "id": 3520078347, "lat": 34.6156681, "lon": 45.9190506, "tags": {"is_in:country": "Iran", "is_in:state": "Kermanshah", "name": "\u0639\u0644\u06cc \u0632\u063a\u0627\u0644\u06cc", "name:en": "`Ali Zoghali", "place": "village", "source:name": "GNS"}}, {"type": "node", "id": 3520078494, "lat": 34.6404, "lon": 46.1052, "tags": {"is_in:country": "Iran", "is_in:state": "Kermanshah", "name": "\u067e\u0627\u0644\u0627\u0646 \u0639\u0644\u06cc \u062f\u0648\u0633\u062a", "name:en": "Palan-e `Ali Dust", "place": "village", "source:name": "GNS"}}, {"type": "node", "id": 3520078495, "lat": 34.6336, "lon": 46.1094, "tags": {"is_in:country": "Iran", "is_in:state": "Kermanshah", "name": "\u067e\u0627\u0644\u0627\u0646 \u0639\u0644\u06cc \u062d\u0633\u0646", "name:en": "Palan-e `Ali Hasan", "place": "village", "source:name": "GNS"}}, {"type": "node", "id": 3520078496, "lat": 34.6348, "lon": 46.115, "tags": {"is_in:country": "Iran", "is_in:state": "Kermanshah", "name": "\u067e\u0627\u0644\u0627\u0646 \u0639\u0644\u06cc \u0646\u0638\u0631", "name:en": "Palan-e `Alinazar", "place": "village", "source:name": "GNS"}}, {"type": "node", "id": 3520078497, "lat": 34.738967, "lon": 45.980363, "tags": {"is_in:country": "Iran", "is_in:state": "Kermanshah", "name": "\u067e\u0631\u06cc \u06a9\u0627\u0631\u06cc", "name:en": "Pari Kari", "place": "village", "source:name": "GNS"}}, {"type": "node", "id": 3520078504, "lat": 34.7011, "lon": 46.0311, "tags": {"alt_name": "Kelaveh-ye Gari", "alt_name:en": "Kelaveh-ye Gari", "is_in:country": "Iran", "is_in:state": "Kermanshah", "name": "\u067e\u0634\u062a \u06a9\u0644\u0627\u0648\u0647 \u06af\u0627\u0631", "name:en": "Posht-e Kalavehgar", "place": "village", "source:name": "GNS"}}, {"type": "node", "id": 3520078523, "lat": 34.67267, "lon": 45.974718, "tags": {"is_in:country": "Iran", "is_in:state": "Kermanshah", "name": "\u0642\u0648\u0631\u06cc \u0632\u0631\u062f", "name:en": "Quri Zard", "place": "village", "source:name": "GNS"}}, {"type": "node", "id": 3520078524, "lat": 34.637732, "lon": 45.963418, "tags": {"is_in:country": "Iran", "is_in:state": "Kermanshah", "name": "\u0642\u0648\u0631\u06a9\u0627", "name:en": "Qurka", "place": "village", "source:name": "GNS"}}, {"type": "node", "id": 3520078525, "lat": 34.6449, "lon": 46.0232, "tags": {"is_in:country": "Iran", "is_in:state": "Kermanshah", "name": "\u0633\u0646\u06af \u062e\u0644\u0648\u062a\u06cc", "name:en": "Sang-e Khalvati", "place": "village", "source:name": "GNS"}}, {"type": "node", "id": 3520078531, "lat": 34.644004, "lon": 45.99356, "tags": {"alt_name": "\u0633\u0631 \u0622\u0648\u0627\u0631\u0647", "alt_name:en": "Sar Avareh", "is_in:country": "Iran", "is_in:state": "Kermanshah", "name": "\u0633\u0631 \u0627\u0648\u0631\u0647", "name:en": "Saravareh", "place": "village", "source:name": "GNS"}}, {"type": "node", "id": 3520078538, "lat": 34.6952, "lon": 45.9986, "tags": {"is_in:country": "Iran", "is_in:state": "Kermanshah", "name": "\u0634\u0627\u0647 \u0645\u0627\u0631", "name:en": "Shah Mar", "place": "village", "source:name": "GNS"}}, {"type": "node", "id": 3520078543, "lat": 34.7508, "lon": 46.1392, "tags": {"alt_name": "Ziarat-e Tamarkhan", "alt_name:en": "Ziarat-e Tamarkhan", "is_in:country": "Iran", "is_in:state": "Kermanshah", "name": "\u0634\u0647\u0631\u06a9 \u062a\u0645\u0631\u062e\u0627\u0646", "name:en": "Sharak-e Tamarkhan", "place": "village", "source:name": "GNS"}}, {"type": "node", "id": 3520229343, "lat": 34.436845, "lon": 45.8080674, "tags": {"is_in:country": "Iran", "is_in:state": "Kermanshah", "name": "\u0622\u0628 \u0628\u0627\u0631\u06cc\u06a9", "name:en": "Ab Barik", "place": "village", "population": "298", "source:name": "GNS"}}, {"type": "node", "id": 3520229345, "lat": 34.415159, "lon": 45.822944, "tags": {"is_in:country": "Iran", "is_in:state": "Kermanshah", "name": "\u0627\u0641\u0634\u0627\u0631 \u0622\u0628\u0627\u062f", "name:en": "Afsharabad", "place": "village", "source:name": "GNS"}}, {"type": "node", "id": 3520229346, "lat": 34.572042, "lon": 45.761407, "tags": {"alt_name": "Akrabad", "alt_name:en": "Akrabad", "description": "The old village is drowned by the lake", "is_in:country": "Iran", "is_in:state": "Kermanshah", "name": "\u0627\u06a9\u0628\u0631\u0622\u0628\u0627\u062f", "name:en": "Akbarabad", "place": "hamlet", "source:name": "GNS"}}, {"type": "node", "id": 3520229349, "lat": 34.431285, "lon": 45.887673, "tags": {"is_in:country": "Iran", "is_in:state": "Kermanshah", "name": "\u0622\u0633\u06cc\u0627\u0628 \u0642\u0631\u0645\u0632", "name:en": "Asiab Qermez", "place": "village", "source:name": "GNS"}}, {"type": "node", "id": 3520229350, "lat": 34.4718082, "lon": 45.806341, "tags": {"is_in:country": "Iran", "is_in:state": "Kermanshah", "name": "\u0628\u0627\u0628\u0627 \u0627\u0633\u06a9\u0646\u062f\u0631", "name:en": "Baba Eskandar", "place": "village", "source:name": "GNS"}}, {"type": "node", "id": 3520229352, "lat": 34.480585, "lon": 45.729074, "tags": {"is_in:country": "Iran", "is_in:state": "Kermanshah", "name": "\u0628\u0627\u0628\u0627 \u062c\u0627\u0646\u06cc", "place": "village", "source:name": "GNS"}}, {"type": "node", "id": 3520229355, "lat": 34.485, "lon": 45.721111, "tags": {"alt_name": "Jegarlu Gush Kanish;Jegarlu Gush Kariz", "alt_name:en": "Jegarlu Gush Kanish;Jegarlu Gush Kariz", "is_in:country": "Iran", "is_in:state": "Kermanshah", "name": "\u0628\u0631\u0641\u06cc \u06af\u0648\u0634\u06a9\u0631\u06cc", "name:en": "Barfi Gushkarri", "place": "village", "source:name": "GNS"}}, {"type": "node", "id": 3520229356, "lat": 34.5881927, "lon": 45.7641494, "tags": {"alt_name": "Bargbaran;Bargobaran", "alt_name:en": "Bargbaran;Bargobaran", "is_in:country": "Iran", "is_in:state": "Kermanshah", "name": "\u0628\u0631\u0642 \u0628\u0627\u0631\u0627\u0646 \u0633\u0641\u0644\u06cc", "name:en": "Barq va Yaran", "place": "village", "source:name": "GNS"}}, {"type": "node", "id": 3520229358, "lat": 34.4073702, "lon": 45.662308, "tags": {"is_in:country": "Iran", "is_in:state": "Kermanshah", "name": "\u0628\u0631\u0647 \u0628\u0648\u0627\u0646\u062c\u06cc\u0631\u06cc\u0627\u0646", "name:en": "Barreh Bu Anjirian", "place": "hamlet", "population": "52", "source:name": "GNS", "wikidata": "Q5860989", "wikipedia": "fa:\u0628\u0631\u0647\u200c\u0628\u0648\u0631\u0627\u0646\u062c\u06cc\u0631\u0628\u0627\u0646"}}, {"type": "node", "id": 3520229362, "lat": 34.604795, "lon": 45.765065, "tags": {"alt_name": "Beyani;Bishgan;Bashgan", "alt_name:en": "Beyani;Bishgan;Bashgan", "is_in:country": "Iran", "is_in:state": "Kermanshah", "name": "\u0628\u06cc\u0627\u0646\u06cc", "name:en": "Bayani", "place": "village", "source:name": "GNS"}}, {"type": "node", "id": 3520229364, "lat": 34.4783784, "lon": 45.8847871, "tags": {"alt_name": "Berimavand;Bali;Barimvand", "alt_name:en": "Berimavand;Bali;Barimvand", "is_in:country": "Iran", "is_in:state": "Kermanshah", "name": "\u0628\u0631\u06cc\u0645\u0648\u0646\u062f", "name:en": "Berimvand", "place": "village", "source:name": "GNS"}}, {"type": "node", "id": 3520229365, "lat": 34.6363354, "lon": 45.8323595, "tags": {"alt_name": "Bibiani;Bibeyani", "alt_name:en": "Bibiani;Bibeyani", "is_in:country": "Iran", "is_in:state": "Kermanshah", "name": "\u0628\u06cc \u0628\u06cc\u0627\u0646\u06cc", "name:en": "Bi Bayani", "place": "village", "source:name": "GNS"}}, {"type": "node", "id": 3520229368, "lat": 34.656583, "lon": 45.892618, "tags": {"is_in:country": "Iran", "is_in:state": "Kermanshah", "name": "\u0686\u0646\u0627\u0631\u0647 \u0644\u0637\u06cc\u0641", "name:en": "Chenareh-ye Bala", "place": "village", "source:name": "GNS"}}, {"type": "node", "id": 3520229369, "lat": 34.6645459, "lon": 45.8853938, "tags": {"is_in:country": "Iran", "is_in:state": "Kermanshah", "name": "\u0686\u0646\u0627\u0631\u0647 \u0645\u062c\u06cc\u062f", "name:en": "Chenareh-ye Majid", "place": "village", "source:name": "GNS"}}, {"type": "node", "id": 3520229370, "lat": 34.652657, "lon": 45.888801, "tags": {"is_in:country": "Iran", "is_in:state": "Kermanshah", "name": "\u0686\u0646\u0627\u0631\u0647 \u067e\u0627\u0626\u06cc\u0646", "name:en": "Chenareh-ye Pa'in", "place": "village", "source:name": "GNS"}}, {"type": "node", "id": 3520229371, "lat": 34.487336, "lon": 45.8646119, "tags": {"is_in:country": "Iran", "is_in:state": "Kermanshah", "name": "\u062f\u0645\u0627\u063a \u0633\u0641\u06cc\u062f", "name:en": "Damagh Sefid", "place": "village", "source:name": "GNS"}}, {"type": "node", "id": 3520229372, "lat": 34.4637105, "lon": 45.7759506, "tags": {"is_in:country": "Iran", "is_in:state": "Kermanshah", "name": "\u062f\u0627\u0631 \u0628\u0644\u0648\u0637", "name:en": "Dar Balut", "place": "village", "source:name": "GNS"}}, {"type": "node", "id": 3520229373, "lat": 34.3943443, "lon": 45.8989642, "tags": {"is_in:country": "Iran", "is_in:state": "Kermanshah", "name": "\u062f\u0627\u0631 \u06a9\u0646\u0627\u0631", "name:en": "Dar Kenar", "place": "hamlet", "population": "34", "source:name": "GNS", "wikidata": "Q5860006", "wikipedia": "fa:\u062f\u0627\u0631\u06a9\u0646\u0627\u0631"}}, {"type": "node", "id": 3520229378, "lat": 34.7046897, "lon": 45.751205, "tags": {"alt_name": "Darvand-e Zard", "alt_name:en": "Darvand-e Zard", "is_in:country": "Iran", "is_in:state": "Kermanshah", "name": "\u062f\u0631\u0628\u0646\u062f \u0632\u0631\u062f", "name:en": "Darband-e Zard", "place": "village", "source:name": "GNS"}}, {"type": "node", "id": 3520229383, "lat": 34.7554, "lon": 45.7523, "tags": {"is_in:country": "Iran", "is_in:state": "Kermanshah", "name": "\u062f\u0631\u0634\u06cc \u0646\u0627\u062f\u0631", "name:en": "Darshi Nader", "place": "village", "source:name": "GNS"}}, {"type": "node", "id": 3520229384, "lat": 34.6539957, "lon": 45.8592181, "tags": {"alt_name": "Dar Reshteh;Dar-e Reshteh", "alt_name:en": "Dar Reshteh;Dar-e Reshteh", "is_in:country": "Iran", "is_in:state": "Kermanshah", "name": "\u062f\u0627\u0631\u0634\u06cc\u0647", "name:en": "Darshiyeh", "place": "village", "source:name": "GNS"}}, {"type": "node", "id": 3520229385, "lat": 34.5345088, "lon": 45.8026231, "tags": {"alt_name": "Boneh Dastak", "alt_name:en": "Boneh Dastak", "is_in:country": "Iran", "is_in:state": "Kermanshah", "name": "\u062f\u0633\u062a\u06a9 \u0633\u0641\u0644\u0649", "name:en": "Dastak-e Sofla", "place": "village", "source:name": "GNS"}}, {"type": "node", "id": 3520229386, "lat": 34.52558, "lon": 45.831829, "tags": {"alt_name": "Dastak", "alt_name:en": "Dastak", "is_in:country": "Iran", "is_in:state": "Kermanshah", "name": "\u062f\u0633\u062a\u06a9 \u0639\u0644\u06cc\u0627", "name:en": "Dastak-e `Olya", "place": "village", "source:name": "GNS"}}, {"type": "node", "id": 3520229388, "lat": 34.4844588, "lon": 45.8652645, "tags": {"is_in:country": "Iran", "is_in:state": "Kermanshah", "name": "\u062f\u0648\u0644 \u0627\u0644\u06cc\u0627\u0633", "name:en": "Dul-e Elyas", "place": "village", "source:name": "GNS"}}, {"type": "node", "id": 3520229390, "lat": 34.617078, "lon": 45.8955, "tags": {"is_in:country": "Iran", "is_in:state": "Kermanshah", "name": "\u0627\u0644\u06cc\u0627\u0633\u06cc \u0627\u062d\u0645\u062f", "name:en": "Elyasi-ye Ahmad", "place": "village", "source:name": "GNS"}}, {"type": "node", "id": 3520229391, "lat": 34.5999355, "lon": 45.8654874, "tags": {"alt_name": "Elyas-e Khalifeh Hasan", "alt_name:en": "Elyas-e Khalifeh Hasan", "is_in:country": "Iran", "is_in:state": "Kermanshah", "name": "\u0627\u0644\u06cc\u0627\u0633\u06cc \u062e\u0644\u06cc\u0641\u0647 \u062d\u0633\u0646", "name:en": "Elyasi-ye Khalifeh Hoseyn", "place": "village", "source:name": "GNS"}}, {"type": "node", "id": 3520229392, "lat": 34.6071849, "lon": 45.8670727, "tags": {"alt_name": "Elyas-e Mahmud", "alt_name:en": "Elyas-e Mahmud", "is_in:country": "Iran", "is_in:state": "Kermanshah", "name": "\u0627\u0644\u06cc\u0627\u0633\u06cc \u0645\u062d\u0645\u0648\u062f", "name:en": "Elyasi-ye Mahmud", "place": "village", "source:name": "GNS"}}, {"type": "node", "id": 3520229893, "lat": 34.539487, "lon": 45.833509, "tags": {"is_in:country": "Iran", "is_in:state": "Kermanshah", "name": "\u0627\u0645\u0627\u0645 \u062d\u0633\u0646", "name:en": "Emam Hasan", "place": "village", "source:name": "GNS"}}, {"type": "node", "id": 3520229895, "lat": 34.6340175, "lon": 45.8086288, "tags": {"alt_name": "Qalkhanchak;Qul Khanchak", "alt_name:en": "Qalkhanchak;Qul Khanchak", "is_in:country": "Iran", "is_in:state": "Kermanshah", "name": "\u0641\u0644\u062e\u0627\u0646\u062c\u06a9 \u0639\u0644\u06cc\u0627", "name:en": "Falkhanjak-e `Olya", "place": "village", "source:name": "GNS"}}, {"type": "node", "id": 3520229896, "lat": 34.4395501, "lon": 45.6565667, "tags": {"is_in:country": "Iran", "is_in:state": "Kermanshah", "name": "\u06af\u0631\u0627\u0648\u0647 \u062f\u0648", "name:en": "Garraveh-ye Do", "place": "village", "source:name": "GNS"}}, {"type": "node", "id": 3520229897, "lat": 34.437712, "lon": 45.630309, "tags": {"alt_name": "Garawa;Garaveh", "alt_name:en": "Garawa;Garaveh", "is_in:country": "Iran", "is_in:state": "Kermanshah", "name": "\u06af\u0631\u0627\u0648\u0647 \u06cc\u06a9", "name:en": "Garraveh-ye Yek", "place": "village", "source:name": "GNS"}}, {"type": "node", "id": 3520229899, "lat": 34.7317062, "lon": 45.7926245, "tags": {"alt_name": "Emam Abbas", "alt_name:en": "Emam Abbas", "is_in:country": "Iran", "is_in:state": "Kermanshah", "name": "\u06af\u0627\u0648\u062e\u0631\u06cc \u0628\u0627\u0644\u0627", "name:en": "Gav Khari-ye Bala", "place": "village", "source:name": "GNS"}}, {"type": "node", "id": 3520229900, "lat": 34.7409417, "lon": 45.7906378, "tags": {"alt_name": "Gavkhori-ye Pa'in", "alt_name:en": "Gavkhori-ye Pa'in", "is_in:country": "Iran", "is_in:state": "Kermanshah", "name": "\u06af\u0627\u0648\u062e\u0631\u06cc \u067e\u0627\u0626\u06cc\u0646", "name:en": "Gav Khari-ye Pa'in", "place": "village", "source:name": "GNS"}}, {"type": "node", "id": 3520229901, "lat": 34.528073, "lon": 45.838896, "tags": {"alt_name": "Gol Khater", "alt_name:en": "Gol Khater", "is_in:country": "Iran", "is_in:state": "Kermanshah", "name": "\u06af\u0644 \u062e\u0627\u0637\u0648", "name:en": "Gol-e Khatu", "place": "village", "source:name": "GNS"}}, {"type": "node", "id": 3520229904, "lat": 34.469435, "lon": 45.774901, "tags": {"is_in:country": "Iran", "is_in:state": "Kermanshah", "name": "\u062d\u0627\u062c\u06cc \u0641\u062a\u0627\u062d \u0628\u06af", "name:en": "Hajji Fattah-e Beg", "place": "village", "source:name": "GNS"}}, {"type": "node", "id": 3520229905, "lat": 34.7594, "lon": 45.7516, "tags": {"is_in:country": "Iran", "is_in:state": "Kermanshah", "name": "\u062d\u0627\u062c\u06cc \u0642\u0627\u062f\u0631", "name:en": "Hajji Qader", "place": "village", "source:name": "GNS"}}, {"type": "node", "id": 3520229906, "lat": 34.706, "lon": 45.7029, "tags": {"alt_name": "Hovan;Huvan", "alt_name:en": "Hovan;Huvan", "is_in:country": "Iran", "is_in:state": "Kermanshah", "name": "\u0647\u0648\u0627\u0646", "name:en": "Havan", "place": "village", "source:name": "GNS"}}, {"type": "node", "id": 3520229908, "lat": 34.4649298, "lon": 45.8062139, "tags": {"alt_name": "Hendu-ye Sofla", "alt_name:en": "Hendu-ye Sofla", "is_in:country": "Iran", "is_in:state": "Kermanshah", "name": "\u0647\u0646\u06cc\u062f\u0631 \u0633\u0641\u0644\u06cc", "name:en": "Henidar-e Sofla", "place": "village", "source:name": "GNS"}}, {"type": "node", "id": 3520229909, "lat": 34.4682298, "lon": 45.8237387, "tags": {"alt_name": "Henidar-e Mafrazeh", "alt_name:en": "Henidar-e Mafrazeh", "is_in:country": "Iran", "is_in:state": "Kermanshah", "name": "\u0647\u0646\u06cc\u062f\u0631 \u0639\u0644\u06cc\u0627", "name:en": "Henidar-e `Olya", "place": "village", "source:name": "GNS"}}, {"type": "node", "id": 3520229912, "lat": 34.5747742, "lon": 45.7953769, "tags": {"is_in:country": "Iran", "is_in:state": "Kermanshah", "name": "\u062c\u0627\u0628\u0631\u06cc", "name:en": "Jaberi", "place": "village", "source:name": "GNS"}}, {"type": "node", "id": 3520229914, "lat": 34.47045, "lon": 45.90256, "tags": {"alt_name": "Javalvand-e Sofla;Jalalvand-e Pa'in", "alt_name:en": "Javalvand-e Sofla;Jalalvand-e Pa'in", "is_in:country": "Iran", "is_in:state": "Kermanshah", "name": "\u062c\u0644\u0627\u0644\u0648\u0646\u062f \u0633\u0641\u0644\u06cc", "name:en": "Jalalvand-e Sofla", "place": "village", "source:name": "GNS"}}, {"type": "node", "id": 3520229915, "lat": 34.46469, "lon": 45.899117, "tags": {"alt_name": "Jalalvand", "alt_name:en": "Jalalvand", "is_in:country": "Iran", "is_in:state": "Kermanshah", "name": "\u062c\u0644\u0627\u0644\u0648\u0646\u062f \u0639\u0644\u06cc\u0627", "name:en": "Jalalvand-e `Olya", "place": "village", "source:name": "GNS"}}, {"type": "node", "id": 3520229916, "lat": 34.4954393, "lon": 45.6967159, "tags": {"alt_name": "Jegarluye Aqa Barar;Jegarlu", "alt_name:en": "Jegarluye Aqa Barar;Jegarlu", "is_in:country": "Iran", "is_in:state": "Kermanshah", "name": "\u062c\u06af\u0631\u0644\u0648 \u0622\u0642\u0627 \u0628\u0631\u0627\u0631", "name:en": "Jegarlu Aqa Barar", "place": "village", "source:name": "GNS"}}, {"type": "node", "id": 3520229917, "lat": 34.466667, "lon": 45.783333, "tags": {"is_in:country": "Iran", "is_in:state": "Kermanshah", "name": "\u062c\u06af\u0631\u0644\u0648 \u0639\u0628\u0627\u0633\u06cc", "name:en": "Jegarlu `Abbasi", "place": "village", "source:name": "GNS"}}, {"type": "node", "id": 3520229918, "lat": 34.4141956, "lon": 45.8162597, "tags": {"alt_name": "Shanqa", "alt_name:en": "Shanqa", "is_in:country": "Iran", "is_in:state": "Kermanshah", "name": "\u062c\u0648\u0628 \u0628\u062a\u06cc\u0627\u0631", "name:en": "Jub Betyar", "place": "village", "source:name": "GNS"}}, {"type": "node", "id": 3520229919, "lat": 34.435597, "lon": 45.89883, "tags": {"alt_name": "Gol-e Davud", "alt_name:en": "Gol-e Davud", "is_in:country": "Iran", "is_in:state": "Kermanshah", "name": "\u06a9\u0644 \u062f\u0627\u0648\u062f", "name:en": "Kal Davud", "place": "village", "population": "131", "source:name": "GNS", "wikidata": "Q5860987", "wikipedia": "fa:\u06a9\u0644\u200c\u062f\u0627\u0648\u062f"}}, {"type": "node", "id": 3520229920, "lat": 34.5065069, "lon": 45.6807534, "tags": {"alt_name": "Qalantar;Ebrahim-e Kalantar", "alt_name:en": "Qalantar;Ebrahim-e Kalantar", "is_in:country": "Iran", "is_in:state": "Kermanshah", "name": "\u06a9\u0644\u0627\u0646\u062a\u0631", "place": "village", "source:name": "GNS"}}, {"type": "node", "id": 3520229921, "lat": 34.5024849, "lon": 45.8559636, "tags": {"is_in:country": "Iran", "is_in:state": "Kermanshah", "name": "\u06a9\u0644\u0627\u0634\u06cc \u062f\u0627\u0631\u0648\u06cc\u0633", "name:en": "Kalashi", "place": "village", "source:name": "GNS"}}, {"type": "node", "id": 3520229922, "lat": 34.6350013, "lon": 45.8149154, "tags": {"is_in:country": "Iran", "is_in:state": "Kermanshah", "name": "\u06a9\u0644\u0627\u0634\u06cc", "name:en": "Kalashi", "place": "village", "source:name": "GNS"}}, {"type": "node", "id": 3520229923, "lat": 34.7516, "lon": 45.8198, "tags": {"is_in:country": "Iran", "is_in:state": "Kermanshah", "name": "\u06a9\u0627\u0646\u06cc \u0634\u06cc\u0631\u06cc\u0646", "name:en": "Kani Shirin", "place": "village", "source:name": "GNS"}}, {"type": "node", "id": 3520229925, "lat": 34.7137926, "lon": 45.8110867, "tags": {"alt_name": "Gardanu", "alt_name:en": "Gardanu", "is_in:country": "Iran", "is_in:state": "Kermanshah", "name": "\u06a9\u0631\u062f\u0647 \u0646\u0648", "name:en": "Kardeh Now", "place": "village", "source:name": "GNS"}}, {"type": "node", "id": 3520229926, "lat": 34.544432, "lon": 45.7882976, "tags": {"alt_name": "Karim Lilaki", "alt_name:en": "Karim Lilaki", "is_in:country": "Iran", "is_in:state": "Kermanshah", "name": "\u06af\u0644\u0645 \u06a9\u0628\u0648\u062f \u0633\u0641\u0644\u06cc", "name:en": "Karim Nilaki", "place": "village", "source:name": "GNS"}}, {"type": "node", "id": 3520229928, "lat": 34.524489, "lon": 45.864922, "tags": {"alt_name": "Kolineh", "alt_name:en": "Kolineh", "is_in:country": "Iran", "is_in:state": "Kermanshah", "name": "\u06a9\u0644\u06cc\u0646\u0647", "name:en": "Kelineh", "place": "village", "source:name": "GNS"}}, {"type": "node", "id": 3520229931, "lat": 34.448116, "lon": 45.799209, "tags": {"is_in:country": "Iran", "is_in:state": "Kermanshah", "name": "\u062e\u0627\u062a\u0648\u0646\u0647", "name:en": "Khatuneh", "place": "village", "source:name": "GNS"}}, {"type": "node", "id": 3520229932, "lat": 34.395865, "lon": 45.681919, "tags": {"alt_name": "Khezel Kori Kohrek;Khazel Kari-ye Kahrak;Khazal Kari Kahrak", "alt_name:en": "Khezel Kori Kohrek;Khazel Kari-ye Kahrak;Khazal Kari Kahrak", "is_in:country": "Iran", "is_in:state": "Kermanshah", "name": "\u06a9\u0631\u06a9\u0647\u0631\u06a9", "name:en": "Khazal Karr-e Kahrak", "place": "village", "population": "405", "source:name": "GNS", "wikidata": "Q5850977", "wikipedia": "fa:\u06a9\u0631\u06a9\u0647\u0631\u06a9"}}, {"type": "node", "id": 3520229933, "lat": 34.516667, "lon": 45.85, "tags": {"is_in:country": "Iran", "is_in:state": "Kermanshah", "name": "\u062e\u0632\u0627\u0646\u0647 \u062f\u0648\u0644", "name:en": "Khazaneh Dul", "place": "village", "source:name": "GNS"}}, {"type": "node", "id": 3520229934, "lat": 34.746408, "lon": 45.853994, "tags": {"alt_name": "Kal-e Sefid;Qal`eh-ye Safid;Qal`eh Sefid;Qal'eh Safid;Kel-e Sefid", "alt_name:en": "Kal-e Sefid;Qal`eh-ye Safid;Qal`eh Sefid;Qal'eh Safid;Kel-e Sefid", "is_in:country": "Iran", "is_in:state": "Kermanshah", "name": "\u06a9\u06cc\u0644\u0647 \u0633\u0641\u06cc\u062f", "name:en": "Kileh Sefid", "place": "village", "source:name": "GNS"}}, {"type": "node", "id": 3520229936, "lat": 34.4474705, "lon": 45.8632807, "tags": {"alt_name": "Ku'ik-e Shekar", "alt_name:en": "Ku'ik-e Shekar", "is_in:country": "Iran", "is_in:state": "Kermanshah", "name": "\u06a9\u0648\u0626\u06cc\u06a9", "name:en": "Ku'ik", "place": "village", "source:name": "GNS"}}, {"type": "node", "id": 3520229937, "lat": 34.571552, "lon": 45.859508, "tags": {"alt_name:en": "Ku'ik-e Hasan;Kuyeki-ye Hasam;Kuyaki Hesam", "is_in:country": "Iran", "is_in:state": "Kermanshah", "name": "\u06a9\u0648\u0626\u06cc\u06a9 \u062d\u0633\u0646", "name:en": "Kuyaki-ye Hasan", "place": "village", "source:name": "GNS"}}, {"type": "node", "id": 3520229938, "lat": 34.5564309, "lon": 45.8592364, "tags": {"is_in:country": "Iran", "is_in:state": "Kermanshah", "name": "\u06a9\u0648\u0626\u06cc\u06a9 \u0645\u062d\u0645\u0648\u062f", "name:en": "Kuyaki-ye Mahmud", "place": "village", "source:name": "GNS"}}, {"type": "node", "id": 3520229939, "lat": 34.5528121, "lon": 45.8606642, "tags": {"alt_name": "Kuyaki Majid;Kuyeki-ye Majid", "alt_name:en": "Kuyaki Majid;Kuyeki-ye Majid", "is_in:country": "Iran", "is_in:state": "Kermanshah", "name": "\u06a9\u0648\u0626\u06cc\u06a9 \u0645\u062c\u06cc\u062f", "name:en": "Kuyaki-ye Majid", "place": "village", "source:name": "GNS"}}, {"type": "node", "id": 3520229940, "lat": 34.5603009, "lon": 45.8607599, "tags": {"alt_name": "Ku'ik-e `Aziz", "alt_name:en": "Ku'ik-e `Aziz", "is_in:country": "Iran", "is_in:state": "Kermanshah", "name": "\u06a9\u0648\u0626\u06cc\u06a9 \u0639\u0632\u06cc\u0632", "name:en": "Kuyaki-ye `Aziz", "place": "village", "source:name": "GNS"}}, {"type": "node", "id": 3520229944, "lat": 34.66, "lon": 45.8713, "tags": {"alt_name": "Meleh Rulan", "alt_name:en": "Meleh Rulan", "is_in:country": "Iran", "is_in:state": "Kermanshah", "name": "\u0645\u0644\u0647 \u0631\u0648\u0644\u0627\u0646", "name:en": "Maleh Rulan", "place": "village", "source:name": "GNS"}}, {"type": "node", "id": 3520229945, "lat": 34.408791, "lon": 45.880269, "tags": {"alt_name": "Meshkenar", "alt_name:en": "Meshkenar", "is_in:country": "Iran", "is_in:state": "Kermanshah", "name": "\u0645\u0634\u06a9\u0646\u0627\u0631", "name:en": "Mashganar", "name:fa": "\u0645\u0634\u06a9\u0646\u0627\u0631", "place": "village", "source:name": "GNS"}}, {"type": "node", "id": 3520229946, "lat": 34.439868, "lon": 45.834431, "tags": {"alt_name": "Meyan Mil;Mianmil", "alt_name:en": "Meyan Mil;Mianmil", "is_in:country": "Iran", "is_in:state": "Kermanshah", "name": "\u0645\u06cc\u0627\u0646 \u0645\u06cc\u0644", "name:en": "Mian Mil", "place": "village", "source:name": "GNS"}}, {"type": "node", "id": 3520229947, "lat": 34.554181, "lon": 45.817044, "tags": {"is_in:country": "Iran", "is_in:state": "Kermanshah", "name": "\u0645\u06cc\u0631\u0645\u06cc\u0631\u0648", "name:en": "Mirmiru", "place": "village", "source:name": "GNS"}}, {"type": "node", "id": 3520229948, "lat": 34.717, "lon": 45.814, "tags": {"alt_name": "Mish Rangin", "alt_name:en": "Mish Rangin", "is_in:country": "Iran", "is_in:state": "Kermanshah", "name": "\u0645\u06cc\u0634 \u062f\u0646\u06af\u06cc\u0646 \u062d\u0627\u062c\u06cc \u0642\u0627\u062f\u0631", "name:en": "Mish Rangin-e Hajji Qader", "place": "village", "source:name": "GNS"}}, {"type": "node", "id": 3520229951, "lat": 34.675408, "lon": 45.861517, "tags": {"alt_name": "A'inehvand-e Moradkhani;A'inehvand", "alt_name:en": "A'inehvand-e Moradkhani;A'inehvand", "is_in:country": "Iran", "is_in:state": "Kermanshah", "name": "\u0645\u0631\u0627\u062f\u062e\u0627\u0646\u06cc", "name:en": "Morad Khani", "place": "village", "source:name": "GNS"}}, {"type": "node", "id": 3520229952, "lat": 34.705, "lon": 45.8305, "tags": {"alt_name": "Na`lband", "alt_name:en": "Na`lband", "is_in:country": "Iran", "is_in:state": "Kermanshah", "name": "\u0646\u0639\u0644 \u0628\u0646\u062f \u06af\u0631\u062c\u06cc", "name:en": "Na`lband Garji", "place": "village", "source:name": "GNS"}}, {"type": "node", "id": 3520229954, "lat": 34.480098, "lon": 45.753928, "tags": {"alt_name": "Nasrabad Seyyed", "alt_name:en": "Nasrabad Seyyed", "is_in:country": "Iran", "is_in:state": "Kermanshah", "name": "\u0646\u0635\u0631 \u0622\u0628\u0627\u062f \u0633\u06cc\u062f \u062d\u0627\u062a\u0645", "name:en": "Nasrabad Seyyed Hatam", "place": "village", "source:name": "GNS"}}, {"type": "node", "id": 3520229956, "lat": 34.480833, "lon": 45.730278, "tags": {"is_in:country": "Iran", "is_in:state": "Kermanshah", "name": "\u0646\u0635\u0631\u0622\u0628\u0627\u062f \u0648\u06cc\u0633\u0645\u0631\u0627\u062f", "name:en": "Nasrabad-e Veys Morad", "place": "village", "source:name": "GNS"}}, {"type": "node", "id": 3520229957, "lat": 34.413954, "lon": 45.624029, "tags": {"alt_name": "Pahn Abdollah;Saiyid Ahmad;Seyyed Ahmad;Nasrabad Seyyed Ahmad", "alt_name:en": "Pahn Abdollah;Saiyid Ahmad;Seyyed Ahmad;Nasrabad Seyyed Ahmad", "is_in:country": "Iran", "is_in:state": "Kermanshah", "name": "\u0646\u06cc \u067e\u0647\u0646 \u0639\u0628\u062f\u0627\u0644\u0644\u0647", "name:en": "Ney Pahn-e `Abdollah", "place": "village", "population": "36", "source:name": "GNS", "wikidata": "Q5858306", "wikipedia": "fa:\u0646\u06cc\u200c\u067e\u0647\u0646 \u0639\u0628\u062f\u0627\u0644\u0647"}}, {"type": "node", "id": 3520229959, "lat": 34.400355, "lon": 45.892901, "tags": {"alt_name": "Nowdeh", "alt_name:en": "Nowdeh", "is_in:country": "Iran", "is_in:state": "Kermanshah", "name": "\u0646\u0648\u062f\u06cc\u0647", "name:en": "Nowdiyeh", "place": "village", "source:name": "GNS"}}, {"type": "node", "id": 3520229960, "lat": 34.5782547, "lon": 45.79772, "tags": {"alt_name:en": "Papali", "is_in:country": "Iran", "is_in:state": "Kermanshah", "name": "\u067e\u0627\u067e\u0644\u06cc", "name:en": "Papli", "place": "village", "source:name": "GNS"}}, {"type": "node", "id": 3520229961, "lat": 34.4513882, "lon": 45.8425195, "tags": {"is_in:country": "Iran", "is_in:state": "Kermanshah", "name": "\u067e\u0627\u0648\u0646\u0627\u0631", "name:en": "Pavenar", "place": "village", "source:name": "GNS"}}, {"type": "node", "id": 3520229962, "lat": 34.6952, "lon": 45.7363, "tags": {"is_in:country": "Iran", "is_in:state": "Kermanshah", "name": "\u067e\u0644\u0647 \u062a\u06cc\u0648\u0632", "name:en": "Pelleh Teyuz", "place": "village", "source:name": "GNS"}}, {"type": "node", "id": 3520229963, "lat": 34.478704, "lon": 45.852727, "tags": {"alt_name": "Paspas;Pas Pas", "alt_name:en": "Paspas;Pas Pas", "is_in:country": "Iran", "is_in:state": "Kermanshah", "name": "\u067e\u0633 \u067e\u0633", "name:en": "Pespes", "place": "village", "source:name": "GNS"}}, {"type": "node", "id": 3520229964, "lat": 34.662537, "lon": 45.868874, "tags": {"alt_name": "Pal-e Tut;Dartut", "alt_name:en": "Pal-e Tut;Dartut", "is_in:country": "Iran", "is_in:state": "Kermanshah", "name": "\u067e\u0644 \u062a\u0648\u062a", "name:en": "Pol-e Tut", "place": "village", "source:name": "GNS"}}, {"type": "node", "id": 3520229965, "lat": 34.6287954, "lon": 45.8890086, "tags": {"is_in:country": "Iran", "is_in:state": "Kermanshah", "name": "\u067e\u0634\u062a \u062a\u0646\u06af \u0632\u0647\u0627\u0628", "name:en": "Posht Tang-e Zahab", "place": "village", "source:name": "GNS"}}, {"type": "node", "id": 3520229966, "lat": 34.7521, "lon": 45.7514, "tags": {"is_in:country": "Iran", "is_in:state": "Kermanshah", "name": "\u0642\u0627\u062f\u0631\u06cc \u062e\u0627\u0645\u0647", "name:en": "Qaderi Khameh", "place": "village", "source:name": "GNS"}}, {"type": "node", "id": 3520229967, "lat": 34.6973663, "lon": 45.8231477, "tags": {"is_in:country": "Iran", "is_in:state": "Kermanshah", "name": "\u0642\u0627\u062f\u0631\u06cc", "name:en": "Qaderi", "place": "village", "source:name": "GNS"}}, {"type": "node", "id": 3520229969, "lat": 34.5841969, "lon": 45.849036, "tags": {"is_in:country": "Iran", "is_in:state": "Kermanshah", "name": "\u0642\u0644\u0639\u0647 \u0648\u0627\u0631\u06cc", "name:en": "Qal`eh Vari", "place": "village", "source:name": "GNS"}}, {"type": "node", "id": 3520229970, "lat": 34.5927413, "lon": 45.8645429, "tags": {"alt_name": "Qal`eh Badri-ye Soltan Morad", "alt_name:en": "Qal`eh Badri-ye Soltan Morad", "is_in:country": "Iran", "is_in:state": "Kermanshah", "name": "\u0642\u0644\u0639\u0647 \u0628\u0647\u0627\u062f\u0631\u06cc", "name:en": "Qal`eh Bhadri", "place": "village", "source:name": "GNS"}}, {"type": "node", "id": 3520229971, "lat": 34.5397088, "lon": 45.863869, "tags": {"is_in:country": "Iran", "is_in:state": "Kermanshah", "name": "\u0642\u0644\u0647 \u067e\u0631\u0648\u0631", "name:en": "Qal`eh Parvar", "place": "village", "source:name": "GNS"}}, {"type": "node", "id": 3520229972, "lat": 34.491878, "lon": 45.849674, "tags": {"alt_name": "Rashid `Abbasi;Gali;Qal'eh Pes Pes;Guli", "alt_name:en": "Rashid `Abbasi;Gali;Qal'eh Pes Pes;Guli", "is_in:country": "Iran", "is_in:state": "Kermanshah", "name": "\u0642\u0644\u0639\u0647 \u0631\u0634\u06cc\u062f \u0622\u0642\u0627", "name:en": "Qal`eh Rashid Aqa", "place": "village", "source:name": "GNS"}}, {"type": "node", "id": 3520229977, "lat": 34.4880239, "lon": 45.7949988, "tags": {"is_in:country": "Iran", "is_in:state": "Kermanshah", "name": "\u0642\u0631\u0627\u0648\u06cc\u0632", "name:en": "Qaraviz", "place": "village", "source:name": "GNS"}}, {"type": "node", "id": 3520229978, "lat": 34.485881, "lon": 45.830782, "tags": {"alt_name": "Qareh Bolagh-e Mafi;Mu`afi;Qareh Bolagh;Mo`afi", "alt_name:en": "Qareh Bolagh-e Mafi;Mu`afi;Qareh Bolagh;Mo`afi", "is_in:country": "Iran", "is_in:state": "Kermanshah", "name": "\u0642\u0631\u0647 \u0628\u0644\u0627\u063a \u0634\u06cc\u062e \u0645\u0631\u0627\u062f", "name:en": "Qareh Bolagh Sheykh Morad", "place": "village", "source:name": "GNS"}}, {"type": "node", "id": 3520229979, "lat": 34.473671, "lon": 45.8249143, "tags": {"alt_name": "Qarah Bolagh-e A`zam", "alt_name:en": "Qarah Bolagh-e A`zam", "is_in:country": "Iran", "is_in:state": "Kermanshah", "name": "\u0642\u0631\u0647 \u0628\u0644\u0627\u063a \u0627\u0639\u0638\u0645", "name:en": "Qareh Bolagh-e A`zam", "place": "village", "source:name": "GNS"}}, {"type": "node", "id": 3520229980, "lat": 34.5985578, "lon": 45.8652728, "tags": {"alt_name": "Qareh Sini", "alt_name:en": "Qareh Sini", "is_in:country": "Iran", "is_in:state": "Kermanshah", "name": "\u0642\u0631\u0647 \u0633\u0646\u06cc", "name:en": "Qareh Sani", "place": "village", "source:name": "GNS"}}, {"type": "node", "id": 3520229981, "lat": 34.4214287, "lon": 45.8684674, "tags": {"alt_name": "Qeytak", "alt_name:en": "Qeytak", "is_in:country": "Iran", "is_in:state": "Kermanshah", "name": "\u0642\u06cc\u0637\u06a9", "name:en": "Gheitek", "place": "village", "source:name": "GNS"}}, {"type": "node", "id": 3520229982, "lat": 34.473775, "lon": 45.8700173, "tags": {"alt_name": "Rashid `Abbast;Rashid `Abbasi", "alt_name:en": "Rashid `Abbast;Rashid `Abbasi", "is_in:country": "Iran", "is_in:state": "Kermanshah", "name": "\u0631\u0634\u06cc\u062f \u0639\u0628\u0627\u0633", "name:en": "Rashid `Abbas", "place": "village", "source:name": "GNS"}}, {"type": "node", "id": 3520229985, "lat": 34.451156, "lon": 45.895555, "tags": {"alt_name": "`Ali Gerdeh;`Ali Gardeh", "alt_name:en": "`Ali Gerdeh;`Ali Gardeh", "is_in:country": "Iran", "is_in:state": "Kermanshah", "name": "\u0631\u0636\u0627\u0644\u06a9", "name:en": "Rezalak", "place": "village", "source:name": "GNS"}}, {"type": "node", "id": 3520229986, "lat": 34.4639767, "lon": 45.8136447, "tags": {"alt_name": "Haft Sahmi", "alt_name:en": "Haft Sahmi", "is_in:country": "Iran", "is_in:state": "Kermanshah", "name": "\u0631\u06cc\u062e\u06a9 \u0633\u0641\u0644\u06cc", "name:en": "Rikhak-e Sofla", "place": "village", "source:name": "GNS"}}, {"type": "node", "id": 3520229987, "lat": 34.459197, "lon": 45.828963, "tags": {"alt_name": "Rikhak-e Bala", "alt_name:en": "Rikhak-e Bala", "is_in:country": "Iran", "is_in:state": "Kermanshah", "name": "\u0631\u06cc\u062e\u06a9 \u0639\u0644\u06cc\u0627", "name:en": "Rikhak-e `Olya", "place": "village", "source:name": "GNS"}}, {"type": "node", "id": 3520229988, "lat": 34.411042, "lon": 45.8134857, "tags": {"is_in:country": "Iran", "is_in:state": "Kermanshah", "name": "\u0634\u0646\u0642\u0627\u0644 \u062e\u0627\u0644\u062f\u06cc", "name:en": "Salar Khali", "place": "village", "source:name": "GNS"}}, {"type": "node", "id": 3520229989, "lat": 34.7291, "lon": 45.7483, "tags": {"alt_name": "Sar Qal`eh-ye Tazehabad;Sar Qal`eh;Sar Kal", "alt_name:en": "Sar Qal`eh-ye Tazehabad;Sar Qal`eh;Sar Kal", "is_in:country": "Iran", "is_in:state": "Kermanshah", "name": "\u0633\u0631\u0642\u0644\u0639\u0647 \u0628\u0627\u0644\u0627", "name:en": "Sar Qal`eh-ye Bala", "place": "village", "source:name": "GNS"}}, {"type": "node", "id": 3520229990, "lat": 34.705028, "lon": 45.821477, "tags": {"is_in:country": "Iran", "is_in:state": "Kermanshah", "name": "\u0633\u0631\u0627\u0626\u06cc", "name:en": "Sara'i", "place": "village", "source:name": "GNS"}}, {"type": "node", "id": 3520229991, "lat": 34.429361, "lon": 45.8460661, "tags": {"alt_name": "Sarab Garm;Sarabgarm", "alt_name:en": "Sarab Garm;Sarabgarm", "is_in:country": "Iran", "is_in:state": "Kermanshah", "name": "\u0633\u0631\u0627\u0628 \u06af\u0631\u0645", "name:en": "Sarab-e Garm", "place": "village", "source:name": "GNS"}}, {"type": "node", "id": 3520229992, "lat": 34.62214, "lon": 45.827266, "tags": {"is_in:country": "Iran", "is_in:state": "Kermanshah", "name": "\u0633\u0631\u0627\u0628 \u0630\u0647\u0627\u0628", "name:en": "Sarab-e Zehab", "place": "village", "source:name": "GNS"}}, {"type": "node", "id": 3520230393, "lat": 34.5108468, "lon": 45.8514285, "tags": {"alt_name": "Saravaleh", "alt_name:en": "Saravaleh", "is_in:country": "Iran", "is_in:state": "Kermanshah", "name": "\u0633\u0631\u0627\u0628\u0644\u0647", "name:en": "Sarableh", "place": "village", "source:name": "GNS"}}, {"type": "node", "id": 3520230394, "lat": 34.759683, "lon": 45.701482, "tags": {"is_in:country": "Iran", "is_in:state": "Kermanshah", "name": "\u0633\u0631 \u062a\u0646\u06af", "name:en": "Sartang", "place": "village", "source:name": "GNS"}}, {"type": "node", "id": 3520230395, "lat": 34.504, "lon": 45.684, "tags": {"alt_name": "Saiyid Ahmad;Nasrabad-e Seyyed Ahmad", "alt_name:en": "Saiyid Ahmad;Nasrabad-e Seyyed Ahmad", "is_in:country": "Iran", "is_in:state": "Kermanshah", "name": "\u0633\u06cc\u062f \u0627\u062d\u0645\u062f", "name:en": "Seyyed Ahmad", "place": "village", "source:name": "GNS"}}, {"type": "node", "id": 3520230396, "lat": 34.5227025, "lon": 45.6586734, "tags": {"is_in:country": "Iran", "is_in:state": "Kermanshah", "name": "\u0633\u06cc\u062f\u0627\u06cc\u0627\u0632", "name:en": "Seyyed Ayaz", "place": "village", "source:name": "GNS"}}, {"type": "node", "id": 3520230397, "lat": 34.5214, "lon": 45.6468, "tags": {"is_in:country": "Iran", "is_in:state": "Kermanshah", "name": "\u0633\u06cc\u062f \u062e\u0644\u06cc\u0644", "name:en": "Seyyed Khalil", "place": "village", "source:name": "GNS"}}, {"type": "node", "id": 3520230399, "lat": 34.5090458, "lon": 45.8700773, "tags": {"is_in:country": "Iran", "is_in:state": "Kermanshah", "name": "\u0633\u06cc\u062f \u0635\u0627\u062f\u0642", "place": "village", "source:name": "GNS"}}, {"type": "node", "id": 3520230401, "lat": 34.5446208, "lon": 45.8652067, "tags": {"is_in:country": "Iran", "is_in:state": "Kermanshah", "name": "\u0634\u0645\u0634\u06cc\u0631 \u0628\u0627\u0644\u0627", "name:en": "Shamshir-e Bala", "place": "village", "source:name": "GNS"}}, {"type": "node", "id": 3520230402, "lat": 34.545048, "lon": 45.859047, "tags": {"is_in:country": "Iran", "is_in:state": "Kermanshah", "name": "\u0634\u0645\u0634\u06cc\u0631 \u067e\u0627\u0626\u06cc\u0646", "name:en": "Shamshir-e Pa'in", "place": "village", "source:name": "GNS"}}, {"type": "node", "id": 3520230403, "lat": 34.4238057, "lon": 45.8111013, "tags": {"is_in:country": "Iran", "is_in:state": "Kermanshah", "name": "\u0634\u0646\u0642\u0627\u0648", "name:en": "Shanqav", "place": "village", "source:name": "GNS"}}, {"type": "node", "id": 3520230405, "lat": 34.4785994, "lon": 45.7604901, "tags": {"alt_name": "Shirin Ab", "alt_name:en": "Shirin Ab", "is_in:country": "Iran", "is_in:state": "Kermanshah", "name": "\u0634\u06cc\u0631\u06cc\u0646 \u0622\u0628 \u063a\u0632\u0627\u0644 \u062e\u0627\u0646\u0645", "name:en": "Shirin Ab-e Ghazal Khanom", "place": "village", "source:name": "GNS"}}, {"type": "node", "id": 3520230406, "lat": 34.476705, "lon": 45.722405, "tags": {"is_in:country": "Iran", "is_in:state": "Kermanshah", "name": "\u0634\u06cc\u0631\u0632\u0627\u062f", "name:en": "Shirzad", "place": "village", "source:name": "GNS"}}, {"type": "node", "id": 3520230408, "lat": 34.606, "lon": 45.849, "tags": {"is_in:country": "Iran", "is_in:state": "Kermanshah", "name": "\u062a\u067e\u0627\u0646\u06cc", "name:en": "Tapani", "place": "village", "source:name": "GNS"}}, {"type": "node", "id": 3520230409, "lat": 34.5774273, "lon": 45.7693154, "tags": {"is_in:country": "Iran", "is_in:state": "Kermanshah", "name": "\u062a\u067e\u0647 \u062f\u0627\u0631\u0627\u0628 \u062e\u0627\u0646", "name:en": "Tappeh Darkhan", "name:fa": "\u062a\u067e\u0647 \u062f\u0627\u0631\u062e\u0627\u0646", "place": "village", "source:name": "GNS"}}, {"type": "node", "id": 3520230410, "lat": 34.681442, "lon": 45.83119, "tags": {"is_in:country": "Iran", "is_in:state": "Kermanshah", "name": "\u062a\u067e\u0647 \u06a9\u0628\u0648\u062f \u0628\u0627\u0644\u0627", "name:en": "Tappeh Kabud-e Bala", "place": "village", "source:name": "GNS"}}, {"type": "node", "id": 3520230411, "lat": 34.6785, "lon": 45.8315, "tags": {"is_in:country": "Iran", "is_in:state": "Kermanshah", "name": "\u062a\u067e\u0647 \u06a9\u0628\u0648\u062f \u067e\u0627\u06cc\u06cc\u0646", "place": "village", "source:name": "GNS"}}, {"type": "node", "id": 3520230412, "lat": 34.596774, "lon": 45.842184, "tags": {"alt_name": "Tappeh-ye Kalik", "alt_name:en": "Tappeh-ye Kalik", "is_in:country": "Iran", "is_in:state": "Kermanshah", "name": "\u062a\u067e\u0647 \u06a9\u0644\u06cc\u06a9", "name:en": "Tappeh Kalik", "place": "village", "source:name": "GNS"}}, {"type": "node", "id": 3520230413, "lat": 34.7156, "lon": 45.7294, "tags": {"is_in:country": "Iran", "is_in:state": "Kermanshah", "name": "\u062a\u067e\u0647 \u06a9\u0646\u0639\u0627\u0646", "name:en": "Tappeh Kan`an", "place": "village", "source:name": "GNS"}}, {"type": "node", "id": 3520230414, "lat": 34.594552, "lon": 45.781933, "tags": {"alt_name": "Tappeh-ye Maran", "alt_name:en": "Tappeh-ye Maran", "is_in:country": "Iran", "is_in:state": "Kermanshah", "name": "\u062a\u067e\u0647 \u0645\u0627\u0631\u0627\u0646", "name:en": "Tappeh Maran", "place": "village", "source:name": "GNS"}}, {"type": "node", "id": 3520230415, "lat": 34.7399446, "lon": 45.7285978, "tags": {"alt_name": "Taqtaq;Kal-e Taktak", "alt_name:en": "Taqtaq;Kal-e Taktak", "is_in:country": "Iran", "is_in:state": "Kermanshah", "name": "\u062a\u067e\u0647 \u0631\u0634", "name:en": "Tappeh Rash", "place": "village", "source:name": "GNS"}}, {"type": "node", "id": 3520230417, "lat": 34.4102752, "lon": 45.8765423, "tags": {"alt_name": "Tappeh-ye `Azimeh", "alt_name:en": "Tappeh-ye `Azimeh", "is_in:country": "Iran", "is_in:state": "Kermanshah", "name": "\u062a\u067e\u0647 \u0639\u0638\u06cc\u0645\u0647", "name:en": "Tappeh `Azimeh", "place": "village", "source:name": "GNS"}}, {"type": "node", "id": 3520230418, "lat": 34.7663, "lon": 45.783, "tags": {"is_in:country": "Iran", "is_in:state": "Kermanshah", "name": "\u062a\u0642\u062a\u0642", "name:en": "Taqtaq", "place": "village", "source:name": "GNS"}}, {"type": "node", "id": 3520230419, "lat": 34.537725, "lon": 45.863702, "tags": {"alt_name": "Tini", "alt_name:en": "Tini", "is_in:country": "Iran", "is_in:state": "Kermanshah", "name": "\u062a\u06cc\u0646\u06cc", "name:en": "Tayeni", "place": "village", "source:name": "GNS"}}, {"type": "node", "id": 3520230420, "lat": 34.6132132, "lon": 45.7857945, "tags": {"alt_name": "Ta'esheh Mahmud Nazari;Talesheh Mahmood Nazari;Tayesheh-Ye-Mahmud;Ta'esheh Mahmud", "alt_name:en": "Ta'esheh Mahmud Nazari;Talesheh Mahmood Nazari;Tayesheh-Ye-Mahmud;Ta'esheh Mahmud", "is_in:country": "Iran", "is_in:state": "Kermanshah", "name": "\u0637\u0627\u06cc\u0634", "name:en": "Tayesh", "place": "village", "source:name": "GNS"}}, {"type": "node", "id": 3520230422, "lat": 34.7485, "lon": 45.6885, "tags": {"alt_name": "Tilekuh-e `Olya;Tilahkuh", "alt_name:en": "Tilekuh-e `Olya;Tilahkuh", "is_in:country": "Iran", "is_in:state": "Kermanshah", "name": "\u062a\u06cc\u0644\u0647 \u06a9\u0648\u0647 \u0628\u0627\u0644\u0627", "name:en": "Tileh Kuh-e Bala", "place": "village", "source:name": "GNS"}}, {"type": "node", "id": 3520230423, "lat": 34.752302, "lon": 45.688204, "tags": {"is_in:country": "Iran", "is_in:state": "Kermanshah", "name": "\u062a\u06cc\u0644\u0647 \u06a9\u0648\u0647 \u0645\u06cc\u0627\u0646\u06cc", "name:en": "Tileh Kuh-e Miani", "place": "village", "source:name": "GNS"}}, {"type": "node", "id": 3520230424, "lat": 34.737332, "lon": 45.853715, "tags": {"alt_name": "Tuvashkeh;Towoshkeh", "alt_name:en": "Tuvashkeh;Towoshkeh", "is_in:country": "Iran", "is_in:state": "Kermanshah", "name": "\u062a\u0648 \u062e\u0634\u06a9\u0647", "name:en": "Tu Khoshkeh", "place": "village", "source:name": "GNS"}}, {"type": "node", "id": 3520230425, "lat": 34.765363, "lon": 45.709562, "tags": {"alt_name": "Tukhoshkeh;Toveh Khoshkeh", "alt_name:en": "Tukhoshkeh;Toveh Khoshkeh", "is_in:country": "Iran", "is_in:state": "Kermanshah", "name": "\u062a\u0648\u062a \u062e\u0634\u06a9\u0647", "name:en": "Tut Khoshkeh", "place": "village", "source:name": "GNS"}}, {"type": "node", "id": 3520230426, "lat": 34.4490909, "lon": 45.8500101, "tags": {"is_in:country": "Iran", "is_in:state": "Kermanshah", "name": "\u0632\u0639\u0641\u0631\u0627\u0646", "name:en": "Za`faran", "place": "village", "source:name": "GNS"}}, {"type": "node", "id": 3520230428, "lat": 34.491313, "lon": 45.887491, "tags": {"is_in:country": "Iran", "is_in:state": "Kermanshah", "name": "\u0632\u0627\u0644\u0647 \u0631\u0634", "name:en": "Zaleh Rash", "place": "village", "source:name": "GNS"}}, {"type": "node", "id": 3520230429, "lat": 34.434264, "lon": 45.800414, "tags": {"alt_name": "Zarrin Jub;Zarrinju;Zarrin Jow;Zarkinju", "alt_name:en": "Zarrin Jub;Zarrinju;Zarrin Jow;Zarkinju", "is_in:country": "Iran", "is_in:state": "Kermanshah", "name": "\u0632\u0631\u06cc\u0646 \u062c\u0648", "name:en": "Zarrin Ju", "place": "village", "population": "102", "source:name": "GNS"}}, {"type": "node", "id": 3520230430, "lat": 34.5007559, "lon": 45.8309411, "tags": {"alt_name": "Qal`eh Pahn Bas;Zarrin Jub", "alt_name:en": "Qal`eh Pahn Bas;Zarrin Jub", "is_in:country": "Iran", "is_in:state": "Kermanshah", "name": "\u0632\u0631\u06cc\u0646 \u062c\u0648", "name:en": "Zarrin Ju", "place": "village", "source:name": "GNS"}}, {"type": "node", "id": 3520230433, "lat": 34.6932766, "lon": 45.8265792, "tags": {"is_in:country": "Iran", "is_in:state": "Kermanshah", "name": "\u0645\u06cc\u0644 \u0642\u0627\u062f\u0631\u0639\u0644\u06cc\u0627", "place": "village", "source:name": "GNS"}}, {"type": "node", "id": 3520230434, "lat": 34.436801, "lon": 45.884295, "tags": {"alt_name": "Shahid Saduqi;`Asgar Khan", "alt_name:en": "Shahid Saduqi;`Asgar Khan", "is_in:country": "Iran", "is_in:state": "Kermanshah", "name": "\u0639\u0633\u06a9\u0631\u062e\u0627\u0646\u06cc", "name:en": "`Asgar Khani", "place": "village", "source:name": "GNS"}}, {"type": "node", "id": 3520295970, "lat": 34.462422, "lon": 45.923606, "tags": {"alt_name": "A'ineh Vand;Aina", "alt_name:en": "A'ineh Vand;Aina", "is_in:country": "Iran", "is_in:state": "Kermanshah", "name": "\u0622\u0626\u06cc\u0646\u0647", "name:en": "A'ineh", "place": "village", "source:name": "GNS"}}, {"type": "node", "id": 3520295972, "lat": 34.42433, "lon": 45.914, "tags": {"is_in:country": "Iran", "is_in:state": "Kermanshah", "name": "\u0627\u0646\u0632\u0644", "name:en": "Anzal", "place": "village", "population": "343", "source:name": "GNS", "wikidata": "Q5857519", "wikipedia": "fa:\u0627\u0646\u0632\u0644"}}, {"type": "node", "id": 3520295975, "lat": 34.465918, "lon": 45.997253, "tags": {"is_in:country": "Iran", "is_in:state": "Kermanshah", "name": "\u0628\u0627\u0628\u0627 \u062c\u0627\u0646\u06cc \u067e\u0627\u06cc\u06cc\u0646", "name:en": "Baba Jani", "place": "village", "source:name": "GNS"}}, {"type": "node", "id": 3520295976, "lat": 34.476798, "lon": 45.975118, "tags": {"alt_name": "Baba Jani;Baba Jani-ye `Abd ol Mohammad", "alt_name:en": "Baba Jani;Baba Jani-ye `Abd ol Mohammad", "is_in:country": "Iran", "is_in:state": "Kermanshah", "name": "\u0628\u0627\u0628\u0627\u062c\u0627\u0646\u06cc \u0627\u0628\u0648\u062f\u062c\u0627\u0646\u0647", "name:en": "Baba Jani-ye Abu Dajaneh", "place": "village", "source:name": "GNS"}}, {"type": "node", "id": 3520295977, "lat": 34.4688011, "lon": 45.9963091, "tags": {"alt_name": "Darabi;Darab Baba Jani", "alt_name:en": "Darabi;Darab Baba Jani", "is_in:country": "Iran", "is_in:state": "Kermanshah", "name": "\u0628\u0627\u0628\u0627 \u062c\u0627\u0646\u06cc \u0628\u0627\u0644\u0627", "name:en": "Baba Jani-ye Bala", "place": "village", "source:name": "GNS"}}, {"type": "node", "id": 3520295982, "lat": 34.49081, "lon": 45.912521, "tags": {"is_in:country": "Iran", "is_in:state": "Kermanshah", "name": "\u0628\u0644\u0648\u0627\u0646", "name:en": "Balvan", "place": "village", "source:name": "GNS"}}, {"type": "node", "id": 3520295985, "lat": 34.543397, "lon": 45.953495, "tags": {"is_in:country": "Iran", "is_in:state": "Kermanshah", "name": "\u0628\u0627\u0646 \u0632\u0631\u062f\u0647", "name:en": "Ban Zardeh", "place": "village", "source:name": "GNS"}}, {"type": "node", "id": 3520295991, "lat": 34.44613, "lon": 45.942111, "tags": {"alt_name:en": "Barzelak;Barzaleh;Barzeleh", "is_in:country": "Iran", "is_in:state": "Kermanshah", "name": "\u0628\u0631\u0632\u0647 \u0644\u06a9", "name:en": "Barzeh Lak", "place": "village", "source:name": "GNS"}}, {"type": "node", "id": 3520297309, "lat": 34.445543, "lon": 45.931485, "tags": {"is_in:country": "Iran", "is_in:state": "Kermanshah", "name": "\u0686\u0627\u0644\u06af\u0647", "name:en": "Chalegah", "place": "village", "source:name": "GNS"}}, {"type": "node", "id": 3520297314, "lat": 34.3470828, "lon": 45.9809057, "tags": {"is_in:country": "Iran", "is_in:state": "Kermanshah", "name": "\u062f\u0627\u0631 \u0628\u0644\u0648\u0637", "name:en": "Dar Balut", "place": "village", "population": "374", "source:name": "GNS", "wikidata": "Q6526665", "wikipedia": "fa:\u062f\u0627\u0631\u0628\u0644\u0648\u0637 (\u0633\u0631\u067e\u0644\u200c\u0630\u0647\u0627\u0628)"}}, {"type": "node", "id": 3520297315, "lat": 34.503542, "lon": 45.955814, "tags": {"is_in:country": "Iran", "is_in:state": "Kermanshah", "name": "\u062f\u0627\u0631\u0627\u0628", "name:en": "Darab", "place": "village", "source:name": "GNS"}}, {"type": "node", "id": 3520297319, "lat": 34.361744, "lon": 45.94449, "tags": {"is_in:country": "Iran", "is_in:state": "Kermanshah", "name": "\u062f\u0627\u0631\u062a\u0648\u062a", "name:en": "Dartut", "place": "village", "population": "538", "source:name": "GNS", "wikipedia": "fa:\u062f\u0627\u0631\u062a\u0648\u062a (\u0633\u0631\u067e\u0644\u200c\u0630\u0647\u0627\u0628)"}}, {"type": "node", "id": 3520297321, "lat": 34.3732254, "lon": 45.9630002, "tags": {"is_in:country": "Iran", "is_in:state": "Kermanshah", "name": "\u062f\u0648\u0627\u0632\u062f\u0647 \u0627\u0645\u0627\u0645", "name:en": "Davazdah Emam", "place": "village", "population": "285", "source:name": "GNS", "wikidata": "Q6527292", "wikipedia": "fa:\u062f\u0648\u0627\u0632\u062f\u0647\u200c\u0627\u0645\u0627\u0645 (\u0633\u0631\u067e\u0644\u200c\u0630\u0647\u0627\u0628)"}}, {"type": "node", "id": 3520297330, "lat": 34.4015906, "lon": 45.9186712, "tags": {"alt_name": "Dolangan-e `Olya;Dulgan-e Bala", "alt_name:en": "Dolangan-e `Olya;Dulgan-e Bala", "alt_name:fa": "\u062f\u0648\u0644\u0646\u06af\u0627\u0646 \u0639\u0644\u06cc\u0627", "is_in:country": "Iran", "is_in:state": "Kermanshah", "name": "\u062f\u0648\u0644\u0646\u06af\u0627\u0646 \u0628\u0627\u0644\u0627", "name:en": "Dolangan-e Bala", "place": "village", "population": "322", "source:name": "GNS", "wikidata": "Q5863974", "wikipedia": "fa:\u062f\u0648\u0644\u0646\u06af\u0627\u0646 \u0639\u0644\u06cc\u0627"}}, {"type": "node", "id": 3520297331, "lat": 34.410576, "lon": 45.909727, "tags": {"alt_name": "Dulgan-e Pa'in;Dolangan-e Sofla", "alt_name:en": "Dulgan-e Pa'in;Dolangan-e Sofla", "alt_name:fa": "\u062f\u0648\u0644\u0646\u06af\u0627\u0646 \u0633\u0641\u0644\u06cc", "is_in:country": "Iran", "is_in:state": "Kermanshah", "name": "\u062f\u0648\u0644\u0646\u06af\u0627\u0646 \u067e\u0627\u0626\u06cc\u0646", "name:en": "Dolangan-e Pa'in", "place": "village", "population": "359", "source:name": "GNS", "wikidata": "Q5863972", "wikipedia": "fa:\u062f\u0648\u0644\u0646\u06af\u0627\u0646 \u0633\u0641\u0644\u06cc"}}, {"type": "node", "id": 3520297334, "lat": 34.3901, "lon": 46.0542, "tags": {"is_in:country": "Iran", "is_in:state": "Kermanshah", "name": "\u0641\u0631\u0627\u0648\u06cc\u0632", "name:en": "Faraviz", "place": "village", "source:name": "GNS"}}, {"type": "node", "id": 3520297335, "lat": 34.404562, "lon": 45.989254, "tags": {"is_in:country": "Iran", "is_in:state": "Kermanshah", "name": "\u0641\u0648\u0644\u0627\u062f\u06cc", "name:en": "Fuladi", "place": "village", "source:name": "GNS"}}, {"type": "node", "id": 3520297336, "lat": 34.415278, "lon": 45.964167, "tags": {"is_in:country": "Iran", "is_in:state": "Kermanshah", "name": "\u0642\u067e\u06a9\u06cc", "place": "village", "source:name": "GNS"}}, {"type": "node", "id": 3520297344, "lat": 34.497897, "lon": 45.962235, "tags": {"is_in:country": "Iran", "is_in:state": "Kermanshah", "name": "\u06af\u0648\u0634 \u06a9\u0631\u06cc", "name:en": "Gush Kori", "place": "village", "source:name": "GNS"}}, {"type": "node", "id": 3520297345, "lat": 34.488056, "lon": 45.912222, "tags": {"alt_name": "Habib-e Reza Veus", "alt_name:en": "Habib-e Reza Veus", "is_in:country": "Iran", "is_in:state": "Kermanshah", "name": "\u062d\u0628\u06cc\u0628 \u0631\u0636\u0627\u0648\u06cc\u0633", "place": "village", "source:name": "GNS"}}, {"type": "node", "id": 3520297346, "lat": 34.430684, "lon": 45.953542, "tags": {"alt_name:en": "Habibvand-e Sofla;Habib;Mahki-ye Bala", "is_in:country": "Iran", "is_in:state": "Kermanshah", "name": "\u062d\u0628\u06cc\u0628 \u0648\u0646\u062f", "name:en": "Habibvand", "place": "village", "source:name": "GNS"}}, {"type": "node", "id": 3520297355, "lat": 34.368936, "lon": 45.968477, "tags": {"alt_name": "Kasareh;Kalsara;Kasehrah;Kah Sara;Hajji Mirza Khan;Kasereh", "alt_name:en": "Kasareh;Kalsara;Kasehrah;Kah Sara;Hajji Mirza Khan;Kasereh", "is_in:country": "Iran", "is_in:state": "Kermanshah", "name": "\u06a9\u0627\u0647\u0633\u0631\u0627\u0647", "name:en": "Kah Sareh", "place": "village", "population": "475", "source:name": "GNS", "wikidata": "Q5860986", "wikipedia": "fa:\u06a9\u0627\u0647\u200c\u0633\u0631\u0627"}}, {"type": "node", "id": 3520297364, "lat": 34.5002246, "lon": 45.9570879, "tags": {"is_in:country": "Iran", "is_in:state": "Kermanshah", "name": "\u06a9\u0627\u0646\u06cc \u0633\u0631\u062e\u0647", "place": "village", "source:name": "GNS"}}, {"type": "node", "id": 3520297366, "lat": 34.5198643, "lon": 45.9071573, "tags": {"alt_name": "Quji Bashi", "alt_name:en": "Quji Bashi", "is_in:country": "Iran", "is_in:state": "Kermanshah", "name": "\u0642\u0648\u0631\u0686\u06cc \u0628\u0627\u0634\u06cc", "name:en": "Quji Bashi", "place": "village", "source:name": "GNS"}}, {"type": "node", "id": 3520297619, "lat": 34.490548, "lon": 45.936364, "tags": {"alt_name": "Kalah Mal", "alt_name:en": "Kalah Mal", "is_in:country": "Iran", "is_in:state": "Kermanshah", "name": "\u06a9\u0644\u0627\u0647 \u0645\u0627\u0644", "name:en": "Kolah Mal", "place": "village", "source:name": "GNS"}}, {"type": "node", "id": 3520297627, "lat": 34.403854, "lon": 45.984264, "tags": {"is_in:country": "Iran", "is_in:state": "Kermanshah", "name": "\u06a9\u0648\u0647\u0627\u0644\u06cc", "name:en": "Kuhali", "place": "village", "source:name": "GNS"}}, {"type": "node", "id": 3520297628, "lat": 34.408022, "lon": 45.976236, "tags": {"alt_name": "Kuseh Ha;Kuseh;Kusheh", "alt_name:en": "Kuseh Ha;Kuseh;Kusheh", "is_in:country": "Iran", "is_in:state": "Kermanshah", "name": "\u06a9\u0648\u0633\u0647 \u0647\u0627", "name:en": "Kusehha", "place": "village", "source:name": "GNS"}}, {"type": "node", "id": 3520297630, "lat": 34.35031, "lon": 45.977492, "tags": {"alt_name": "Hajji Shahbaz Khan", "alt_name:en": "Hajji Shahbaz Khan", "is_in:country": "Iran", "is_in:state": "Kermanshah", "name": "\u0644\u0648\u0627\u0633\u0627\u0646\u06cc", "name:en": "Lavasani", "place": "village", "source:name": "GNS", "wikidata": "Q5860580", "wikipedia": "fa:\u0644\u0648\u0627\u0633\u0627\u0646\u06cc"}}, {"type": "node", "id": 3520297631, "lat": 34.423017, "lon": 45.949047, "tags": {"is_in:country": "Iran", "is_in:state": "Kermanshah", "name": "\u0645\u0647\u06a9\u06cc \u0627\u0645\u06cc\u0646", "name:en": "Mahaki Amin", "place": "village", "source:name": "GNS"}}, {"type": "node", "id": 3520297632, "lat": 34.416667, "lon": 45.95, "tags": {"alt_name": "Meramath;Mahki Mehrmat", "alt_name:en": "Meramath;Mahki Mehrmat", "is_in:country": "Iran", "is_in:state": "Kermanshah", "name": "\u0645\u0647\u06a9\u06cc \u0645\u0647\u0631\u0645\u0648\u062a \u0633\u06cc\u062f \u062e\u0644\u06cc\u0644", "place": "village", "source:name": "GNS"}}, {"type": "node", "id": 3520297633, "lat": 34.426248, "lon": 45.936247, "tags": {"alt_name": "Mahki Mehranat", "alt_name:en": "Mahki Mehranat", "is_in:country": "Iran", "is_in:state": "Kermanshah", "name": "\u0645\u0647\u06a9\u06cc \u0646\u0627\u0635\u0631", "name:en": "Mahaki Naser", "place": "village", "source:name": "GNS"}}, {"type": "node", "id": 3520297634, "lat": 34.4346185, "lon": 45.9287463, "tags": {"alt_name": "Pul Mahib;Pol Mahit;Mahaki Pul Mahi;Mahki Pol Mahi", "alt_name:en": "Pul Mahib;Pol Mahit;Mahaki Pul Mahi;Mahki Pol Mahi", "is_in:country": "Iran", "is_in:state": "Kermanshah", "name": "\u067e\u0644 \u0645\u0627\u0647\u06cc\u062a", "name:en": "Pol Mahiyat", "place": "village", "source:name": "GNS"}}, {"type": "node", "id": 3520297635, "lat": 34.499444, "lon": 45.963611, "tags": {"is_in:country": "Iran", "is_in:state": "Kermanshah", "name": "\u0645\u062d\u0627\u0644", "name:en": "Mahall", "place": "village", "source:name": "GNS"}}, {"type": "node", "id": 3520297642, "lat": 34.438193, "lon": 45.94675, "tags": {"alt_name": "Mian Kabud-e Qasem;Kuku;Kowkow", "alt_name:en": "Mian Kabud-e Qasem;Kuku;Kowkow", "is_in:country": "Iran", "is_in:state": "Kermanshah", "name": "\u0645\u06cc\u0627\u0646 \u06a9\u0628\u0648\u062f", "name:en": "Mian Kabud", "place": "village", "source:name": "GNS"}}, {"type": "node", "id": 3520297644, "lat": 34.4147055, "lon": 45.9637118, "tags": {"is_in:country": "Iran", "is_in:state": "Kermanshah", "name": "\u0645\u062d\u0645\u062f\u0639\u0644\u06cc \u0642\u0631\u06af\u0647", "name:en": "Mohammad `Ali Qoregah", "place": "village", "source:name": "GNS"}}, {"type": "node", "id": 3520297647, "lat": 34.3874011, "lon": 45.9103352, "tags": {"alt_name": "Mostafa;Tazehabad-e Ahmadi", "alt_name:en": "Mostafa;Tazehabad-e Ahmadi", "is_in:country": "Iran", "is_in:state": "Kermanshah", "name": "\u0645\u0635\u0637\u0641\u06cc \u0627\u062d\u0645\u062f\u06cc", "name:en": "Mostafa Ahmadi", "place": "hamlet", "population": "80", "source:name": "GNS", "wikidata": "Q5863476", "wikipedia": "fa:\u0645\u0635\u0637\u0641\u06cc\u200c\u0627\u062d\u0645\u062f\u06cc"}}, {"type": "node", "id": 3520297649, "lat": 34.4139599, "lon": 45.9662828, "tags": {"alt_name": "Paleh Bid;Pal-e Bid", "alt_name:en": "Paleh Bid;Pal-e Bid", "is_in:country": "Iran", "is_in:state": "Kermanshah", "name": "\u067e\u0644\u0628\u06cc\u062f", "name:en": "Palebid", "place": "village", "source:name": "GNS"}}, {"type": "node", "id": 3520297650, "lat": 34.4528452, "lon": 45.9381235, "tags": {"alt_name": "Darvand", "alt_name:en": "Darvand", "is_in:country": "Iran", "is_in:state": "Kermanshah", "name": "\u067e\u0646\u062c \u0633\u062a\u0648\u0646", "name:en": "Panj Sotun", "place": "village", "source:name": "GNS"}}, {"type": "node", "id": 3520297651, "lat": 34.4156, "lon": 46.0029, "tags": {"alt_name": "Pa-ye Taq;Pa yi Taq", "alt_name:en": "Pa-ye Taq;Pa yi Taq", "is_in:country": "Iran", "is_in:state": "Kermanshah", "name": "\u067e\u0627\u0637\u0627\u0642", "name:en": "Pataq", "place": "village", "source:name": "GNS"}}, {"type": "node", "id": 3520297652, "lat": 34.4979868, "lon": 45.9386492, "tags": {"is_in:country": "Iran", "is_in:state": "Kermanshah", "name": "\u067e\u06cc\u0631\u0627\u0646", "name:en": "Piran", "place": "village", "source:name": "GNS"}}, {"type": "node", "id": 3520297653, "lat": 34.379749, "lon": 45.955951, "tags": {"alt_name": "Qal`eh Gellineh;Qal`eh-ye Galineh", "alt_name:en": "Qal`eh Gellineh;Qal`eh-ye Galineh", "is_in:country": "Iran", "is_in:state": "Kermanshah", "name": "\u0642\u0644\u0639\u0647 \u06af\u0644\u06cc\u0646\u0647", "name:en": "Qal`eh Gelineh", "place": "village", "source:name": "GNS", "wikidata": "Q5863305", "wikipedia": "fa:\u0642\u0644\u0639\u0647\u200c\u06af\u0644\u06cc\u0646\u0647"}}, {"type": "node", "id": 3520297656, "lat": 34.371137, "lon": 45.92732, "tags": {"alt_name": "Qal`eh Sefid-e Pa'in", "alt_name:en": "Qal`eh Sefid-e Pa'in", "is_in:country": "Iran", "is_in:state": "Kermanshah", "name": "\u0642\u0644\u0639\u0647 \u0633\u0641\u06cc\u062f \u0633\u0641\u0644\u06cc", "name:en": "Qal`eh Sefid-e Sofla", "place": "village", "source:name": "GNS", "wikidata": "Q5864819", "wikipedia": "fa:\u0642\u0644\u0639\u0647\u200c\u0633\u0641\u06cc\u062f \u0633\u0641\u0644\u06cc (\u0633\u0631\u067e\u0644\u200c\u0630\u0647\u0627\u0628)"}}, {"type": "node", "id": 3520297657, "lat": 34.373842, "lon": 45.922587, "tags": {"alt_name": "Qal`eh Sefid-e Qasem;Qal`a Shahin;Qal`eh Sefid;Qal`eh Sefid-e Qasen;Qal`eh Shahin;Qal`eh-ye Safid", "alt_name:en": "Qal`eh Sefid-e Qasem;Qal`a Shahin;Qal`eh Sefid;Qal`eh Sefid-e Qasen;Qal`eh Shahin;Qal`eh-ye Safid", "is_in:country": "Iran", "is_in:state": "Kermanshah", "name": "\u0642\u0644\u0639\u0647 \u0633\u0641\u06cc\u062f \u0639\u0644\u06cc\u0627", "name:en": "Qal`eh Sefid-e `Olya", "place": "village", "population": "156", "source:name": "GNS", "wikidata": "Q6527619", "wikipedia": "fa:\u0642\u0644\u0639\u0647\u200c\u0633\u0641\u06cc\u062f \u0639\u0644\u06cc\u0627 (\u0633\u0631\u067e\u0644\u200c\u0630\u0647\u0627\u0628)"}}, {"type": "node", "id": 3520297658, "lat": 34.5259, "lon": 46.0423, "tags": {"is_in:country": "Iran", "is_in:state": "Kermanshah", "name": "\u0642\u0644\u0639\u0647 \u0628\u0647\u0627\u062f\u0631\u06cc", "name:en": "Qal`eh-ye Bahadori", "place": "village", "source:name": "GNS"}}, {"type": "node", "id": 3520297667, "lat": 34.521723, "lon": 45.952402, "tags": {"alt_name": "Qol Qoleh", "alt_name:en": "Qol Qoleh", "is_in:country": "Iran", "is_in:state": "Kermanshah", "name": "\u0642\u0644 \u0642\u0644\u0647 \u0631\u06cc\u062c\u0627\u0628", "name:en": "Qol Qoleh-ye Reyjab", "place": "village", "source:name": "GNS"}}, {"type": "node", "id": 3520297670, "lat": 34.4099, "lon": 46.0029, "tags": {"alt_name": "Qal`eh Rafi`", "alt_name:en": "Qal`eh Rafi`", "is_in:country": "Iran", "is_in:state": "Kermanshah", "name": "\u0631\u0641\u06cc\u0639", "name:en": "Rafi`", "place": "village", "source:name": "GNS"}}, {"type": "node", "id": 3520297671, "lat": 34.5914964, "lon": 45.9598351, "tags": {"is_in:country": "Iran", "is_in:state": "Kermanshah", "name": "\u0631\u0645\u06a9\u06cc \u0633\u0641\u0644\u0649", "name:en": "Ramaki-ye Sofla", "place": "village", "source:name": "GNS"}}, {"type": "node", "id": 3520297672, "lat": 34.5896166, "lon": 45.9563225, "tags": {"is_in:country": "Iran", "is_in:state": "Kermanshah", "name": "\u0631\u0645\u06a9\u06cc \u0639\u0644\u06cc\u0627", "name:en": "Ramaki-ye `Olya", "place": "village", "source:name": "GNS"}}, {"type": "node", "id": 3520297673, "lat": 34.469818, "lon": 45.988165, "tags": {"alt_name": "Shahrak-e Rijab", "alt_name:en": "Shahrak-e Rijab", "is_in:country": "Iran", "is_in:state": "Kermanshah", "name": "\u0634\u0647\u0631\u06a9 \u0631\u06cc\u062c\u0627\u0628", "name:en": "Rijab", "place": "village", "source:name": "GNS"}}, {"type": "node", "id": 3520297675, "lat": 34.4454211, "lon": 45.9148166, "tags": {"alt_name": "Ridhwan;Rizehvand;Rizvand-e Bala;Rizavand;Rizehvand-e Najaf;Rezawand", "alt_name:en": "Ridhwan;Rizehvand;Rizvand-e Bala;Rizavand;Rizehvand-e Najaf;Rezawand", "is_in:country": "Iran", "is_in:state": "Kermanshah", "name": "\u0631\u06cc\u0632\u0648\u0646\u062f \u0646\u062c\u0641", "name:en": "Rizvand-e Najaf", "place": "village", "source:name": "GNS"}}, {"type": "node", "id": 3520297676, "lat": 34.445963, "lon": 45.906227, "tags": {"alt_name": "Rizehvand-e `Ali Akbar;Rizvand-e Pa'in", "alt_name:en": "Rizehvand-e `Ali Akbar;Rizvand-e Pa'in", "is_in:country": "Iran", "is_in:state": "Kermanshah", "name": "\u0631\u06cc\u0632\u0648\u0646\u062f \u0639\u0644\u06cc \u0627\u06a9\u0628\u0631", "name:en": "Rizvand-e `Ali Akbar", "place": "village", "source:name": "GNS"}}, {"type": "node", "id": 3520297679, "lat": 34.502754, "lon": 45.912739, "tags": {"is_in:country": "Iran", "is_in:state": "Kermanshah", "name": "\u0633\u0644\u0645\u0627\u0646 \u062a\u067e\u0647", "name:en": "Salman Tappeh", "place": "village", "source:name": "GNS"}}, {"type": "node", "id": 3520297687, "lat": 34.470187, "lon": 45.980729, "tags": {"is_in:country": "Iran", "is_in:state": "Kermanshah", "name": "\u0634\u0647\u0631\u06a9 \u0628\u0627\u0646\u0645\u0632\u0627\u0631\u0627\u0646", "name:en": "Shahrak-e Banmazaran", "place": "village", "source:name": "GNS"}}, {"type": "node", "id": 3520297690, "lat": 34.479049, "lon": 45.999526, "tags": {"is_in:country": "Iran", "is_in:state": "Kermanshah", "name": "\u0634\u0627\u0644\u0627\u0646", "name:en": "Shalan", "place": "village", "source:name": "GNS"}}, {"type": "node", "id": 3520298795, "lat": 34.379956, "lon": 45.916115, "tags": {"alt_name": "Qal`eh Sefid-e Sheykh Hasan;Pa'in Qal`eh Sefid", "alt_name:en": "Qal`eh Sefid-e Sheykh Hasan;Pa'in Qal`eh Sefid", "alt_name:fa": "\u0642\u0644\u0639\u0647\u200c\u0633\u0641\u06cc\u062f \u0634\u06cc\u062e\u200c\u062d\u0633\u0646", "is_in:country": "Iran", "is_in:state": "Kermanshah", "name": "\u0634\u06cc\u062e \u062d\u0633\u0646", "name:en": "Sheykh Hasan", "place": "village", "population": "278", "source:name": "GNS", "wikidata": "Q5866335", "wikipedia": "fa:\u0642\u0644\u0639\u0647\u200c\u0633\u0641\u06cc\u062f \u0634\u06cc\u062e\u200c\u062d\u0633\u0646"}}, {"type": "node", "id": 3520298797, "lat": 34.3622, "lon": 46.1001, "tags": {"alt_name": "Shireh Cheqa", "alt_name:en": "Shireh Cheqa", "is_in:country": "Iran", "is_in:state": "Kermanshah", "name": "\u0634\u06cc\u0631\u0647 \u0686\u0642\u0627", "name:en": "Shireh Choqa", "place": "village", "source:name": "GNS"}}, {"type": "node", "id": 3520298800, "lat": 34.587222, "lon": 45.959722, "tags": {"alt_name": "Seyan", "alt_name:en": "Seyan", "is_in:country": "Iran", "is_in:state": "Kermanshah", "name": "\u0633\u06cc\u0627\u0646", "place": "village", "source:name": "GNS"}}, {"type": "node", "id": 3520298802, "lat": 34.398761, "lon": 46.049652, "tags": {"alt_name": "Surkhedizeh;Surkha Diz;Mian Tak;Sorkheh Diz;Sorkh Dizeh", "alt_name:en": "Surkhedizeh;Surkha Diz;Mian Tak;Sorkheh Diz;Sorkh Dizeh", "is_in:country": "Iran", "is_in:state": "Kermanshah", "name": "\u0633\u0631\u062e\u0647 \u062f\u06cc\u0632\u0647", "name:en": "Sorkheh Dizeh", "place": "village", "source:name": "GNS"}}, {"type": "node", "id": 3520298804, "lat": 34.3579929, "lon": 45.9772266, "tags": {"alt_name": "Esma`ilabad", "alt_name:en": "Esma`ilabad", "is_in:country": "Iran", "is_in:state": "Kermanshah", "name": "\u062a\u0646\u06af \u0627\u0633\u0645\u0627\u0639\u06cc\u0644", "name:en": "Tang-e Esma`il", "place": "village", "source:name": "GNS"}}, {"type": "node", "id": 3520298806, "lat": 34.389978, "lon": 45.9444025, "tags": {"alt_name": "Tarkeh Veys;Tark Veys;Tork Veys", "alt_name:en": "Tarkeh Veys;Tark Veys;Tork Veys", "is_in:country": "Iran", "is_in:state": "Kermanshah", "name": "\u062a\u0631\u06a9 \u0648\u06cc\u0633", "name:en": "Tark-e Veys", "place": "village", "source:name": "GNS"}}, {"type": "node", "id": 3520298811, "lat": 34.583333, "lon": 46.05, "tags": {"is_in:country": "Iran", "is_in:state": "Kermanshah", "name": "\u0648\u06cc\u0644\u0647", "name:en": "Veyleh", "place": "village", "source:name": "GNS"}}, {"type": "node", "id": 3520298813, "lat": 34.521861, "lon": 45.966865, "tags": {"is_in:country": "Iran", "is_in:state": "Kermanshah", "name": "\u06cc\u0627\u0631\u0627\u0646", "name:en": "Yaran", "place": "village", "source:name": "GNS"}}, {"type": "node", "id": 3520298815, "lat": 34.548756, "lon": 45.952713, "tags": {"alt_name": "Zarde;Razdeh", "alt_name:en": "Zarde;Razdeh", "is_in:country": "Iran", "is_in:state": "Kermanshah", "name": "\u0632\u0631\u062f\u0647", "name:en": "Zardeh", "place": "village", "source:name": "GNS"}}, {"type": "node", "id": 3520298816, "lat": 34.559658, "lon": 45.931528, "tags": {"alt_name": "Seyyed Mohammad-e Zardeh", "alt_name:en": "Seyyed Mohammad-e Zardeh", "is_in:country": "Iran", "is_in:state": "Kermanshah", "name": "\u0632\u0631\u062f\u0647 \u0633\u06cc\u062f \u0645\u062d\u0645\u062f", "name:en": "Zardeh-ye Seyyed Mohammad", "place": "village", "source:name": "GNS"}}, {"type": "node", "id": 3520298821, "lat": 34.4905784, "lon": 45.9590452, "tags": {"alt_name": "Zhalekeh-ye Hoseyn", "alt_name:en": "Zhalekeh-ye Hoseyn", "is_in:country": "Iran", "is_in:state": "Kermanshah", "name": "\u0698\u0627\u0644\u06af\u0647", "name:en": "Zhalegeh", "place": "village", "source:name": "GNS"}}, {"type": "node", "id": 3520298826, "lat": 34.365117, "lon": 45.939989, "tags": {"alt_name": "Iman `Osman", "alt_name:en": "Iman `Osman", "is_in:country": "Iran", "is_in:state": "Kermanshah", "name": "\u0639\u062b\u0645\u0627\u0646", "name:en": "`Osman", "place": "village", "source:name": "GNS"}}, {"type": "node", "id": 3522340588, "lat": 34.333814, "lon": 45.899087, "tags": {"alt_name": "Galuzya;Derakhshandeh Galuzi;Galuzi Pasha;Galuzeya;Goluzia", "alt_name:en": "Galuzya;Derakhshandeh Galuzi;Galuzi Pasha;Galuzeya;Goluzia", "is_in:country": "Iran", "is_in:state": "Kermanshah", "name": "\u062f\u0631\u062e\u0634\u0646\u062f\u0647", "name:en": "Darakhshandeh", "place": "village", "source:name": "GNS"}}, {"type": "node", "id": 3522343198, "lat": 34.355697, "lon": 45.857274, "tags": {"is_in:country": "Iran", "is_in:state": "Kermanshah", "name": "\u062f\u0627\u0631\u0648\u0646\u062f \u062f\u0648", "name:en": "Darvand-e Do", "place": "village", "source:name": "GNS"}}, {"type": "node", "id": 3522343199, "lat": 34.36412, "lon": 45.850083, "tags": {"is_in:country": "Iran", "is_in:state": "Kermanshah", "name": "\u062f\u0627\u0631\u0648\u0646\u062f \u0633\u0647", "name:en": "Darvand-e Seh", "place": "village", "source:name": "GNS"}}, {"type": "node", "id": 3522343200, "lat": 34.350203, "lon": 45.859208, "tags": {"is_in:country": "Iran", "is_in:state": "Kermanshah", "name": "\u062f\u0627\u0631\u0648\u0646\u062f \u06cc\u06a9", "name:en": "Darvand-e Yek", "place": "village", "source:name": "GNS"}}, {"type": "node", "id": 3522343205, "lat": 34.364856, "lon": 45.728855, "tags": {"alt_name": "Emam Hassan-e Bala;Imam Hasan;Iman Hassan;Emam Hasan-e `Olya;Emam Hasan", "alt_name:en": "Emam Hassan-e Bala;Imam Hasan;Iman Hassan;Emam Hasan-e `Olya;Emam Hasan", "name": "\u0627\u0645\u0627\u0645 \u062d\u0633\u0646 \u0628\u0627\u0644\u0627", "name:en": "Emam Hasan-e Bala", "place": "hamlet", "population": "80", "ref:sci": "053474", "source:name": "GNS", "wikidata": "Q5858663", "wikipedia": "fa:\u0627\u0645\u0627\u0645\u200c\u062d\u0633\u0646 \u0639\u0644\u06cc\u0627"}}, {"type": "node", "id": 3522343206, "lat": 34.364997, "lon": 45.722572, "tags": {"alt_name": "Emam Hasan-e Vasati;Emam Hasan;Emam Hasan-e Sofla;Imam Hassan;Imam Hasan", "alt_name:en": "Emam Hasan-e Vasati;Emam Hasan;Emam Hasan-e Sofla;Imam Hassan;Imam Hasan", "name": "\u0627\u0645\u0627\u0645 \u062d\u0633\u0646 \u067e\u0627\u0626\u06cc\u0646", "name:en": "Emam Hassan-e Pa'in", "place": "village", "population": "137", "ref:sci": "053473", "source:name": "GNS", "wikidata": "Q5859420", "wikipedia": "fa:\u0627\u0645\u0627\u0645\u200c\u062d\u0633\u0646 \u0633\u0641\u0644\u06cc"}}, {"type": "node", "id": 3522343209, "lat": 34.333517, "lon": 45.9000415, "tags": {"alt_name": "Darabi;Darrabi", "alt_name:en": "Darabi;Darrabi", "is_in:country": "Iran", "is_in:state": "Kermanshah", "name": "\u06af\u0644\u0648\u0632\u06cc \u062f\u0627\u0648\u062f", "name:en": "Galuzi-ye Davud;Koleh Hayat", "place": "village", "source:name": "GNS", "wikidata": "Q5852765", "wikipedia": "en:Galuzi-ye Davud"}}, {"type": "node", "id": 3522343240, "lat": 34.331302, "lon": 45.9007496, "tags": {"is_in:country": "Iran", "is_in:state": "Kermanshah", "name": "\u0646\u0627\u0645\u062f\u0627\u0631", "name:en": "Namdar", "place": "village", "source:name": "GNS"}}, {"type": "node", "id": 3522343248, "lat": 34.3465823, "lon": 45.7447363, "tags": {"alt_name": "Ru'iban-e Bozorg;Heydariyeh Bozorg;Cham-e Emam Hasan", "alt_name:en": "Ru'iban-e Bozorg;Heydariyeh Bozorg;Cham-e Emam Hasan", "is_in:country": "Iran", "is_in:state": "Kermanshah", "name": "\u0631\u0648\u0628\u06cc\u0627\u0646 \u0628\u0632\u0631\u06af", "name:en": "Rubian-e Bozorg", "place": "village", "source:name": "GNS"}}, {"type": "node", "id": 3522343249, "lat": 34.331918, "lon": 45.749002, "tags": {"alt_name": "Heydariyeh Kuchak;Ru'iban-e Kuchak", "alt_name:en": "Heydariyeh Kuchak;Ru'iban-e Kuchak", "is_in:country": "Iran", "is_in:state": "Kermanshah", "name": "\u0631\u0648\u0628\u06cc\u0627\u0646 \u06a9\u0648\u0686\u06a9", "name:en": "Rubian-e Kuchak", "place": "village", "source:name": "GNS"}}, {"type": "node", "id": 3522343250, "lat": 34.365317, "lon": 45.855087, "tags": {"is_in:country": "Iran", "is_in:state": "Kermanshah", "name": "\u0633\u0646\u06af \u062f\u0631 \u0645\u06cc\u062f\u0627\u0646 \u0633\u0641\u0644\u06cc", "name:en": "Sang Dar Meydan-e Sofla", "place": "village", "source:name": "GNS"}}, {"type": "node", "id": 3522343251, "lat": 34.3476927, "lon": 45.8698928, "tags": {"is_in:country": "Iran", "is_in:state": "Kermanshah", "name": "\u0633\u0646\u06af \u062f\u0631\u0645\u06cc\u062f\u0627\u0646 \u0639\u0644\u06cc\u0627", "name:en": "Sang Dar Meydan-e `Olya", "name:fa": "\u0633\u0646\u06af \u062f\u0631 \u0645\u06cc\u062f\u0627\u0646 \u0639\u0644\u06cc\u0627", "place": "village", "source:name": "GNS"}}, {"type": "node", "id": 3522343270, "lat": 34.37547, "lon": 45.843612, "tags": {"alt_name": "Shesh Rah", "alt_name:en": "Shesh Rah", "is_in:country": "Iran", "is_in:state": "Kermanshah", "name": "\u0634\u06cc\u0634\u0647 \u0631\u0627\u0647", "name:en": "Shisheh Rah", "place": "village", "source:name": "GNS"}}, {"type": "node", "id": 3522399770, "lat": 34.3352164, "lon": 46.137622, "tags": {"alt_name": "Shirinabad;Sar-i-Mil;Sar-e Mil-e Sofla;Sar-e Mil", "alt_name:en": "Shirinabad;Sar-i-Mil;Sar-e Mil-e Sofla;Sar-e Mil", "is_in:country": "Iran", "is_in:state": "Kermanshah", "name": "\u0633\u0631\u0645\u06cc\u0644", "name:en": "Sarmil", "place": "village", "source:name": "GNS"}}, {"type": "node", "id": 3523333633, "lat": 34.3353716, "lon": 45.9696834, "tags": {"alt_name": "Sarab-e Qal`eh-ye Shahin;Sarab-e Abuzar", "alt_name:en": "Sarab-e Qal`eh-ye Shahin;Sarab-e Abuzar", "is_in:country": "Iran", "is_in:state": "Kermanshah", "name": "\u0633\u0631\u0627\u0628 \u0642\u0644\u0639\u0647 \u0634\u0627\u0647\u06cc\u0646", "name:en": "Sarab-e Qal`eh Shahin", "place": "village", "population": "635", "source:name": "GNS", "wikidata": "Q5865374", "wikipedia": "fa:\u0633\u0631\u0622\u0628 \u0642\u0644\u0639\u0647\u200c\u0634\u0627\u0647\u06cc\u0646"}}, {"type": "node", "id": 3572330181, "lat": 34.4958761, "lon": 45.9377272}, {"type": "node", "id": 3639833984, "lat": 34.3414714, "lon": 45.9828635, "tags": {"is_in:country": "Iran", "is_in:state": "Kermanshah", "name": "\u06a9\u0644\u0627\u0648\u0647", "name:en": "Kalaveh", "place": "village", "wikidata": "Q6526245", "wikipedia": "fa:\u06a9\u0644\u0627\u0648\u0647 (\u0633\u0631\u067e\u0644\u200c\u0630\u0647\u0627\u0628)"}}, {"type": "node", "id": 3643113075, "lat": 34.5028833, "lon": 45.8995137, "tags": {"is_in:country": "Iran", "is_in:state": "Kermanshah", "name": "\u0646\u0627\u0648\u0647 \u0641\u0631\u0647", "place": "village"}}, {"type": "node", "id": 3643113076, "lat": 34.5139523, "lon": 45.9047494, "tags": {"is_in:country": "Iran", "is_in:state": "Kermanshah", "name": "\u06a9\u0627\u0646\u06cc \u0639\u0632\u06cc\u0632", "place": "village"}}, {"type": "node", "id": 3643113077, "lat": 34.5308888, "lon": 45.8939132, "tags": {"is_in:country": "Iran", "is_in:state": "Kermanshah", "name": "\u0645\u0644\u0647 \u06a9\u0628\u0648\u062f", "place": "village"}}, {"type": "node", "id": 3652811002, "lat": 34.4109967, "lon": 46.0029154}, {"type": "node", "id": 3656307711, "lat": 34.5393079, "lon": 45.7965398, "tags": {"is_in:country": "Iran", "is_in:state": "Kermanshah", "name": "\u06af\u0644\u0645 \u06a9\u0628\u0648\u062f \u0639\u0644\u06cc\u0627", "place": "village"}}, {"type": "node", "id": 3656361532, "lat": 34.5949361, "lon": 45.7659519, "tags": {"is_in:country": "Iran", "is_in:state": "Kermanshah", "name": "\u0628\u0631\u0642 \u0628\u0627\u0631\u0627\u0646\u06cc \u0639\u0644\u06cc\u0627", "place": "village"}}, {"type": "node", "id": 3656361533, "lat": 34.604235, "lon": 45.7754178, "tags": {"is_in:country": "Iran", "is_in:state": "Kermanshah", "name": "\u0635\u0627\u0644\u062d \u06a9\u0648\u0686\u0631\u06cc", "place": "village"}}, {"type": "node", "id": 3656361534, "lat": 34.6043613, "lon": 45.7659197, "tags": {"is_in:country": "Iran", "is_in:state": "Kermanshah", "name": "\u0628\u06cc\u0634\u06af\u0627\u0646", "place": "village"}}, {"type": "node", "id": 3656361566, "lat": 34.5696067, "lon": 45.7623398, "tags": {"description": "The old village is drowned by the lake", "is_in:country": "Iran", "is_in:state": "Kermanshah", "name": "\u0645\u062c\u0631\u06cc \u0644\u0627\u0646", "place": "hamlet"}}, {"type": "node", "id": 3661752088, "lat": 34.6233975, "lon": 45.9184731, "tags": {"is_in:country": "Iran", "is_in:state": "Kermanshah", "name": "\u0628\u0627\u0646\u06cc \u0647\u0648\u0627\u0646", "place": "village"}}, {"type": "node", "id": 3661904246, "lat": 34.6360066, "lon": 45.9652899, "tags": {"is_in:country": "Iran", "is_in:state": "Kermanshah", "name": "\u0633\u0631\u0632\u0644 \u0648\u0627\u0644\u06cc \u0646\u0638\u0631\u06cc", "place": "village"}}, {"type": "node", "id": 3661904461, "lat": 34.6492178, "lon": 45.9752714, "tags": {"is_in:country": "Iran", "is_in:state": "Kermanshah", "name": "\u062f\u0646\u06af\u06cc \u06a9\u0627\u06a9\u0627 \u0639\u0628\u062f\u0627\u0644\u0644\u0647", "name:ckb": "\u062f\u0646\u06af\u06cc \u06a9\u0627\u06a9\u0627\u0639\u0628\u062f\u0627\u0644\u0644\u0647", "place": "village"}}, {"type": "node", "id": 3665576555, "lat": 34.4607687, "lon": 45.863763, "tags": {"is_in": "Iran, Kermanshah province", "is_in:country": "Iran", "is_in:state": "Kermanshah", "name": "\u0633\u0631\u067e\u0644 \u0630\u0647\u0627\u0628", "name:ckb": "\u0633\u06d5\u0631\u067e\u06ce\u06b5\u06cc \u0632\u06d5\u06be\u0627\u0648", "name:en": "Sarpol-e Zahab", "name:fa": "\u0633\u0631\u067e\u0644 \u0630\u0647\u0627\u0628", "name:fr": "Sarpol-e Zahab", "name:ml": "\u0d38\u0d7c\u0d2a\u0d4a\u0d7d-\u0d07-\u0d38\u0d39\u0d3e\u0d2c\u0d4d", "name:ru": "\u0421\u0435\u0440\u0435-\u041f\u043e\u043b\u0435-\u0417\u043e\u0445\u0430\u0431", "place": "town", "population": "36000", "wikidata": "Q765582", "wikipedia": "en:Sarpol-e Zahab"}}, {"type": "node", "id": 3688112636, "lat": 34.5888022, "lon": 45.9576}, {"type": "node", "id": 3688112639, "lat": 34.5877644, "lon": 45.9568115}, {"type": "node", "id": 3722335234, "lat": 34.4938769, "lon": 45.7537354, "tags": {"is_in:country": "Iran", "is_in:state": "Kermanshah", "name": "\u0637\u0647\u0645\u0627\u0635\u0628", "place": "village"}}, {"type": "node", "id": 3725561024, "lat": 34.6218776, "lon": 45.9169618, "tags": {"is_in:country": "Iran", "is_in:state": "Kermanshah", "name": "\u0628\u0627\u0646\u06cc \u0647\u0648\u0627\u0646", "name:en": "BNI HAVAN", "place": "village"}}, {"type": "node", "id": 3726382849, "lat": 34.6229439, "lon": 45.9185133}, {"type": "node", "id": 3726382859, "lat": 34.6208939, "lon": 45.9169878}, {"type": "node", "id": 3799576457, "lat": 34.4643771, "lon": 45.8689641, "tags": {"is_in:country": "Iran", "is_in:state": "Kermanshah", "name": "\u0645\u062d\u0644\u0647 \u0645\u06cc\u0627\u0646\u06a9\u0644", "place": "village"}}, {"type": "node", "id": 3819559222, "lat": 34.4038903, "lon": 45.9881807, "tags": {"is_in:country": "Iran", "is_in:state": "Kermanshah", "name": "\u06af\u0627\u0648 \u0686\u0627\u0644\u06cc", "name:en": "\u06af\u0627\u0648 \u0686\u0627\u0644\u06cc", "place": "village"}}, {"type": "node", "id": 3885510509, "lat": 34.5746769, "lon": 45.6296984}, {"type": "node", "id": 3885510510, "lat": 34.5751201, "lon": 45.6293755}, {"type": "node", "id": 3885510513, "lat": 34.5767781, "lon": 45.6272759}, {"type": "node", "id": 3885510514, "lat": 34.5766785, "lon": 45.6265623}, {"type": "node", "id": 3885510515, "lat": 34.5755711, "lon": 45.625552}, {"type": "node", "id": 3885510517, "lat": 34.5750656, "lon": 45.625386}, {"type": "node", "id": 3885510518, "lat": 34.574304, "lon": 45.6258407}, {"type": "node", "id": 3885510520, "lat": 34.5745752, "lon": 45.6270677}, {"type": "node", "id": 3885510521, "lat": 34.5743283, "lon": 45.6277436}, {"type": "node", "id": 3885510524, "lat": 34.5742887, "lon": 45.6287647}, {"type": "node", "id": 3921148887, "lat": 34.6641723, "lon": 45.8837354, "tags": {"is_in:country": "Iran", "is_in:state": "Kermanshah", "name": "\u0686\u0646\u0627\u0631\u0647 \u0644\u0637\u06cc\u0641", "place": "village"}}, {"type": "node", "id": 3963405670, "lat": 34.5449102, "lon": 45.9703488, "tags": {"is_in:country": "Iran", "is_in:state": "Kermanshah", "name": "\u0628\u0627\u0628\u0627 \u06cc\u0627\u062f\u06af\u0627\u0631", "name:ckb": "\u0628\u0627\u0648\u06d5 \u06cc\u0627\u062f\u06af\u0627\u0631", "name:en": "Baba Yadegar", "place": "village"}}, {"type": "node", "id": 5226670201, "lat": 34.4289436, "lon": 45.8452068}, {"type": "node", "id": 5226670202, "lat": 34.4289935, "lon": 45.8451737}, {"type": "node", "id": 5226670203, "lat": 34.429334, "lon": 45.8451428}, {"type": "node", "id": 5226670204, "lat": 34.4297112, "lon": 45.8452068}, {"type": "node", "id": 5226670205, "lat": 34.4301229, "lon": 45.845293}, {"type": "node", "id": 5226670206, "lat": 34.4297494, "lon": 45.8461678}, {"type": "node", "id": 5226670207, "lat": 34.4294379, "lon": 45.846762}, {"type": "node", "id": 5226670208, "lat": 34.4292484, "lon": 45.8471353}, {"type": "node", "id": 5226670209, "lat": 34.4289222, "lon": 45.8475484}, {"type": "node", "id": 5226670210, "lat": 34.4285766, "lon": 45.8473574}, {"type": "node", "id": 5226670211, "lat": 34.4281979, "lon": 45.8472681}, {"type": "node", "id": 5226670212, "lat": 34.4280475, "lon": 45.8469484}, {"type": "node", "id": 5226670213, "lat": 34.4280377, "lon": 45.8468404}, {"type": "node", "id": 5226670214, "lat": 34.4282668, "lon": 45.8463662}, {"type": "node", "id": 5226670215, "lat": 34.4286838, "lon": 45.8455168}, {"type": "node", "id": 5226670216, "lat": 34.4280909, "lon": 45.8470854}, {"type": "node", "id": 5226833300, "lat": 34.4120685, "lon": 45.909192}, {"type": "node", "id": 5226833301, "lat": 34.4122437, "lon": 45.9086031},