{"version": 0.6, "generator": "Overpass API 0.7.61.5 4133829e", "osm3s": {"timestamp_osm_base": "2024-03-06T11:08:30Z", "copyright": "The data included in this document is from www.openstreetmap.org. The data is made available under ODbL."}, "elements": [{"type": "node", "id": 4240802325, "lat": 35.1950425, "lon": 45.9795464}, {"type": "node", "id": 4240802326, "lat": 35.1947319, "lon": 45.9785513}, {"type": "node", "id": 4240802327, "lat": 35.1938864, "lon": 45.978959}, {"type": "node", "id": 4240802328, "lat": 35.1942055, "lon": 45.9799713}, {"type": "node", "id": 4240816386, "lat": 35.1953322, "lon": 45.982579}, {"type": "node", "id": 4240816387, "lat": 35.1948311, "lon": 45.9810106}, {"type": "node", "id": 4240816388, "lat": 35.1940594, "lon": 45.981384}, {"type": "node", "id": 4240816389, "lat": 35.1941249, "lon": 45.981695}, {"type": "node", "id": 4240816390, "lat": 35.1940244, "lon": 45.9817455}, {"type": "node", "id": 4240816391, "lat": 35.1944162, "lon": 45.9829929}, {"type": "node", "id": 4240816690, "lat": 35.1950133, "lon": 45.9809237}, {"type": "node", "id": 4240816691, "lat": 35.1947141, "lon": 45.9798943}, {"type": "node", "id": 4240816692, "lat": 35.1939754, "lon": 45.9802362}, {"type": "node", "id": 4335106491, "lat": 35.110976, "lon": 45.6872587, "tags": {"amenity": "pharmacy"}}, {"type": "node", "id": 4336712890, "lat": 35.1156275, "lon": 45.6770439, "tags": {"amenity": "hospital"}}, {"type": "node", "id": 4336712891, "lat": 35.1067233, "lon": 45.6874407, "tags": {"amenity": "hospital"}}, {"type": "node", "id": 4337481798, "lat": 35.1218924, "lon": 45.6811555, "tags": {"amenity": "hospital", "name": "Darbandikhan Hospital", "name:en": "Darbandikhan Hospital", "name:ku": "\u0646\u06d5\u062e\u06c6\u0634\u062e\u0627\u0646\u06d5\u06cc \u06af\u0634\u062a\u06cc \u062f\u06d5\u0631\u0628\u06d5\u0646\u062f\u06cc\u062e\u0627\u0646"}}, {"type": "node", "id": 4338615894, "lat": 35.1127611, "lon": 45.6869069, "tags": {"amenity": "hospital", "internet_access": "wlan", "name": "\u0646\u06d5\u062e\u06c6\u0634\u062e\u0627\u0646\u06d5\u06cc \u06af\u0634\u062a\u06cc \u0634\u06d5\u0647\u06cc\u062f \u062a\u06c6\u0641\u06cc\u0642", "name:en": "Shahid Tofiq General Hospital", "opening_hours": "24/7"}}, {"type": "node", "id": 4339034691, "lat": 35.1109521, "lon": 45.6853898, "tags": {"amenity": "clinic"}}, {"type": "node", "id": 4387670298, "lat": 35.1114597, "lon": 45.6785519, "tags": {"amenity": "hospital"}}, {"type": "node", "id": 4449406699, "lat": 35.1756533, "lon": 46.0154924, "tags": {"addr:housenumber": "2B-14", "addr:postcode": "46018", "addr:street": "Halabja-Zanko str.", "amenity": "doctors", "email": "drgoran_vet@yahoo.com", "internet_access": "wlan", "name": "\u06af\u06c6\u0631\u0627\u0646 \u0633\u062a\u06cc", "name:ar": "\u06af\u06c6\u0631\u0627\u0646 \u0633\u062a\u06cc", "name:en": "GORAN CITY", "name:ku": "\u06af\u06c6\u0631\u0627\u0646 \u0633\u062a\u06cc", "phone": "+9647507342914"}}, {"type": "node", "id": 4458716990, "lat": 35.1781165, "lon": 45.9829911, "tags": {"amenity": "hospital", "name": "\u0628\u0646\u06a9\u06d5\u06cc \u062a\u06d5\u0646\u062f\u0631\u0648\u0633\u062a\u06cc \u067e\u06cc\u0631 \u0645\u062d\u0645\u062f", "name:ku": "\u0628\u0646\u06a9\u06d5\u06cc \u062a\u06d5\u0646\u062f\u0631\u0648\u0633\u062a\u06cc \u067e\u06cc\u0631 \u0645\u062d\u0645\u062f"}}, {"type": "node", "id": 4806254922, "lat": 35.1806069, "lon": 45.9893184, "tags": {"addr:housenumber": "35", "addr:postcode": "00964", "addr:street": "kani qulga", "amenity": "pharmacy", "name": "\u062f\u06d5\u0631\u0645\u0627\u0646\u062e\u0627\u0646\u06d5\u06cc \u0648\u0646\u0627\u0631\u06d5", "name:ku": "\u062f\u06d5\u0631\u0645\u0627\u0646\u062e\u0627\u0646\u06d5\u06cc \u0648\u0646\u0627\u0631\u06d5", "opening_hours": "24/7", "operator": "fairuz", "phone": "07501122321", "website": "http://www.facebook.com/fairoz tofiq"}}, {"type": "node", "id": 5066631523, "lat": 35.1794688, "lon": 45.989152, "tags": {"amenity": "clinic", "name": "\u062a\u0627\u0642\u06cc\u06af\u06d5\u06cc \u06a9\u0648\u0631\u062f\u0633\u062a\u0627\u0646", "name:ar": "\u0645\u062e\u062a\u0628\u0631 \u06a9\u0648\u0631\u062f\u0633\u062a\u0627\u0646", "name:ckb": "\u062a\u0627\u0642\u06cc\u06af\u06d5\u06cc \u06a9\u0648\u0631\u062f\u0633\u062a\u0627\u0646", "name:en": "kurdstan lab", "phone": "07502388575"}}, {"type": "node", "id": 5081954822, "lat": 35.1802323, "lon": 45.989692, "tags": {"addr:street": "\u0645\u0627\u0645\u06c6\u0633\u062a\u0627\u06cc \u0646\u06d5\u0646\u0627\u0633\u0631\u0627\u0648mamostai nanasraw", "amenity": "clinic", "email": "tanin.osman@gmail.com", "name": "\u062a\u0627\u0642\u06cc\u06af\u06d5\u06cc \u0628\u0627\u06cc\u06c6", "name:en": "BIO LAB", "name:ku": "\u062a\u0627\u0642\u06cc\u06af\u06d5\u06cc \u0628\u0627\u06cc\u06c6", "opening_hours": "24/7", "phone": "+9647501825927", "website": "http://www.facebook.com/biolab biolab"}}, {"type": "node", "id": 5225259323, "lat": 34.828139, "lon": 45.8415575}, {"type": "node", "id": 5225259359, "lat": 34.8278116, "lon": 45.8420403}, {"type": "node", "id": 5225259370, "lat": 34.827323, "lon": 45.8416868}, {"type": "node", "id": 5225259374, "lat": 34.8275276, "lon": 45.841243}, {"type": "node", "id": 5229628760, "lat": 35.1878305, "lon": 45.982318}, {"type": "node", "id": 5229628761, "lat": 35.1875973, "lon": 45.9816732}, {"type": "node", "id": 5229628762, "lat": 35.186631, "lon": 45.9821963}, {"type": "node", "id": 5229628763, "lat": 35.1867789, "lon": 45.982439}, {"type": "node", "id": 5229628764, "lat": 35.1868574, "lon": 45.9823963}, {"type": "node", "id": 5229628765, "lat": 35.1869938, "lon": 45.9827713}, {"type": "node", "id": 5229628767, "lat": 35.1868908, "lon": 45.982488, "tags": {"entrance": "yes"}}, {"type": "node", "id": 5230641437, "lat": 35.1867456, "lon": 45.9821434}, {"type": "node", "id": 5230641439, "lat": 35.186693, "lon": 45.9823156}, {"type": "node", "id": 5230641440, "lat": 35.1866449, "lon": 45.9822166}, {"type": "node", "id": 5230641443, "lat": 35.1867629, "lon": 45.9824309}, {"type": "node", "id": 5230641444, "lat": 35.186715, "lon": 45.9823374}, {"type": "node", "id": 5312648821, "lat": 35.1110879, "lon": 45.6870717, "tags": {"amenity": "doctors", "name": "\u0634\u06d5\u0642\u0627\u0645\u06cc \u0633\u06d5\u06cc\u062f\u06d5\u0644\u06ce\u06a9\u0627\u0646"}}, {"type": "node", "id": 5569038933, "lat": 35.1703185, "lon": 46.0021359, "tags": {"amenity": "clinic", "healthcare": "clinic", "name": "\u062f.\u0633\u0639\u062f\u064a \u062e\u0644\u064a\u0644", "name:en": "Dr.saedy khaleel"}}, {"type": "node", "id": 5569769623, "lat": 34.9822274, "lon": 45.848822, "tags": {"amenity": "hospital", "name": "\u0645\u0631\u06a9\u0632 \u0635\u062d\u06cc", "name:ar": "\u0645\u0631\u06a9\u0632 \u0635\u062d\u06cc \u067e\u0634\u062a\u06d5", "name:en": "medical center pshta", "name:ku": "\u0628\u0646\u06a9\u06d5\u06cc \u062a\u06d5\u0646\u062f\u0631\u0648\u0633\u062a\u06cc \u067e\u0634\u062a\u06d5"}}, {"type": "node", "id": 5569769624, "lat": 34.9791491, "lon": 45.7983722, "tags": {"amenity": "doctors", "name": "\u0645\u0627\u06a9\u0648\u0627\u0646", "name:en": "makwan"}}, {"type": "node", "id": 5609582221, "lat": 35.1808949, "lon": 45.9897256, "tags": {"amenity": "clinic", "name": "\u0645\u062e\u062a\u0628\u0631 \u0646\u0627\u062c\u064a"}}, {"type": "node", "id": 5627122022, "lat": 35.1108365, "lon": 45.6868589, "tags": {"amenity": "clinic", "name": "\u0643\u06c6\u0645\u06d5\u06b5\u06af\u06d5\u06cc \u067e\u0632\u06cc\u0634\u0643\u06cc \u0643\u0648\u0631\u062f\u0633\u062a\u0627\u0646", "name:ar": "\u0627\u0644\u0645\u062c\u0645\u0639 \u0627\u0644\u0637\u0628\u064a \u0643\u0631\u062f\u0633\u062a\u0627\u0646", "name:en": "komalgay pzishki Kurdistan"}}, {"type": "node", "id": 5795954155, "lat": 34.9797061, "lon": 45.7984255, "tags": {"amenity": "hospital", "name": "naxoshxanay gllejall"}}, {"type": "node", "id": 5814939953, "lat": 35.1798641, "lon": 45.9885428, "tags": {"amenity": "clinic", "name": "\u0635\u06d5\u06cc\u062f\u06d5\u0644\u06cc\u06d5 \u0634\u06cc\u0641\u0627", "name:en": "shifa farmacy", "name:ku": "\u062f\u06d5\u0631\u0645\u0627\u0646\u062e\u0627\u0646\u06d5\u06cc \u0634\u06cc\u0641\u0627"}}, {"type": "node", "id": 5964768494, "lat": 35.1885901, "lon": 45.9968715, "tags": {"amenity": "clinic", "name:en": "Varo"}}, {"type": "node", "id": 6391999786, "lat": 34.8044152, "lon": 45.6475896, "tags": {"amenity": "hospital", "email": "osmanasa92@yahoo.com", "name": "\u0628\u0646\u06a9\u06d5\u06cc \u062a\u06d5\u0646\u062f\u0631\u0648\u0633\u062a\u06cc \u062d\u0627\u062c\u06cc\u0644\u06d5\u0631", "name:en": "health dispensary of hajilar", "opening_hours": "Su-Th 09:00-12:00"}}, {"type": "node", "id": 6788883985, "lat": 35.1747422, "lon": 45.9918421, "tags": {"addr:street": "\u06af\u06d5\u0695\u06d5\u06a9\u06cc \u0633\u06d5\u0631\u0627", "amenity": "hospital", "name": "\u0645\u06cc\u062a\u0634\u0641\u06cc \u0628\u06d5\u062e\u0634\u06cc\u0646", "name:ar": "\u0645\u0633\u062a\u0634\u0641\u06cc \u0628\u06d5\u062e\u0634\u06cc\u0646", "name:en": "HALABJAH HOSPITAL CIVILIAN", "name:ku": "\u0646\u06d5\u062e\u06c6\u0634\u062e\u0627\u0646\u06d5\u06cc \u0628\u06d5\u062e\u0634\u06cc\u0646", "opening_hours": "Sa-Th 14:00-00:00", "phone": "07511817571"}}, {"type": "node", "id": 6788927486, "lat": 35.1793425, "lon": 45.9881454, "tags": {"addr:street": "Kani Qwlka", "amenity": "pharmacy", "name": "\u062f\u06d5\u0631\u0645\u0627\u0646\u062e\u0627\u0646\u06d5\u06cc \u0626\u0627\u0648\u0627\u0632", "name:en": "awaz pharmacy", "opening_hours": "Mo-Su 13:00-00:00", "operator": "baxtawar"}}, {"type": "node", "id": 6788946285, "lat": 35.1791924, "lon": 45.9895599, "tags": {"addr:street": "Kani Qwlka", "amenity": "pharmacy", "name": "\u0645\u0630\u062e\u0631 \u0634\u0646\u0631\u0648\u06cc", "name:en": "shnrwe drug store", "name:ku": "\u06a9\u06c6\u06af\u0627\u06cc \u0634\u0646\u0631\u0648\u06ce", "opening_hours": "Sa-Th 13:00-18:00", "operator": "mustafa", "phone": "07501312075"}}, {"type": "node", "id": 7172639192, "lat": 35.178489, "lon": 45.9837748, "tags": {"amenity": "hospital", "healthcare": "hospital", "name": "Naxosxanay chawaka"}}, {"type": "node", "id": 7172639287, "lat": 35.1773196, "lon": 45.9920758, "tags": {"amenity": "clinic", "name": "\u062c\u0631\u0627\u062d \u0645.\u062c\u0645\u0627\u0644"}}, {"type": "node", "id": 7272921885, "lat": 35.1138211, "lon": 45.6876564, "tags": {"addr:street": "Shameran St", "amenity": "clinic", "name": "\u062a\u0627\u0642\u06cc\u06af\u06d5\u06cc \u0647\u0627\u0648\u06a9\u0627\u0631\u06cc", "opening_hours": "Sa-Th 01:00-23:00", "operator": "\u062c\u06d5\u0644\u06cc\u0644", "phone": "07740911030"}}, {"type": "node", "id": 7416257085, "lat": 35.1921175, "lon": 45.9700403, "tags": {"addr:street": "\u062f\u06d5\u0631\u0648\u0627\u0632\u06d5\u06cc \u0634\u0627\u0631", "amenity": "doctors", "email": "miladhawrami1999@gmail.com", "name": "\u0645\u06cc\u0644\u0627\u062f", "name:en": "milad", "phone": "07731587709"}}, {"type": "node", "id": 7925388785, "lat": 35.1812939, "lon": 45.9902194, "tags": {"amenity": "clinic", "name": "\u062f\u06d5\u0631\u0645\u0627\u0646\u062e\u0627\u0646\u06d5"}}, {"type": "node", "id": 7950980143, "lat": 35.195326, "lon": 45.9794347}, {"type": "node", "id": 7950980144, "lat": 35.1951636, "lon": 45.9788901}, {"type": "node", "id": 7950980145, "lat": 35.1949465, "lon": 45.9789871}, {"type": "node", "id": 7950980146, "lat": 35.1951089, "lon": 45.9795317}, {"type": "node", "id": 8292852817, "lat": 34.9767547, "lon": 45.8872795, "tags": {"amenity": "doctors", "name": "\u06cc\u06d5\u06a9\u06d5\u06cc \u067e\u0634\u06a9\u0646\u06cc\u0646\u06cc \u062e\u06c6\u0631\u0627\u06a9"}}, {"type": "node", "id": 8579606827, "lat": 35.1795857, "lon": 45.9883257, "tags": {"addr:street": "Kani Qwlka", "amenity": "pharmacy", "name": "\u0635\u06cc\u062f\u0644\u06cc\u0629\u0634\u06cc\u0641\u0627", "name:en": "shifa pharmacy", "name:ku": "\u062f\u06d5\u0645\u0627\u0646\u062e\u0627\u0646\u06d5\u06cc \u0634\u06cc\u0641\u0627", "opening_hours": "Mo-Su 13:00-00:00"}}, {"type": "node", "id": 8842146136, "lat": 35.1666562, "lon": 45.9835392, "tags": {"amenity": "hospital", "name:en": "HALABJA HOSPITAL HALABJA"}}, {"type": "node", "id": 9702946317, "lat": 35.1725947, "lon": 45.9922801, "tags": {"amenity": "hospital", "name": "\u06a9\u0627\u06a9 \u06cc\u0627\u0633\u06cc\u0646 \u062c\u06d5\u0695\u0627\u062d", "name:en": "Kak yasin jara7"}}, {"type": "node", "id": 9887544517, "lat": 35.1823247, "lon": 45.9911514, "tags": {"addr:street": "\u062c\u0648\u0648\u062a \u0633\u0627\u06cc\u062f\u06cc \u0645\u0627\u0645\u06c6\u0633\u062a\u0627\u06cc\u0627\u0646", "amenity": "clinic", "name": "\u067e\u06c6\u0644\u06cc\u06a9\u0644\u06cc\u0646\u06cc\u06a9\u06cc \u0647\u0627\u0648\u06a9\u0627\u0631\u06cc \u0647\u06d5\u06b5\u06d5\u0628\u062c\u06d5", "name:en": "Hawkari Halabja", "phone": "0751 103 44 17"}}, {"type": "node", "id": 9887544518, "lat": 35.1822899, "lon": 45.9913243, "tags": {"amenity": "clinic", "name": "\u067e\u06c6\u0644\u06cc\u06a9\u0644\u06cc\u0646\u06cc\u06a9\u06cc \u0647\u0627\u0648\u06a9\u0627\u0631\u06cc \u0647\u06d5\u06b5\u06d5\u0628\u062c\u06d5", "name:en": "Hawkari Halabja", "phone": "0751 103 44 17"}}, {"type": "node", "id": 9913054123, "lat": 35.1926004, "lon": 45.972936, "tags": {"addr:street": "\u062c\u0627\u062f\u06d5\u06cc \u062d\u06d5\u0645\u06d5\u0648\u063a\u0627\u0646", "amenity": "hospital", "name:en": "amez private hospital", "name:ku": "\u0646\u06d5\u062e\u06c6\u0634\u062e\u0627\u0646\u06d5\u06cc \u0626\u0627\u0645\u06ce\u0632\u06cc \u062a\u0627\u06cc\u0628\u06d5\u062a", "phone": "07511000090", "website": "http://www.amezhospital.com"}}, {"type": "node", "id": 10902720505, "lat": 35.1940343, "lon": 45.9813979}, {"type": "node", "id": 11153611905, "lat": 35.1946428, "lon": 46.0054092, "tags": {"amenity": "hospital", "name": "\u06a9\u06c6\u06af\u0627\u06cc \u062f\u06d5\u0631\u0645\u0627\u0646 \u0648 \u067e\u06ce\u062f\u0627\u0648\u06cc\u0633\u062a\u06cc \u067e\u0632\u06cc\u0634\u06a9\u06cc", "name:en": "Warehouse of medicines and medical supplies"}}, {"type": "node", "id": 11181201237, "lat": 35.179567, "lon": 45.9890018, "tags": {"amenity": "clinic", "name": "talary pzishky Ainda"}}, {"type": "node", "id": 11181201637, "lat": 35.1795454, "lon": 45.9890057, "tags": {"amenity": "clinic", "name:en": "Talary Pzisky Ainda"}}, {"type": "way", "id": 424689080, "nodes": [4240802325, 4240802326, 4240802327, 4240802328, 4240802325], "tags": {"addr:city": "Halabja", "amenity": "hospital", "emergency": "yes", "healthcare": "hospital", "name": "Emergency Hospital", "name:en": "Emergency Hospital", "name:ku": "\u0646\u06d5\u062e\u06c6\u0634\u062e\u0627\u0646\u06d5\u06cc \u0641\u0631\u06cc\u0627\u06a9\u06d5\u0648\u062a\u0646", "operator": "Government"}}, {"type": "way", "id": 424690555, "nodes": [4240816386, 4240816387, 4240816388, 10902720505, 4240816389, 4240816390, 4240816391, 4240816386], "tags": {"addr:city": "Halabja", "amenity": "hospital", "emergency": "no", "healthcare": "hospital", "name": "\u0646\u06d5\u062e\u06c6\u0634\u062e\u0627\u0646\u06d5\u06cc \u0645\u0646\u0627\u06b5\u0628\u0648\u0648\u0646", "name:ckb": "\u0646\u06d5\u062e\u06c6\u0634\u062e\u0627\u0646\u06d5\u06cc \u0645\u0646\u0627\u06b5\u0628\u0648\u0648\u0646", "name:en": "Maternity Hospital", "operator": "Government"}}, {"type": "way", "id": 424690616, "nodes": [4240816690, 4240816691, 4240816692, 4240816388, 4240816387, 4240816690], "tags": {"addr:city": "Halabja", "amenity": "hospital", "emergency": "no", "healthcare": "hospital", "name": "\u0646\u06d5\u062e\u06c6\u0634\u062e\u0627\u0646\u06d5\u06cc \u0628\u06d5\u0631\u06a9\u06d5\u0648\u062a\u0648\u0627\u0646\u06cc \u0686\u06d5\u06a9\u06cc \u06a9\u06cc\u0645\u06cc\u0627\u0648\u06cc", "name:ckb": "\u0646\u06d5\u062e\u06c6\u0634\u062e\u0627\u0646\u06d5\u06cc \u0628\u06d5\u0631\u06a9\u06d5\u0648\u062a\u0648\u0627\u0646\u06cc \u0686\u06d5\u06a9\u06cc \u06a9\u06cc\u0645\u06cc\u0627\u0648\u06cc"}}, {"type": "way", "id": 540054357, "nodes": [5225259323, 5225259374, 5225259370, 5225259359, 5225259323], "tags": {"amenity": "clinic", "healthcare": "clinic", "name": "\u062f\u0631\u0645\u0627\u0646\u06af\u0627\u0647 \u0627\u0632\u06af\u0644\u0647"}}, {"type": "way", "id": 540595499, "nodes": [5229628760, 5229628761, 5230641437, 5229628762, 5230641440, 5230641439, 5230641444, 5230641443, 5229628763, 5229628764, 5229628767, 5229628765, 5229628760], "tags": {"amenity": "hospital", "healthcare": "hospital", "name": "Shahid fatih Hospital"}}, {"type": "way", "id": 852373363, "nodes": [7950980143, 7950980144, 7950980145, 7950980146, 7950980143], "tags": {"addr:city": "Halabja", "amenity": "hospital", "building:levels": "1", "healthcare": "hospital", "name": "Wafa Hospital"}}]}