{"version": 0.6, "generator": "Overpass API 0.7.61.5 4133829e", "osm3s": {"timestamp_osm_base": "2024-03-06T11:32:59Z", "copyright": "The data included in this document is from www.openstreetmap.org. The data is made available under ODbL."}, "elements": [{"type": "node", "id": 4933973911, "lat": -2.0778501, "lon": 37.4629883}, {"type": "node", "id": 6232739176, "lat": -2.2825485, "lon": 37.8250056}, {"type": "node", "id": 6232739177, "lat": -2.2837767, "lon": 37.8243117}, {"type": "node", "id": 6232739178, "lat": -2.28412, "lon": 37.8258448}, {"type": "node", "id": 6232739179, "lat": -2.2840738, "lon": 37.8261289}, {"type": "node", "id": 6232739180, "lat": -2.2833409, "lon": 37.8263668}, {"type": "node", "id": 7458231411, "lat": -2.07796, "lon": 37.4635408}, {"type": "node", "id": 7458231412, "lat": -2.0785551, "lon": 37.4633959}, {"type": "node", "id": 7458231413, "lat": -2.0784345, "lon": 37.4628595}, {"type": "way", "id": 665824592, "nodes": [6232739176, 6232739177, 6232739178, 6232739179, 6232739180, 6232739176], "tags": {"addr:city": "Makindu", "addr:street": "Mombasa Road", "amenity": "hospital", "healthcare": "hospital", "name": "Makindu Sub-county Hospital"}}, {"type": "way", "id": 797456421, "nodes": [4933973911, 7458231411, 7458231412, 7458231413, 4933973911], "tags": {"addr:city": "Emali", "addr:street": "Mombasa Road", "amenity": "hospital", "healthcare": "hospital", "name": "Kilome NH"}}]}