{"version": 0.6, "generator": "Overpass API 0.7.61.5 4133829e", "osm3s": {"timestamp_osm_base": "2024-03-05T15:07:00Z", "copyright": "The data included in this document is from www.openstreetmap.org. The data is made available under ODbL."}, "elements": [{"type": "node", "id": 317978934, "lat": 65.4979237, "lon": 15.6919086, "tags": {"name": "Gardvik", "place": "hamlet"}}, {"type": "node", "id": 322053519, "lat": 65.5143771, "lon": 15.3388585, "tags": {"name": "Stentr\u00e4sk", "place": "hamlet"}}, {"type": "node", "id": 322053578, "lat": 65.557785, "lon": 15.3405396, "tags": {"name": "L\u00f6vlund", "place": "hamlet"}}, {"type": "node", "id": 322055814, "lat": 65.5790099, "lon": 15.2312654, "tags": {"name": "Br\u00e4nna", "place": "hamlet"}}, {"type": "node", "id": 322055821, "lat": 65.5910545, "lon": 15.1989309, "tags": {"name": "Vallen\u00e4s", "name:sma": "Vaelliennjuana", "name:sv": "Vallen\u00e4s", "place": "hamlet"}}, {"type": "node", "id": 322521540, "lat": 65.5507951, "lon": 15.565292, "tags": {"name": "St\u00e5lfj\u00e4ll", "place": "hamlet"}}, {"type": "node", "id": 322524898, "lat": 65.6005537, "lon": 15.5327753, "tags": {"name": "Yttervik", "place": "hamlet"}}, {"type": "node", "id": 1827426774, "lat": 65.2760048, "lon": 15.6723456, "tags": {"name": "Gr\u00f6nfj\u00e4ll", "place": "hamlet"}}, {"type": "node", "id": 1827447016, "lat": 65.2527647, "lon": 15.6105918, "tags": {"name": "Henriksfj\u00e4ll", "place": "hamlet"}}, {"type": "node", "id": 1827447017, "lat": 65.2550483, "lon": 15.5179344, "tags": {"name": "Kittelfj\u00e4ll", "place": "village", "ref:se:pts:postort": "KITTELFJ\u00c4LL"}}, {"type": "node", "id": 1829795060, "lat": 65.3275688, "lon": 15.2141067, "tags": {"name": "Bergsund", "place": "hamlet"}}, {"type": "node", "id": 1829795061, "lat": 65.2752639, "lon": 15.3340111, "tags": {"name": "Borkan", "place": "hamlet"}}, {"type": "node", "id": 1829795062, "lat": 65.3220624, "lon": 15.2816253, "tags": {"name": "F\u00e4ttjaur", "name:sma": "Faahtjere", "name:sv": "F\u00e4ttjaur", "place": "hamlet"}}, {"type": "node", "id": 1829795064, "lat": 65.4215704, "lon": 14.8096383, "tags": {"name": "Gr\u00e4nssj\u00f6", "place": "hamlet"}}, {"type": "node", "id": 1829795074, "lat": 65.2870856, "lon": 15.2929528, "tags": {"name": "Nyg\u00e5rd", "place": "hamlet"}}, {"type": "node", "id": 1829795082, "lat": 65.2562495, "lon": 15.4088059, "tags": {"name": "Storviken", "place": "hamlet"}}, {"type": "node", "id": 1829795083, "lat": 65.3028511, "lon": 15.2922743, "tags": {"name": "Svalgon\u00e4s", "place": "hamlet"}}, {"type": "node", "id": 2836141192, "lat": 65.2518818, "lon": 15.7200094, "tags": {"name": "Bergsj\u00f6n", "place": "hamlet"}}, {"type": "node", "id": 3732759216, "lat": 65.4993988, "lon": 15.5926028, "tags": {"name": "Anjona", "place": "hamlet"}}, {"type": "node", "id": 3732760432, "lat": 65.432717, "lon": 15.2265779, "tags": {"name": "Virisen", "place": "hamlet"}}, {"type": "node", "id": 5808559753, "lat": 65.2596373, "lon": 15.3616434, "tags": {"name": "Borkasj\u00f6", "place": "hamlet"}}, {"type": "node", "id": 7319255060, "lat": 65.4113856, "lon": 14.9791914, "tags": {"name": "Bojtiken", "name:se": "Buajtahke", "place": "hamlet"}}, {"type": "node", "id": 11169608916, "lat": 65.5092399, "lon": 15.6351342, "tags": {"name": "Ajaureforsen", "name:sma": "Aajaevrie", "place": "hamlet"}}, {"type": "node", "id": 11169923859, "lat": 65.5567462, "lon": 15.4012441, "tags": {"name": "Nedre Bj\u00f6rkn\u00e4s", "place": "hamlet"}}, {"type": "node", "id": 11169964490, "lat": 65.6355345, "lon": 15.1616907, "tags": {"name": "S\u00f6rsandn\u00e4set", "name:sma": "\u00c5arjel Saedtienjuana", "place": "hamlet"}}, {"type": "node", "id": 11189086189, "lat": 65.6033902, "lon": 15.2755451, "tags": {"name": "Fr\u00e4kenvik", "place": "hamlet"}}, {"type": "node", "id": 11194631550, "lat": 65.6137934, "lon": 15.259602, "tags": {"name": "H\u00f6g\u00e5s", "place": "hamlet"}}, {"type": "node", "id": 11195967282, "lat": 65.6289665, "lon": 15.2305487, "tags": {"name": "\u00d6vre Bj\u00f6rkn\u00e4s", "name:sma": "Gaskeh\u00efemje", "place": "hamlet"}}, {"type": "node", "id": 11196486537, "lat": 65.6443143, "lon": 15.1938772, "tags": {"name": "Storsandn\u00e4set", "name:sma": "Noerhte Saedtienjuana", "place": "hamlet"}}, {"type": "node", "id": 11405305795, "lat": 65.4652208, "lon": 15.5119872, "tags": {"name": "Bj\u00f6rk\u00e5s", "place": "hamlet"}}, {"type": "node", "id": 11611002144, "lat": 65.4912523, "lon": 15.3539085, "tags": {"name": "R\u00f6nnb\u00e4cken", "place": "hamlet"}}]}