{"version": 0.6, "generator": "Overpass API 0.7.61.5 4133829e", "osm3s": {"timestamp_osm_base": "2024-03-05T13:48:00Z", "copyright": "The data included in this document is from www.openstreetmap.org. The data is made available under ODbL."}, "elements": [{"type": "node", "id": 8908503666, "lat": 34.1636634, "lon": 71.5564323, "tags": {"name": "\u0628\u06cc\u0644\u06c1 \u0628\u0631\u0627\u0645\u062f \u062e\u06cc\u0644", "name:en": "Bela Baramad Khel", "place": "village"}}, {"type": "node", "id": 8908503667, "lat": 34.1554988, "lon": 71.5387, "tags": {"name": "\u0646\u06cc\u0627\u0645\u06cc", "name:en": "Niyami", "place": "village", "population": "3005"}}, {"type": "node", "id": 8909216158, "lat": 34.1508987, "lon": 71.5210177, "tags": {"name": "\u0688\u0627\u0646\u06a9 \u0644\u062e\u062a\u06d2 \u0628\u0627\u0644\u0627", "name:en": "Dang Lakhta Bala", "place": "village"}}, {"type": "node", "id": 8909216159, "lat": 34.1574644, "lon": 71.5180748, "tags": {"name": "\u0633\u0631\u062e\u0646\u06c1", "name:en": "Sarkhana", "place": "village", "population": "2761"}}, {"type": "node", "id": 8909216160, "lat": 34.1666238, "lon": 71.5188988, "tags": {"alt_name:en": "Neelavi", "name": "\u0646\u06cc\u0644\u0627\u0648\u06cc\u200e", "name:en": "Nilavi", "place": "village", "population": "2140"}}, {"type": "node", "id": 9417558947, "lat": 34.1453269, "lon": 71.5347754, "tags": {"name": "\u0644\u062e\u062a\u06c1 \u067e\u0627\u06cc\u0627\u0646", "name:en": "Lakhta Payan", "place": "village"}}, {"type": "node", "id": 9417558955, "lat": 34.167048, "lon": 71.5424605, "tags": {"name": "\u0628\u0627\u0646\u0688\u06c1 \u0641\u0631\u06cc\u062f \u062e\u0627\u0646", "name:en": "Banda Farid Khan", "place": "village"}}, {"type": "node", "id": 9417558956, "lat": 34.1651768, "lon": 71.5306779, "tags": {"name": "\u06a9\u0631\u06cc\u0627\u0646\u06c1", "name:en": "Karyana", "place": "village"}}]}