{"version": 0.6, "generator": "Overpass API 0.7.61.5 4133829e", "osm3s": {"timestamp_osm_base": "2024-03-06T11:16:45Z", "copyright": "The data included in this document is from www.openstreetmap.org. The data is made available under ODbL."}, "elements": [{"type": "node", "id": 2482647207, "lat": 31.6168218, "lon": 46.1003636, "tags": {"alt_name": "\u0642\u0644\u0639\u0629 \u0645\u0631\u064a\u0633 \u0633\u062e\u0631", "int_name": "Qala a Mirias Sakhr, Qala a Mirias Sakhr", "is_in": "Iraq, \u062c\u0645\u0647\u0648\u0631\u064a\u0629 \u0627\u0644\u0639\u0631\u0627\u0642", "name": "\u0642\u0644\u0639\u0629 \u0645\u0631\u064a\u0633 \u0633\u062e\u0631", "name:ar": "\u0642\u0644\u0639\u0629 \u0645\u0631\u064a\u0633 \u0633\u062e\u0631", "name:ar1": "\u0642\u0644\u0639\u0629 \u0645\u0631\u064a\u0633 \u0633\u062e\u0631", "name:de": "Qala a Mirias Sakhr", "name:en": "Qala a Mirias Sakhr", "name:fr": "Qala a Mirias Sakhr", "place": "village"}}, {"type": "node", "id": 2482647229, "lat": 31.637554, "lon": 46.082144, "tags": {"alt_name": "\u0646\u0627\u0634\u0631 \u0627\u0644\u0639\u0635\u0629", "int_name": "N\u0101shir al A\u015f\u015fah, \u0646\u0627\u0634\u0631 \u0627\u0644\u0639\u0635\u0647, Nashir al Assah, \u0646\u0627\u0634\u0631 \u0627\u0644\u0639\u0635\u0647", "is_in": "Iraq , \u062c\u0645\u0647\u0648\u0631\u064a\u0629 \u0627\u0644\u0639\u0631\u0627\u0642", "name": "\u0646\u0627\u0634\u0631 \u0627\u0644\u0639\u0635\u0629", "name:ar": "\u0646\u0627\u0634\u0631 \u0627\u0644\u0642\u0635\u0647", "name:ar1": "\u0646\u0627\u0634\u0631 \u0627\u0644\u0639\u0635\u0629", "name:de": "Nashir al Assah", "name:en": "Nashir al Assah", "name:fr": "Nashir al Assah", "place": "village"}}, {"type": "node", "id": 2486587975, "lat": 31.553748, "lon": 45.948831, "tags": {"alt_name": "\u0639\u0631\u0628 \u0627\u0644\u062f\u064a\u0627\u0628", "int_name": "Arab ad Diy\u0101b, \u0639\u0631\u0628 \u0627\u0644\u062f\u064a\u0627\u0628, Arab ad Diyab, \u0639\u0631\u0628 \u0627\u0644\u062f\u064a\u0627\u0628", "is_in": "Iraq , \u062c\u0645\u0647\u0648\u0631\u064a\u0629 \u0627\u0644\u0639\u0631\u0627\u0642", "name": "\u0639\u0631\u0628 \u0627\u0644\u062f\u064a\u0627\u0628", "name:ar": "\u0639\u0631\u0628 \u0627\u0644\u062f\u0628\u0627\u062a", "name:ar1": "\u0639\u0631\u0628 \u0627\u0644\u062f\u064a\u0627\u0628", "name:de": "Arab ad Diyab", "name:en": "Arab ad Diyab", "name:fr": "Arab ad Diyab", "place": "village"}}, {"type": "node", "id": 5028694534, "lat": 31.4901632, "lon": 46.0397476, "tags": {"place": "hamlet"}}, {"type": "node", "id": 7690836239, "lat": 31.5572548, "lon": 45.9327221, "tags": {"place": "village"}}, {"type": "node", "id": 9906936817, "lat": 31.3665468, "lon": 46.0774965, "tags": {"name": "\u0622\u0644 \u0645\u0634\u064a\u0639\u0644", "name:en": "Almsheiel", "place": "village"}}]}