{"version": 0.6, "generator": "Overpass API 0.7.61.5 4133829e", "osm3s": {"timestamp_osm_base": "2024-03-05T11:24:46Z", "copyright": "The data included in this document is from www.openstreetmap.org. The data is made available under ODbL."}, "elements": [{"type": "node", "id": 2810168117, "lat": 7.0885942, "lon": 0.9111214, "tags": {"name": "Bodj\u00e9", "place": "village", "source": "survey (town sign)"}}, {"type": "node", "id": 2810168121, "lat": 7.0452475, "lon": 1.0415866, "tags": {"name": "Kp\u00e9dik\u00e9", "place": "village", "source": "survey (town sign)"}}, {"type": "node", "id": 2810168124, "lat": 7.0880108, "lon": 0.9782797, "tags": {"name": "M\u00e9dj\u00e9", "place": "village", "source": "survey (town sign)"}}, {"type": "node", "id": 3812881419, "lat": 6.8198947, "lon": 0.8860601, "tags": {"name": "M\u00e9ssiob\u00e9", "place": "village"}}, {"type": "node", "id": 3812881421, "lat": 6.8079713, "lon": 0.9166615, "tags": {"name": "Kologon", "place": "town"}}, {"type": "node", "id": 3812881422, "lat": 6.8006871, "lon": 0.9185498, "tags": {"name": "Kpando", "place": "village"}}, {"type": "node", "id": 4023087985, "lat": 6.7534108, "lon": 1.0730827, "tags": {"place": "hamlet", "source": "Mapbox"}}, {"type": "node", "id": 4105922298, "lat": 7.1379758, "lon": 1.0290241, "tags": {"place": "village", "source": "Mapbox"}}, {"type": "node", "id": 4106253847, "lat": 7.0558636, "lon": 0.9938637, "tags": {"place": "village", "source": "Mapbox"}}, {"type": "node", "id": 4106253849, "lat": 7.0566941, "lon": 1.0118473, "tags": {"place": "village", "source": "Mapbox"}}, {"type": "node", "id": 4106253861, "lat": 7.0717655, "lon": 1.028434, "tags": {"place": "village", "source": "Mapbox"}}, {"type": "node", "id": 4106253875, "lat": 7.075854, "lon": 1.0210741, "tags": {"place": "village", "source": "Mapbox"}}, {"type": "node", "id": 4106255809, "lat": 7.0817138, "lon": 1.0247177, "tags": {"place": "village", "source": "Mapbox"}}, {"type": "node", "id": 4106255827, "lat": 7.08774, "lon": 1.0260641, "tags": {"place": "village", "source": "Mapbox"}}, {"type": "node", "id": 4106255839, "lat": 7.091477, "lon": 1.028564, "tags": {"place": "village", "source": "Mapbox"}}, {"type": "node", "id": 4106255845, "lat": 7.1039988, "lon": 1.021117, "tags": {"place": "hamlet", "source": "Mapbox"}}, {"type": "node", "id": 4106255846, "lat": 7.1096734, "lon": 1.0177052, "tags": {"place": "hamlet", "source": "Mapbox"}}, {"type": "node", "id": 4106255847, "lat": 7.1159334, "lon": 1.0176623, "tags": {"place": "hamlet", "source": "Mapbox"}}, {"type": "node", "id": 4106255848, "lat": 7.1232047, "lon": 1.005131, "tags": {"place": "hamlet", "source": "Mapbox"}}, {"type": "node", "id": 4106255849, "lat": 7.126111, "lon": 1.0038087, "tags": {"place": "hamlet", "source": "Mapbox"}}, {"type": "node", "id": 4106255850, "lat": 7.1274311, "lon": 1.007596, "tags": {"place": "hamlet", "source": "Mapbox"}}, {"type": "node", "id": 4106255851, "lat": 7.130066, "lon": 1.0255238, "tags": {"place": "hamlet", "source": "Mapbox"}}, {"type": "node", "id": 4106255875, "lat": 7.150443, "lon": 1.0139459, "tags": {"place": "hamlet", "source": "Mapbox"}}, {"type": "node", "id": 4106256043, "lat": 7.1613451, "lon": 0.9959418, "tags": {"place": "hamlet", "source": "Mapbox"}}, {"type": "node", "id": 4106256053, "lat": 7.1629006, "lon": 1.0157269, "tags": {"place": "hamlet", "source": "Mapbox"}}, {"type": "node", "id": 4106256066, "lat": 7.1644429, "lon": 0.9900946, "tags": {"place": "hamlet", "source": "Mapbox"}}, {"type": "node", "id": 4108735178, "lat": 6.7533748, "lon": 1.0248478, "tags": {"place": "hamlet"}}, {"type": "node", "id": 4108735183, "lat": 6.7549676, "lon": 0.9915778, "tags": {"place": "village", "source": "Mapbox"}}, {"type": "node", "id": 4108735249, "lat": 6.7675928, "lon": 1.0266531, "tags": {"place": "hamlet"}}, {"type": "node", "id": 4108735337, "lat": 6.8734135, "lon": 0.9330654, "tags": {"fixme": "name+residential area", "place": "village"}}, {"type": "node", "id": 4108735339, "lat": 6.8826165, "lon": 0.9773541, "tags": {"fixme": "name+residential area", "place": "village"}}, {"type": "node", "id": 4108735341, "lat": 6.8867067, "lon": 0.9541798, "tags": {"fixme": "name+residential area", "place": "village"}}, {"type": "node", "id": 4108735358, "lat": 6.9184655, "lon": 0.9926909, "tags": {"place": "hamlet"}}, {"type": "node", "id": 4108735359, "lat": 6.9191099, "lon": 0.9972882, "tags": {"place": "hamlet"}}, {"type": "node", "id": 4719345519, "lat": 6.768885, "lon": 0.8699161, "tags": {"place": "hamlet"}}, {"type": "node", "id": 4719345522, "lat": 6.7411878, "lon": 0.8864787, "tags": {"name": "Wonougba Seva", "place": "village"}}, {"type": "node", "id": 4719345524, "lat": 6.7438277, "lon": 0.8692871, "tags": {"name": "Togbenya", "place": "village"}}, {"type": "node", "id": 5270158113, "lat": 7.044388, "lon": 1.045745, "tags": {"name": "HEKPE", "place": "village", "population": "400"}}, {"type": "node", "id": 5407970316, "lat": 6.8107305, "lon": 0.8799531, "tags": {"name": "Kpov\u00e9nou", "place": "village"}}, {"type": "node", "id": 5414735087, "lat": 6.7876696, "lon": 0.9110723, "tags": {"name": "Kolo Tokpo", "place": "village"}}, {"type": "node", "id": 5414735702, "lat": 6.8195927, "lon": 0.9105223, "tags": {"name": "Missahome", "place": "village"}}, {"type": "node", "id": 6214457678, "lat": 6.9429519, "lon": 1.0632809, "tags": {"name": "Balenou", "place": "village"}}, {"type": "node", "id": 6214458634, "lat": 6.9635843, "lon": 1.0562665, "tags": {"name": "Tendjessou", "place": "village"}}, {"type": "node", "id": 6214458636, "lat": 6.9628674, "lon": 1.0634963, "tags": {"name": "Kpota", "place": "village"}}, {"type": "node", "id": 6214459884, "lat": 6.9339785, "lon": 1.0700083, "tags": {"name": "Djokoudoaou", "place": "village"}}, {"type": "node", "id": 6274394088, "lat": 6.9285438, "lon": 1.0090688, "tags": {"name": "Golowou", "place": "village"}}, {"type": "node", "id": 6274394107, "lat": 6.9323777, "lon": 1.0259475, "tags": {"name": "Hahom\u00e9gb\u00e9", "place": "village"}}, {"type": "node", "id": 6274394109, "lat": 6.9644901, "lon": 0.9988976, "tags": {"name": "Fawoukp\u00e9", "place": "village"}}, {"type": "node", "id": 6274394163, "lat": 6.9877395, "lon": 1.006366, "tags": {"name": "Yokou", "place": "village"}}, {"type": "node", "id": 6274394164, "lat": 7.0167426, "lon": 1.0058889, "tags": {"name": "Tchinigan", "place": "village"}}, {"type": "node", "id": 6274394236, "lat": 6.9362113, "lon": 1.0514452, "tags": {"name": "Santo", "place": "village"}}, {"type": "node", "id": 7562007427, "lat": 6.8684205, "lon": 1.0336885, "tags": {"name": "Tokpo", "place": "village"}}, {"type": "node", "id": 7562192001, "lat": 6.8772055, "lon": 1.0153234, "tags": {"name": "Tsravekoe", "place": "village"}}, {"type": "node", "id": 7562192002, "lat": 6.8854631, "lon": 1.0492399, "tags": {"name": "Missaom\u00e9", "place": "village"}}, {"type": "node", "id": 7887836400, "lat": 6.9247973, "lon": 1.0711026, "tags": {"place": "hamlet", "source": "Bing"}}, {"type": "node", "id": 7887836407, "lat": 6.9210696, "lon": 1.06341, "tags": {"place": "hamlet", "source": "Bing"}}, {"type": "node", "id": 7887836408, "lat": 6.9221347, "lon": 1.0652447, "tags": {"place": "hamlet", "source": "Bing"}}, {"type": "node", "id": 7887836409, "lat": 6.9187211, "lon": 1.0626268, "tags": {"place": "hamlet", "source": "Bing"}}, {"type": "node", "id": 7909157319, "lat": 7.0850328, "lon": 0.9887726, "tags": {"name": "Avoklop\u00e9", "place": "village", "source": "survey (town sign)"}}, {"type": "node", "id": 8755694095, "lat": 7.0559494, "lon": 0.9947741, "tags": {"name": "Alati kpota", "place": "village"}}, {"type": "node", "id": 9328014164, "lat": 6.7492142, "lon": 1.0974188, "tags": {"name": "Kplaba", "place": "village"}}, {"type": "node", "id": 9727690664, "lat": 6.8278136, "lon": 1.0244245, "tags": {"name": "Agbodjekpo", "place": "village"}}, {"type": "node", "id": 9727716911, "lat": 6.7771358, "lon": 1.0577885, "tags": {"name": "Tokpevia", "place": "village"}}]}