{"version": 0.6, "generator": "Overpass API 0.7.61.5 4133829e", "osm3s": {"timestamp_osm_base": "2024-03-05T13:43:59Z", "copyright": "The data included in this document is from www.openstreetmap.org. The data is made available under ODbL."}, "elements": [{"type": "node", "id": 1129900561, "lat": 36.6867569, "lon": 69.1164682, "tags": {"alt_name": "Khan Abad", "name": "\u062e\u0627\u0646 \u0622\u0628\u0627\u062f", "name:hu": "Hanabad", "name:ja": "\u30cf\u30fc\u30ca\u30fc\u30d0\u30fc\u30c9", "name:ps": "\u062e\u0627\u0646 \u0622\u0628\u0627\u062f", "name:ru": "\u0425\u0430\u043d\u0430\u0431\u0430\u0434", "name:uk": "\u0425\u0430\u043d\u0430\u0431\u0430\u0434", "place": "town", "source:name": "GNS"}}, {"type": "node", "id": 1131271076, "lat": 36.6561613, "lon": 68.8913179, "tags": {"name": "Qara Qeshlaq", "place": "hamlet"}}, {"type": "node", "id": 1131271145, "lat": 36.6454328, "lon": 68.8950515, "tags": {"name": "Laqlyan", "place": "hamlet"}}, {"type": "node", "id": 1131426498, "lat": 36.7073829, "lon": 68.9466001, "tags": {"name": "Qaymaqchi", "place": "hamlet"}}, {"type": "node", "id": 1131426503, "lat": 36.6449397, "lon": 69.0269548, "tags": {"name": "Jukana", "place": "hamlet"}}, {"type": "node", "id": 1131426507, "lat": 36.7659938, "lon": 69.0073253, "tags": {"name": "Jan Qataghan", "place": "hamlet"}}, {"type": "node", "id": 1131426555, "lat": 36.7100596, "lon": 68.9068433, "tags": {"name": "Charkhaw", "place": "hamlet"}}, {"type": "node", "id": 1131426558, "lat": 36.770573, "lon": 68.9252883, "tags": {"name": "Bakhshi", "place": "hamlet"}}, {"type": "node", "id": 1131426563, "lat": 36.6728324, "lon": 68.9306184, "tags": {"name": "Naseri", "place": "hamlet"}}, {"type": "node", "id": 1131426568, "lat": 36.7186739, "lon": 68.9722034, "tags": {"name": "Khvajeh Ghaltan", "place": "hamlet"}}, {"type": "node", "id": 1131426605, "lat": 36.6748563, "lon": 69.0162688, "tags": {"name": "Khvajeh Pesta", "place": "hamlet"}}, {"type": "node", "id": 1131426629, "lat": 36.7228086, "lon": 68.9421798, "tags": {"name": "Khvajeh Ghaltan", "place": "hamlet"}}, {"type": "node", "id": 1131426633, "lat": 36.6998134, "lon": 68.9330388, "tags": {"name": "Tagha' i", "place": "hamlet"}}, {"type": "node", "id": 1131426638, "lat": 36.7197678, "lon": 68.9951974, "tags": {"name": "Nawabad", "place": "hamlet"}}, {"type": "node", "id": 1131426660, "lat": 36.6965101, "lon": 68.9933091, "tags": {"name": "Qozi", "place": "hamlet"}}, {"type": "node", "id": 1131426663, "lat": 36.7739487, "lon": 68.9068433, "tags": {"name": "Hadzarat-i-Sultan", "place": "hamlet"}}, {"type": "node", "id": 1131426670, "lat": 36.6523494, "lon": 68.9841939, "tags": {"name": "Nawyan", "place": "hamlet"}}, {"type": "node", "id": 1131426682, "lat": 36.5814942, "lon": 68.9043586, "tags": {"name": "Chumchuq Jar", "place": "hamlet"}}, {"type": "node", "id": 1131426723, "lat": 36.6908391, "lon": 69.0146381, "tags": {"name": "Sayed Ramadzan", "place": "hamlet"}}, {"type": "node", "id": 1131426728, "lat": 36.7425094, "lon": 69.00027, "tags": {"name": "Alti Gumbaz", "place": "hamlet"}}, {"type": "node", "id": 1131426731, "lat": 36.7863297, "lon": 69.0245086, "tags": {"name": "Ibrahim Khel", "place": "hamlet"}}, {"type": "node", "id": 1131426735, "lat": 36.6631733, "lon": 68.9855758, "tags": {"name": "Malaghi", "place": "hamlet"}}, {"type": "node", "id": 1131426738, "lat": 36.6963381, "lon": 68.9567538, "tags": {"name": "Besh Kupruk", "place": "hamlet"}}, {"type": "node", "id": 1131426760, "lat": 36.7321575, "lon": 68.8837548, "tags": {"name": "Shahr-i Kohna", "place": "hamlet"}}, {"type": "node", "id": 1131426764, "lat": 36.6831372, "lon": 69.0246631, "tags": {"name": "Nekpa-i-Ulya", "place": "hamlet"}}, {"type": "node", "id": 1131426773, "lat": 36.6850782, "lon": 68.9594575, "tags": {"name": "Bagh-i Mir", "place": "hamlet"}}, {"type": "node", "id": 1131426815, "lat": 36.7285662, "lon": 68.8967952, "tags": {"name": "Kalla-i Gaw", "place": "hamlet"}}, {"type": "node", "id": 1131426821, "lat": 36.7042176, "lon": 68.8950845, "tags": {"name": "Dag-i-Naser", "place": "hamlet"}}, {"type": "node", "id": 1131426833, "lat": 36.6796198, "lon": 68.9173747, "tags": {"name": "Bola Kawul", "place": "hamlet"}}, {"type": "node", "id": 1131426839, "lat": 36.5932796, "lon": 68.9039251, "tags": {"name": "Madrasa", "place": "hamlet"}}, {"type": "node", "id": 1131426843, "lat": 36.6906464, "lon": 68.944832, "tags": {"name": "Nawabad", "place": "hamlet"}}, {"type": "node", "id": 1131426903, "lat": 36.6696656, "lon": 68.9570543, "tags": {"name": "Chin Za' i", "place": "hamlet"}}, {"type": "node", "id": 1131426907, "lat": 36.7489262, "lon": 68.9420081, "tags": {"name": "Quchchi", "place": "hamlet"}}, {"type": "node", "id": 1131426913, "lat": 36.6087834, "lon": 68.9067575, "tags": {"name": "Madrasa", "place": "hamlet"}}, {"type": "node", "id": 1131426917, "lat": 36.761992, "lon": 68.8937026, "tags": {"name": "Chebertma", "place": "hamlet"}}, {"type": "node", "id": 1131426989, "lat": 36.753864, "lon": 68.9272281, "tags": {"name": "Buta Kashan", "place": "hamlet"}}, {"type": "node", "id": 1131427000, "lat": 36.6594071, "lon": 68.9651138, "tags": {"name": "Jar Guza", "place": "hamlet"}}, {"type": "node", "id": 1131427016, "lat": 36.7004409, "lon": 69.0399045, "tags": {"name": "Jangal Bashi", "place": "hamlet"}}, {"type": "node", "id": 1131427022, "lat": 36.6479216, "lon": 69.010604, "tags": {"name": "Ta'usabad", "place": "hamlet"}}, {"type": "node", "id": 1131427053, "lat": 36.7790189, "lon": 68.954738, "tags": {"name": "Char Qaban", "place": "hamlet"}}, {"type": "node", "id": 1131427061, "lat": 36.6807762, "lon": 68.9982444, "tags": {"name": "Nekpa-i-Sufla", "place": "hamlet"}}, {"type": "node", "id": 1131427071, "lat": 36.5739404, "lon": 68.8987924, "tags": {"name": "Laqay", "place": "hamlet"}}, {"type": "node", "id": 1131427085, "lat": 36.6353943, "lon": 68.9019681, "tags": {"name": "Naqel", "place": "hamlet"}}, {"type": "node", "id": 1131427115, "lat": 36.7646324, "lon": 68.9101821, "tags": {"name": "Eshanan", "place": "hamlet"}}, {"type": "node", "id": 1131427125, "lat": 36.6331007, "lon": 68.8876945, "tags": {"name": "Ambar Tepa", "place": "hamlet"}}, {"type": "node", "id": 1131427130, "lat": 36.741574, "lon": 69.0119001, "tags": {"name": "Jan Qataghan", "place": "hamlet"}}, {"type": "node", "id": 1131427135, "lat": 36.6745052, "lon": 68.9444972, "tags": {"name": "Kata Khel", "place": "hamlet"}}, {"type": "node", "id": 1131427141, "lat": 36.7177795, "lon": 69.0356494, "tags": {"name": "Bu'in", "place": "hamlet"}}, {"type": "node", "id": 1131427178, "lat": 36.7639242, "lon": 68.9845029, "tags": {"name": "Kelaci", "place": "hamlet"}}, {"type": "node", "id": 1131427183, "lat": 36.7738387, "lon": 69.0363618, "tags": {"name": "Sang Gosh", "place": "hamlet"}}, {"type": "node", "id": 1131427187, "lat": 36.7643368, "lon": 68.9454929, "tags": {"name": "Mulla Khel", "place": "hamlet"}}, {"type": "node", "id": 1131427190, "lat": 36.6948584, "lon": 69.123746, "tags": {"name": "Bagh-i Mir", "place": "hamlet"}}, {"type": "node", "id": 1131427195, "lat": 36.6053315, "lon": 69.0047075, "tags": {"name": "Shakh Tepa", "place": "hamlet"}}, {"type": "node", "id": 1131427232, "lat": 36.7829064, "lon": 68.9737054, "tags": {"name": "Chaqeshli", "place": "hamlet"}}, {"type": "node", "id": 1131427237, "lat": 36.7624321, "lon": 68.960127, "tags": {"name": "Andijan", "place": "hamlet"}}, {"type": "node", "id": 1131427240, "lat": 36.695347, "lon": 68.9168254, "tags": {"name": "Shorabad", "place": "hamlet"}}, {"type": "node", "id": 1131427245, "lat": 36.7238268, "lon": 68.8900806, "tags": {"name": "Khvajeh Mashhad", "place": "hamlet"}}, {"type": "node", "id": 1131427286, "lat": 36.7498065, "lon": 68.984151, "tags": {"name": "Cheqer", "place": "hamlet"}}, {"type": "node", "id": 1131427288, "lat": 36.6988431, "lon": 68.9751817, "tags": {"name": "Tarnaw", "place": "hamlet"}}, {"type": "node", "id": 1131427292, "lat": 36.7820952, "lon": 68.9414417, "tags": {"name": "Gharaw Shakh", "place": "hamlet"}}, {"type": "node", "id": 1131427298, "lat": 36.7708136, "lon": 68.9915496, "tags": {"name": "Dawlat Yar", "place": "hamlet"}}, {"type": "node", "id": 1131427311, "lat": 36.7694317, "lon": 68.9377938, "tags": {"name": "Gadi", "place": "hamlet"}}, {"type": "node", "id": 1131427343, "lat": 36.7318755, "lon": 68.9698087, "tags": {"name": "Koba'i", "place": "hamlet"}}, {"type": "node", "id": 1131427348, "lat": 36.6200957, "lon": 69.0089647, "tags": {"name": "Deh-i-Kalan", "place": "hamlet"}}, {"type": "node", "id": 1131427350, "lat": 36.7178345, "lon": 68.9014274, "tags": {"name": "Chella Mazar", "place": "hamlet"}}, {"type": "node", "id": 1131427355, "lat": 36.7796136, "lon": 69.0279418, "tags": {"name": "Omar Khel", "place": "hamlet"}}, {"type": "node", "id": 1131427358, "lat": 36.6843005, "lon": 68.9327642, "tags": {"name": "Naqi Ludin", "place": "hamlet"}}, {"type": "node", "id": 1131427396, "lat": 36.7069701, "lon": 68.9623586, "tags": {"name": "Quchi", "place": "hamlet"}}, {"type": "node", "id": 1131427404, "lat": 36.6577891, "lon": 69.0104581, "tags": {"name": "Mohammad Dad", "place": "hamlet"}}, {"type": "node", "id": 1131478253, "lat": 36.5222, "lon": 68.8992, "tags": {"alt_name": "Ali Abad", "name": "\u0639\u0644\u06cc \u0622\u0628\u0627\u062f", "name:en": "Aliabad", "name:ps": "\u0639\u0644\u06cc \u0622\u0628\u0627\u062f", "name:ru": "\u0410\u043b\u0438\u0430\u0431\u0430\u0434", "place": "town", "source:name": "GNS", "wikidata": "Q4540419", "wikipedia": "en:'Aliabad"}}, {"type": "node", "id": 1131478258, "lat": 36.7116035, "lon": 69.2663785, "tags": {"name": "Bangi", "name:ru": "\u0411\u0430\u043d\u0433\u0438", "place": "village"}}, {"type": "node", "id": 3540149210, "lat": 36.3852832, "lon": 69.3151823, "tags": {"alt_name": "Eshkashem;Ashkamesh;Eshkamesh;Ishkamesh;Iskames;Ishkamysh;\u0627\u06cc\u0634\u06a9\u0645\u0634", "name": "\u0645\u0633\u062c\u062f \u062c\u0627\u0645\u0639", "name:en": "Ishkamish", "place": "town"}}, {"type": "node", "id": 3977602214, "lat": 36.3815901, "lon": 69.1219152, "tags": {"name": "Khwaja Loqman", "place": "village"}}, {"type": "node", "id": 3977816263, "lat": 36.4187835, "lon": 69.126111, "tags": {"name": "Namasai", "place": "village"}}, {"type": "node", "id": 3977951415, "lat": 36.5211269, "lon": 68.9053804, "tags": {"name": "Shughniha", "place": "village"}}, {"type": "node", "id": 3979087602, "lat": 36.6746327, "lon": 68.9996989, "tags": {"name": "Kahna Qeshlaq", "place": "village"}}, {"type": "node", "id": 3979114228, "lat": 36.6808124, "lon": 68.9986102, "tags": {"name": "Dolada", "place": "village"}}, {"type": "node", "id": 3981150558, "lat": 36.6872562, "lon": 68.9892566, "tags": {"name": "Mulla Sahib Dost", "place": "village"}}, {"type": "node", "id": 3981199857, "lat": 36.6890755, "lon": 69.0068745, "tags": {"name": "Shakara", "place": "village"}}, {"type": "node", "id": 3981216161, "lat": 36.6837528, "lon": 69.0252293, "tags": {"name": "Qomandan Dilbar", "place": "village"}}, {"type": "node", "id": 3981275262, "lat": 36.6995558, "lon": 68.9736292, "tags": {"name": "Tarnab", "place": "village"}}, {"type": "node", "id": 3981435280, "lat": 36.7048389, "lon": 69.0190589, "tags": {"name": "Bakasa", "place": "village"}}, {"type": "node", "id": 3981495681, "lat": 36.7135574, "lon": 69.2386061, "tags": {"name": "Shaikh Ali", "place": "village"}}, {"type": "node", "id": 3981720666, "lat": 36.7449539, "lon": 69.2213636, "tags": {"name": "Jawlaicha", "place": "village"}}, {"type": "node", "id": 4391671486, "lat": 36.690456, "lon": 69.094154, "tags": {"alt_name": "Jangal Bashi;Jangal Basi", "name": "\u062c\u0646\u06af\u0644 \u0628\u0627\u0634\u06cc", "name:en": "Dzhangal'bashi", "name:ps": "\u062c\u0646\u06af\u0644 \u0628\u0627\u0634\u06cc", "name:ru": "\u0414\u0436\u0430\u043d\u0433\u0430\u043b\u044c\u0431\u0430\u0448\u0438", "place": "village", "source:name": "GNS"}}, {"type": "node", "id": 4391671488, "lat": 36.684483, "lon": 69.092865, "tags": {"name": "\u062e\u0644\u067e\u0643\u0648\u0686", "name:en": "Khlopkooch", "name:fa": "\u062e\u0644\u067e\u0643\u0648\u0686", "name:ps": "Khlopkooch", "name:ru": "\u0425\u043b\u043e\u043f\u043a\u043e\u043e\u0447", "place": "village", "source:name": "GNS"}}, {"type": "node", "id": 4391673389, "lat": 36.671394, "lon": 69.116295, "tags": {"alt_name": "Khvajeh Palak;Khodzha-Palak;Khwajah Palak", "name": "\u062e\u0648\u0627\u062c\u0647 \u067e\u0644\u06a9", "name:en": "Khwaja Palak", "name:hu": "Hodzsa Palak", "name:ps": "\u062e\u0648\u0627\u062c\u0647 \u067e\u0644\u06a9", "name:ru": "\u0425\u043e\u0434\u0436\u0430-\u041f\u0430\u043b\u0430\u043a", "place": "village", "source:name": "GNS"}}, {"type": "node", "id": 4391673390, "lat": 36.68121, "lon": 69.130722, "tags": {"alt_name": "Mahajerin;Muhajirin;Makhidzhirin", "name": "\u0645\u0647\u0627\u062c\u0631\u06cc\u0646", "name:en": "Mohajerin", "name:ps": "\u0645\u0647\u0627\u062c\u0631\u06cc\u0646", "name:ru": "\u041c\u0430\u0445\u0438\u0434\u0436\u0438\u0440\u0438\u043d;\u0645\u0647\u0627\u062c\u0631\u064a\u0646", "place": "village", "source:name": "GNS"}}, {"type": "node", "id": 4391673391, "lat": 36.680843, "lon": 69.097801, "tags": {"alt_name": "Mulla Ghulam;Molla Gholam", "name": "\u0645\u0644\u0627 \u063a\u0644\u0627\u0645", "name:en": "Mulla-Gulyam", "name:ps": "\u0645\u0644\u0627 \u063a\u0644\u0627\u0645", "name:ru": "\u041c\u0443\u043b\u043b\u0430-\u0413\u0443\u043b\u044f\u043c", "place": "village", "source:name": "GNS"}}, {"type": "node", "id": 4391673392, "lat": 36.689007, "lon": 69.133751, "tags": {"alt_name": "Qarghez-i-Bala;Qarghayz-e Bala;Qarghizi-ye Bala;Bala", "name": "\u0642\u0631\u063a\u06cc\u0632 \u0628\u0627\u0644\u0627", "name:en": "Qarghiz-e Bala", "name:ps": "\u0642\u0631\u063a\u06cc\u0632 \u0628\u0627\u0644\u0627", "name:ru": "\u0411\u0430\u043b\u0430;\u0642\u0631\u063a\u064a\u0632 \u0628\u0627\u0644\u0627;\u0642\u0631\u063a\u0632\u06cc \u0628\u0627\u0644\u0627", "place": "village", "source:name": "GNS"}}, {"type": "node", "id": 4391673393, "lat": 36.693016, "lon": 69.13147, "tags": {"alt_name": "\u0642\u0631\u063a\u0632\u06cc \u067e\u0627\u0626\u06cc\u0646;\u0642\u0631\u063a\u064a\u0632 \u067e\u0627\u0626\u064a\u0646;Kargyzi;Kargyzi Pain;Pain;Qarghez-i-Pa`in;Qarghiz-e Pa'in;Qarghez-e Pa`in;Qarghayz-e Pa'in", "name": "\u0642\u0631\u063a\u06cc\u0632 \u067e\u0627\u0626\u06cc\u0646", "name:en": "Qarghizi-ye Pa'in", "name:ps": "\u0642\u0631\u063a\u06cc\u0632 \u067e\u0627\u0626\u06cc\u0646", "name:ru": "\u041a\u0430\u0440\u0433\u044b\u0437\u0438 \u041f\u0430\u0438\u043d", "place": "village", "source:name": "GNS"}}, {"type": "node", "id": 7486163678, "lat": 36.4793655, "lon": 69.2809416, "tags": {"place": "village"}}, {"type": "node", "id": 7486163679, "lat": 36.4858353, "lon": 69.3403364, "tags": {"place": "village"}}, {"type": "node", "id": 7486166615, "lat": 36.3655726, "lon": 69.3945405, "tags": {"place": "village"}}, {"type": "node", "id": 8780331168, "lat": 36.5437858, "lon": 69.1594291, "tags": {"place": "hamlet"}}, {"type": "node", "id": 8780331169, "lat": 36.545333, "lon": 69.1508889, "tags": {"place": "hamlet"}}, {"type": "node", "id": 8780331170, "lat": 36.5573303, "lon": 69.1410184, "tags": {"place": "village"}}, {"type": "node", "id": 8780331171, "lat": 36.5548612, "lon": 69.1606092, "tags": {"place": "hamlet"}}, {"type": "node", "id": 8780331172, "lat": 36.5544259, "lon": 69.1739666, "tags": {"place": "village"}}, {"type": "node", "id": 8780331173, "lat": 36.5382605, "lon": 69.1686505, "tags": {"place": "hamlet"}}, {"type": "node", "id": 8780331174, "lat": 36.5429195, "lon": 69.1795778, "tags": {"place": "hamlet"}}, {"type": "node", "id": 8781088473, "lat": 36.3797888, "lon": 69.2843717, "tags": {"place": "village"}}, {"type": "node", "id": 8781104432, "lat": 36.3570075, "lon": 69.2653334, "tags": {"place": "village"}}, {"type": "node", "id": 8781104462, "lat": 36.3677295, "lon": 69.2673719, "tags": {"place": "hamlet"}}]}