{"version": 0.6, "generator": "Overpass API 0.7.61.5 4133829e", "osm3s": {"timestamp_osm_base": "2024-03-05T15:06:00Z", "copyright": "The data included in this document is from www.openstreetmap.org. The data is made available under ODbL."}, "elements": [{"type": "node", "id": 30061453, "lat": 64.8180976, "lon": 14.2397171, "tags": {"name": "Ankarede", "place": "hamlet", "source": "Survey"}}, {"type": "node", "id": 288086012, "lat": 64.821721, "lon": 14.0604005, "tags": {"name": "Mittilia", "place": "hamlet", "source": "survey, roadsign"}}, {"type": "node", "id": 288086013, "lat": 64.8043414, "lon": 14.0706795, "tags": {"name": "S\u00f6dra Bl\u00e5sj\u00f6n", "place": "hamlet", "source": "survey, roadsign"}}, {"type": "node", "id": 1668505139, "lat": 64.8355165, "lon": 14.0823988, "tags": {"name": "Stora Bl\u00e5sj\u00f6n", "place": "village", "ref:se:pts:postort": "STORA BL\u00c5SJ\u00d6N", "source": "survey, roadsign"}}, {"type": "node", "id": 9822450880, "lat": 64.8834111, "lon": 13.8141711, "tags": {"name": "Kj\u00e6rnes", "place": "hamlet", "ssr:stedsnr": "135234"}}, {"type": "node", "id": 9822450894, "lat": 64.8879295, "lon": 13.9631795, "tags": {"name": "Vallervatnet", "place": "hamlet", "ssr:stedsnr": "621287"}}, {"type": "node", "id": 9822450912, "lat": 64.8817861, "lon": 13.7444707, "tags": {"name": "Hudningslia", "place": "hamlet", "ssr:stedsnr": "971319"}}]}