{"version": 0.6, "generator": "Overpass API 0.7.61.5 4133829e", "osm3s": {"timestamp_osm_base": "2024-02-29T13:48:25Z", "copyright": "The data included in this document is from www.openstreetmap.org. The data is made available under ODbL."}, "elements": [{"type": "node", "id": 5591164723, "lat": 7.281661, "lon": -2.8850707, "tags": {"amenity": "school", "name": "Dormaa Ahenkro Vocational & Technical School", "note": "First vocational & Technical school in Dormaa-East District", "operator": "Govt"}}, {"type": "node", "id": 6948986497, "lat": 7.2776768, "lon": -2.8739653, "tags": {"amenity": "school", "name": "Attesikrom Islamic Basic"}}, {"type": "node", "id": 6979129885, "lat": 7.3850563, "lon": -2.9396159, "tags": {"amenity": "school", "name": "Dababi Basic school"}}, {"type": "node", "id": 6979131285, "lat": 7.4292603, "lon": -2.9406851, "tags": {"amenity": "school", "name": "Dayame Presbyterian Basic school"}}, {"type": "node", "id": 6979149185, "lat": 7.4595755, "lon": -2.9365664, "tags": {"amenity": "school", "name": "Nsesreso RC Basic school"}}, {"type": "node", "id": 6979152585, "lat": 7.4612696, "lon": -2.9370598, "tags": {"amenity": "school", "name": "Nsesreso MA Basic school"}}, {"type": "node", "id": 6979266086, "lat": 7.2904112, "lon": -2.8934698, "tags": {"amenity": "school", "name": "Kofi Asua MA Basic school"}}, {"type": "node", "id": 6979266185, "lat": 7.3023689, "lon": -2.947021, "tags": {"amenity": "school", "name": "Antwirifo Methodist Basic school"}}, {"type": "node", "id": 6979666185, "lat": 7.2696504, "lon": -2.8805272}, {"type": "node", "id": 7060479687, "lat": 7.2719477, "lon": -2.8687742, "tags": {"amenity": "school", "name": "Dormaa MA Basic school"}}, {"type": "node", "id": 7247416086, "lat": 7.5961221, "lon": -2.8840094, "tags": {"amenity": "school", "name": "Dodosuo DA Basic"}}, {"type": "node", "id": 8011986785, "lat": 7.3371612, "lon": -2.9617208, "tags": {"amenity": "school", "name": "Agyemangkrom MA Basic school"}}, {"type": "node", "id": 8146213316, "lat": 7.2743758, "lon": -2.862727}, {"type": "node", "id": 8146213317, "lat": 7.2764697, "lon": -2.8623435}, {"type": "node", "id": 8146213318, "lat": 7.277349, "lon": -2.8621987}, {"type": "node", "id": 8146213319, "lat": 7.2783846, "lon": -2.8621142}, {"type": "node", "id": 8146213320, "lat": 7.2786287, "lon": -2.8620619}, {"type": "node", "id": 8146213321, "lat": 7.2804858, "lon": -2.8614557}, {"type": "node", "id": 8146213322, "lat": 7.2829655, "lon": -2.8606778}, {"type": "node", "id": 8146213323, "lat": 7.2825558, "lon": -2.8559572}, {"type": "node", "id": 8146213324, "lat": 7.2820662, "lon": -2.8558284}, {"type": "node", "id": 8146213325, "lat": 7.2820183, "lon": -2.8539616}, {"type": "node", "id": 8146213326, "lat": 7.278219, "lon": -2.8541815}, {"type": "node", "id": 8146213327, "lat": 7.278219, "lon": -2.8547502}, {"type": "node", "id": 8146213328, "lat": 7.2727142, "lon": -2.8547233}, {"type": "node", "id": 8146213329, "lat": 7.2727488, "lon": -2.8571132}, {"type": "node", "id": 8146213330, "lat": 7.2728659, "lon": -2.8591879}, {"type": "node", "id": 8146213331, "lat": 7.2731213, "lon": -2.8606148}, {"type": "node", "id": 8146213332, "lat": 7.2736295, "lon": -2.8628343}, {"type": "node", "id": 9188598680, "lat": 7.2689927, "lon": -2.8776866}, {"type": "node", "id": 9188598681, "lat": 7.2701004, "lon": -2.8774249}, {"type": "node", "id": 9188598682, "lat": 7.2706923, "lon": -2.8800631}, {"type": "way", "id": 875158859, "nodes": [8146213332, 8146213331, 8146213330, 8146213329, 8146213328, 8146213327, 8146213326, 8146213325, 8146213324, 8146213323, 8146213322, 8146213321, 8146213320, 8146213319, 8146213318, 8146213317, 8146213316, 8146213332], "tags": {"addr:country": "GH", "addr:district": "Dormaa Central Municipal", "addr:place": "Dormaa Ahenkro", "addr:region": "Bono", "amenity": "school", "description": "Dormaa Senior High was the first secondary school between Bono and Ashanti Regions, established in 1947.", "email": "dormaashs@ges.gov.gh", "isced:level": "3", "name": "Dormaa Senior High School", "operator": "Ghana Education Service", "operator:short": "GES", "operator:type": "public", "operator:wikidata": "Q30263788", "phone": "+233 24 330 4367", "start_date": "1947"}}, {"type": "way", "id": 995055032, "nodes": [9188598682, 9188598681, 9188598680, 6979666185, 9188598682], "tags": {"amenity": "school", "fixme": "boundary", "name": "Dormaa SDA Basic school"}}]}