{"version": 0.6, "generator": "Overpass API 0.7.61.5 4133829e", "osm3s": {"timestamp_osm_base": "2024-03-05T14:53:32Z", "copyright": "The data included in this document is from www.openstreetmap.org. The data is made available under ODbL."}, "elements": [{"type": "node", "id": 251707119, "lat": 60.1228674, "lon": 11.4675748, "tags": {"amenity": "bank", "branch": "\u00c5rnes", "brand": "Aurskog Sparebank", "name": "Aurskog Sparebank \u00c5rnes", "ref:bankorg": "982175194", "website": "http://www.aurskog-sparebank.no"}}, {"type": "node", "id": 451376530, "lat": 60.1238272, "lon": 11.4667019, "tags": {"amenity": "bank", "branch": "\u00c5rnes", "brand": "Sparebank 1 \u00d8stlandet", "name": "Sparebank 1 \u00d8stlandet \u00c5rnes", "ref:bankorg": "995199017"}}, {"type": "node", "id": 3652641095, "lat": 59.985861, "lon": 12.1227762, "tags": {"amenity": "bank", "atm": "yes", "branch": "Kongsvinger, Skotterud", "brand": "Sparebank 1 \u00d8stlandet", "name": "Sparebank 1 \u00d8stlandet Kongsvinger, Skotterud", "ref:bankorg": "980676293"}}, {"type": "node", "id": 9254443954, "lat": 59.9991086, "lon": 11.3118223, "tags": {"amenity": "bank", "branch": "Blaker", "brand": "Blaker Sparebank", "name": "Blaker Sparebank Blaker", "ref:bankorg": "974289490"}}, {"type": "node", "id": 9254443957, "lat": 60.0341353, "lon": 11.3511779, "tags": {"amenity": "bank", "branch": "Auli", "brand": "Blaker Sparebank", "name": "Blaker Sparebank Auli", "ref:bankorg": "974289504"}}, {"type": "node", "id": 9254443963, "lat": 59.9281806, "lon": 11.4460167, "tags": {"amenity": "bank", "branch": "Aurskog", "brand": "Aurskog Sparebank", "name": "Aurskog Sparebank Aurskog", "ref:bankorg": "971661208"}}, {"type": "node", "id": 9254444329, "lat": 60.2543598, "lon": 11.6799811, "tags": {"amenity": "bank", "branch": "Skarnes", "brand": "Odal Sparebank", "name": "Odal Sparebank Skarnes", "ref:bankorg": "973125567"}}, {"type": "node", "id": 9254444330, "lat": 60.1909107, "lon": 11.9967991, "tags": {"amenity": "bank", "branch": "Kongsvinger", "brand": "Odal Sparebank", "name": "Odal Sparebank Kongsvinger", "ref:bankorg": "983363415"}}, {"type": "node", "id": 9258384855, "lat": 60.2537157, "lon": 11.679619, "tags": {"amenity": "bank", "branch": "Kongsvinger, Skarnes", "brand": "Sparebank 1 \u00d8stlandet", "name": "Sparebank 1 \u00d8stlandet Kongsvinger, Skarnes", "ref:bankorg": "994554514"}}, {"type": "node", "id": 9258384856, "lat": 60.186656, "lon": 12.004346, "tags": {"amenity": "bank", "branch": "Kongsvinger, G\u00e5gata", "brand": "Sparebank 1 \u00d8stlandet", "name": "Sparebank 1 \u00d8stlandet Kongsvinger, G\u00e5gata", "ref:bankorg": "973124005"}}, {"type": "node", "id": 9262830571, "lat": 60.1929177, "lon": 12.0006828, "tags": {"amenity": "bank", "branch": "Kongsvinger", "brand": "DNB", "name": "DNB Kongsvinger", "ref:dnb": "44"}}]}