{"version": 0.6, "generator": "Overpass API 0.7.61.5 4133829e", "osm3s": {"timestamp_osm_base": "2024-03-06T11:17:45Z", "copyright": "The data included in this document is from www.openstreetmap.org. The data is made available under ODbL."}, "elements": [{"type": "node", "id": 599019138, "lat": 36.1911744, "lon": 44.0094145, "tags": {"alt_name": "\u06be\u06d5\u0648\u0644\u06ce\u0631", "alt_name:ar": "\u0625\u0631\u0628\u0644;\u0647\u0648\u0644\u064a\u0631;\u0627\u0631\u0628\u064a\u0644", "alt_name:arc": "\u0721\u0715\u071d\u0722\u072c\u0710 \u0715\u0710\u072a\u0712\u071d\u0720", "alt_name:cs": "Erb\u00edl", "alt_name:en": "Hawler", "alt_name:ku": "Hevl\u00ear", "alt_name:syc": "\u0721\u0715\u071d\u0722\u072c\u0710 \u0715\u0710\u072a\u0712\u071d\u0720", "capital": "4", "ele": "390", "is_capital": "region", "name": "\u06be\u06d5\u0648\u0644\u06ce\u0631", "name:ar": "\u0623\u0631\u0628\u064a\u0644", "name:arc": "\u0710\u072a\u0712\u071d\u0720", "name:azb": "\u0647\u06d5\u0648\u0644\u06ce\u0631", "name:ckb": "\u06be\u06d5\u0648\u0644\u06ce\u0631", "name:cs": "Hawl\u00ear", "name:de": "Erbil", "name:en": "Erbil", "name:es": "Erbil", "name:et": "Erbil", "name:eu": "Arbil", "name:fa": "\u0627\u0631\u0628\u06cc\u0644", "name:fi": "Erbil", "name:fr": "Erbil", "name:he": "\u05d0\u05e8\u05d1\u05d9\u05dc", "name:hi": "\u0905\u0930\u092c\u0940\u0932", "name:hr": "Erbil", "name:kmr": "Hewl\u00ear", "name:ks": "\u0627\u0631\u0628\u0644", "name:ku": "\u0647\u06d5\u0648\u0644\u06ce\u0631", "name:la": "Arbela", "name:lt": "Erbil", "name:ml": "\u0d05\u0d7c\u0d2c\u0d3f\u0d7d", "name:mzn": "\u0627\u0631\u0628\u0644", "name:pnb": "\u0627\u0631\u0628\u0644", "name:ps": "\u0627\u0631\u0628\u0644", "name:ru": "\u0425\u0430\u0443\u043b\u044d\u0440\u044c", "name:sdh": "\u0647\u06d5\u0648\u0644\u06ce\u0631", "name:syc": "\u0710\u072a\u0712\u071d\u0720", "name:te": "\u0c0e\u0c30\u0c4d\u0c2c\u0c3f\u0c32\u0c4d", "name:tr": "Erbil", "name:uk": "\u0415\u0440\u0431\u0456\u043b\u044c", "name:ur": "\u0627\u0631\u0628\u0644", "name:zh": "\u57c3\u5c14\u6bd4\u52d2", "openGeoDB:telephone_area_code": "066", "place": "city", "population": "2250000", "population:date": "2020", "postal_code": "44001", "province": "\u06be\u06d5\u0648\u0644\u06ce\u0631", "tourism": "yes", "wikidata": "Q132754", "wikipedia": "ckb:\u06be\u06d5\u0648\u0644\u06ce\u0631"}}, {"type": "node", "id": 599046987, "lat": 36.4000298, "lon": 44.3367682, "tags": {"alt_name": "\u0634\u06d5\u0642\u0631\u0627\u0648\u06d5", "alt_name:en": "Shaqrawa", "alt_name:ku": "\u015eeqrawe", "capital": "7", "loc_name": "\u0634\u06d5\u0642\u0631\u0627\u0648\u06d5", "name": "\u0634\u06d5\u0642\u06b5\u0627\u0648\u06d5", "name:ar": "\u0634\u0642\u0644\u0627\u0648\u0629", "name:arc": "\u072b\u0729\u0720\u0712\u0715", "name:ckb": "\u0634\u06d5\u0642\u06b5\u0627\u0648\u06d5", "name:de": "Schaqlawa", "name:en": "Shaqlawa", "name:fr": "Shaqlawa", "name:ku": "\u015eeqllawe", "place": "town", "population": "26261", "postal_code": "44005", "wikidata": "Q2231235", "wikipedia": "ckb:\u0634\u06d5\u0642\u06b5\u0627\u0648\u06d5"}}, {"type": "node", "id": 1438216652, "lat": 36.3698417, "lon": 44.20186}, {"type": "node", "id": 1438216653, "lat": 36.3710842, "lon": 44.1956874}, {"type": "node", "id": 1438216654, "lat": 36.3760626, "lon": 44.2069029}, {"type": "node", "id": 1438216655, "lat": 36.3782737, "lon": 44.2167705}, {"type": "node", "id": 1438216656, "lat": 36.3735755, "lon": 44.204123}, {"type": "node", "id": 1438216658, "lat": 36.3741291, "lon": 44.1918082}, {"type": "node", "id": 1438216659, "lat": 36.3794035, "lon": 44.2173293}, {"type": "node", "id": 1438216667, "lat": 36.378029, "lon": 44.1857994}, {"type": "node", "id": 1438216669, "lat": 36.3906918, "lon": 44.202242}, {"type": "node", "id": 1438216670, "lat": 36.4001033, "lon": 44.1817546}, {"type": "node", "id": 2135696849, "lat": 36.1520853, "lon": 44.1121197, "tags": {"alt_name": "\u0628\u0646\u06d5\u0633\u0631\u0627\u0648\u06d5", "alt_name:ar": "\u0628\u0646\u0633\u0644\u0627\u0648\u0629", "loc_name": "\u0628\u0646\u06d5\u0633\u0631\u0627\u0648\u06d5", "name": "\u0628\u0646\u06d5\u0633\u06b5\u0627\u0648\u06d5", "name:ar": "\u0628\u0646\u0635\u0644\u0627\u0648\u0629", "name:ckb": "\u0628\u0646\u06d5\u0633\u06b5\u0627\u0648\u06d5", "name:en": "Bnaslawa", "name:ku": "Binesillawe", "place": "town", "population": "80000", "postal_code": "44017", "type": "town"}}, {"type": "node", "id": 2136497882, "lat": 36.2476892, "lon": 44.08476, "tags": {"alt_name": "\u0634\u0627\u0648\u06cc\u0633", "name": "\u0634\u0627\u0648\u06ce\u0633", "name:ar": "\u0634\u0627\u0648\u06cc\u0633", "name:ckb": "\u0634\u0627\u0648\u06ce\u0633", "name:en": "Shawes", "name:ku": "\u015eaw\u00eas", "place": "town"}}, {"type": "node", "id": 2136502188, "lat": 36.2977882, "lon": 44.1355718, "tags": {"name": "\u0645\u06d5\u0644\u0627 \u0626\u06c6\u0645\u06d5\u0631", "name:ckb": "\u0645\u06d5\u0644\u0627 \u0626\u06c6\u0645\u06d5\u0631", "name:en": "Mala Omar", "name:ku": "Mela Omer", "place": "village"}}, {"type": "node", "id": 2397628662, "lat": 36.4031697, "lon": 44.3470917, "tags": {"name": "\u0633\u0627\u0628\u06cc\u0631\u0627\u0648\u06d5", "name:ar": "\u0635\u0627\u0628\u0631\u0627\u0648\u0629", "name:ckb": "\u0633\u0627\u0628\u06cc\u0631\u0627\u0648\u06d5", "name:en": "Sabirawa", "name:ku": "Sab\u00eerawe", "place": "village"}}, {"type": "node", "id": 2397666380, "lat": 36.3144323, "lon": 44.1609002, "tags": {"name": "\u06af\u0648\u0646\u062f\u06cc \u0626\u06d5\u0645\u0631\u06cc\u06a9\u06cc", "name:ar": "\u0627\u0644\u0642\u0631\u064a\u0629 \u0627\u0644\u0627\u0645\u0631\u064a\u0643\u064a\u0629", "name:en": "American Village", "name:ku": "\u06af\u0648\u0646\u062f\u06cc \u0626\u06d5\u0645\u0631\u06cc\u06a9\u06cc", "place": "village"}}, {"type": "node", "id": 2401483508, "lat": 36.4813854, "lon": 44.3015587, "tags": {"name": "\u0634\u06ce\u0631\u0627\u0648\u06d5", "name:en": "Sherawa", "place": "village"}}, {"type": "node", "id": 2401483509, "lat": 36.4891502, "lon": 44.2921785, "tags": {"name": "\u06a9\u0648\u0646\u06d5\u0642\u06cc\u0631", "name:ckb": "\u06a9\u0648\u0646\u06d5\u0642\u06cc\u0631", "name:en": "Kuna Qir", "name:ku": "Kune Q\u00eer", "place": "village"}}, {"type": "node", "id": 2479372349, "lat": 36.0859903, "lon": 44.0621217, "tags": {"alt_name": "\u0628\u0627\u063a\u0645\u0631\u0629 \u0627\u0644\u0643\u0628\u064a\u0631", "name": "\u0628\u0627\u063a\u06d5\u0645\u0631\u06d5 \u0626\u06d5\u0641\u06d5\u0646\u062f\u06cc", "name:ar": "\u0628\u0627\u063a\u0645\u0631\u0629\u0627\u0641\u0646\u062f\u0649", "name:ckb": "\u0628\u0627\u063a\u06d5\u0645\u0631\u06d5 \u0626\u06d5\u0641\u06d5\u0646\u062f\u06cc", "name:en": "BaxamraAfandi", "place": "village"}}, {"type": "node", "id": 2479376283, "lat": 36.227898, "lon": 44.0441615, "tags": {"alt_name": "\u0628\u064a\u0631\u0643\u0648\u062a", "int_name": "B\u0113rk\u014dt, B\u012brk\u016bt, \u0628\u064a\u0631\u0643\u0648\u062a, Berkot, Birkut, \u0628\u064a\u0631\u0643\u0648\u062a", "name": "\u0628\u06cc\u0631\u06a9\u06c6\u062a", "name:ar": "\u0628\u064a\u0631\u0643\u0648\u062a", "name:ckb": "\u0628\u06cc\u0631\u06a9\u06c6\u062a", "name:de": "Birkot", "name:en": "Birkot", "name:fr": "Birkot", "name:ku": "B\u00eerkot", "place": "village"}}, {"type": "node", "id": 2479377404, "lat": 36.429006, "lon": 44.010795, "tags": {"name": "\u0642\u06d5\u067e\u06d5\u06a9\u06cc\u0627\u0646", "name:en": "Qapakyan", "place": "village"}}, {"type": "node", "id": 2480142526, "lat": 36.3189417, "lon": 44.0383507, "tags": {"alt_name": "\u0628\u06d5\u062d\u0631\u06a9\u06d5", "alt_name:ku": "Behirke", "capital": "7", "int_name": "Baharka, Bahirka, Bahirkah, \u0628\u0647\u0631\u0643\u0629", "name": "\u0628\u06d5\u062d\u0631\u06a9\u06d5", "name:ar": "\u0628\u062d\u0631\u0643\u0629", "name:ckb": "\u0628\u06d5\u062d\u0631\u06a9\u06d5", "name:de": "Baharka", "name:en": "Baharka", "name:fr": "Baharka", "name:ku": "Be\u1e27irke", "place": "town", "population": "32710", "wikidata": "Q65401417", "wikipedia": "ckb:\u0628\u06d5\u062d\u0631\u06a9\u06d5"}}, {"type": "node", "id": 2480142527, "lat": 36.3651583, "lon": 44.1136341, "tags": {"alt_name": "\u0628\u0631\u0628\u064a\u0627\u0646", "int_name": "Barbiy\u0101n, Barbiy\u0101n Darhh, Barbiy\u0101n D\u0113ra, Brbian, \u0628\u0631\u0628\u064a\u0627\u0646, Barbiyan, Barbiyan Darhh, Barbiyan Dera, Brbian, \u0628\u0631\u0628\u064a\u0627\u0646", "name": "\u0628\u06d5\u0631\u0628\u064a\u0627\u0646 \u06af\u06d5\u0648\u0631\u06d5", "name:ar": "\u0628\u0631\u0628\u064a\u0627\u0646", "name:ar1": "\u0628\u0631\u0628\u064a\u0627\u0646", "name:de": "Barbiyan Big", "name:en": "Barbiyan", "name:fr": "Barbiyan", "place": "village"}}, {"type": "node", "id": 2480142528, "lat": 36.369658, "lon": 44.037515, "tags": {"alt_name": "\u0628\u0631\u0628\u064a\u0627\u0646", "int_name": "Barbiy\u0101n, Brbian, Parp\u012bl\u0101n, \u0628\u0631\u0628\u064a\u0627\u0646, Barbiyan, Brbian, Parpilan, \u0628\u0631\u0628\u064a\u0627\u0646", "is_in": "Iraq , \u062c\u0645\u0647\u0648\u0631\u064a\u0629 \u0627\u0644\u0639\u0631\u0627\u0642", "name": "\u067e\u06d5\u0631\u067e\u06cc\u062a\u0627\u0646", "name:ar": "\u067e\u06d5\u0631\u067e\u06cc\u062a\u0627\u0646", "name:ar1": "\u0628\u0631\u0628\u064a\u0627\u0646", "name:de": "Barbiyan", "name:en": "Parpitan", "name:fr": "Barbiyan", "name:ku": "\u067e\u06d5\u0631\u067e\u06cc\u062a\u0627\u0646", "place": "village"}}, {"type": "node", "id": 2480142530, "lat": 36.2668593, "lon": 44.0705852, "tags": {"name": "\u067e\u06cc\u0631\u0632\u06cc\u0646", "name:ar": "\u0628\u064a\u0631\u0632\u064a\u0646", "name:ckb": "\u067e\u06cc\u0631\u0632\u06cc\u0646", "name:en": "Pirzin", "name:ku": "P\u00eerz\u00een", "place": "town"}}, {"type": "node", "id": 2480142532, "lat": 36.3155545, "lon": 44.1368083, "tags": {"alt_name": "\u0628\u06c6\u0644\u0627\u0642", "int_name": "Bragh, \u0628\u0631\u0627\u063a", "name": "\u0628\u0631\u0627\u063a", "name:ckb": "\u0628\u0631\u0627\u063a", "name:de": "Bragh", "name:en": "Bragh", "name:fr": "Bragh", "name:ku": "Brax", "place": "village", "population": "1975"}}, {"type": "node", "id": 2480142533, "lat": 36.333838, "lon": 44.132615, "tags": {"alt_name": "\u0645\u062c\u0645\u0639 \u0642\u0631\u0649 \u0628\u0627\u0633\u062a\u0648\u0631\u0629", "int_name": "Bstora, Mujamma Qur\u00e1 B\u0101st\u016brah, \u0645\u062c\u0645\u0639 \u0642\u0631\u0649 \u0628\u0627\u0633\u062a\u0648\u0631\u0647, Bstora, Mujamma Qura Basturah, \u0645\u062c\u0645\u0639 \u0642\u0631\u0649 \u0628\u0627\u0633\u062a\u0648\u0631\u0647", "name": "\u06a9\u06c6\u0645\u06d5\u0644\u06af\u0627\u06cc \u0628\u06d5\u0633\u062a\u06c6\u0695\u06d5", "name:ar": "\u0645\u062c\u0645\u0639 \u0642\u0631\u0649 \u0628\u0627\u0633\u062a\u0648\u0631\u0629", "name:ar1": "\u0645\u062c\u0645\u0639 \u0642\u0631\u0649 \u0628\u0627\u0633\u062a\u0648\u0631\u0629", "name:de": "Bstora", "name:en": "Bstora", "name:fr": "Bstora", "place": "village"}}, {"type": "node", "id": 2480142534, "lat": 36.2946751, "lon": 44.052879, "tags": {"name": "\u06a9\u06d5\u0644\u06d5\u06a9\u0627\u0646", "name:ar": "\u0643\u0644\u0643\u0627\u0646", "name:ckb": "\u06a9\u06d5\u0644\u06d5\u06a9\u0627\u0646", "name:de": "Kalakan", "name:en": "Kalakan", "name:fr": "Kalakan", "name:ku": "Kelekan", "place": "village"}}, {"type": "node", "id": 2480142535, "lat": 36.2599603, "lon": 44.0352897, "tags": {"alt_name": "\u0643\u0631\u0643", "int_name": "Girik, Karik, \u0643\u0631\u0643, Girik, Karik, \u0643\u0631\u0643", "name": "\u06a9\u06d5\u0695\u06a9", "name:ar": "\u0643\u0631\u0643", "name:ckb": "\u06a9\u06d5\u0631\u06a9", "name:de": "Kark", "name:en": "Kark", "name:fr": "Kark", "name:ku": "Kerk", "place": "village"}}, {"type": "node", "id": 2480142538, "lat": 36.256934, "lon": 44.093533, "tags": {"alt_name": "\u0643\u0631\u0629 \u062c\u064a\u0646", "int_name": "Karah J\u012bn, \u0643\u0631\u0629 \u062c\u064a\u0646, Karah Jin, \u0643\u0631\u0629 \u062c\u064a\u0646", "name": "\u06a9\u06d5\u0644\u06d5\u06a9\u06cc\u0646", "name:ar": "\u0643\u0644\u0643\u064a\u0646", "name:ckb": "\u06a9\u06d5\u0644\u06d5\u06a9\u06cc\u0646", "name:de": "Kalakin", "name:en": "Kalakin", "name:fr": "Kalakin", "name:ku": "Kelek\u00een", "place": "village"}}, {"type": "node", "id": 2480142542, "lat": 36.355666, "lon": 44.101773, "tags": {"alt_name": "\u0642\u0644\u0629 \u0645\u0648\u062c\u064a\u0627\u0646", "int_name": "Qallah M\u016bjiy\u0101n, \u0642\u0644\u0629 \u0645\u0648\u062c\u064a\u0627\u0646, Qallah Mujiyan, \u0642\u0644\u0629 \u0645\u0648\u062c\u064a\u0627\u0646", "name": "\u0642\u06d5\u0644\u0627 \u0645\u0648\u0631\u062a\u06a9", "name:ar": "\u0642\u0644\u0629 \u0645\u0648\u062c\u064a\u0627\u0646", "name:ar1": "\u0642\u0644\u0629 \u0645\u0648\u062c\u064a\u0627\u0646", "name:de": "Qallah Mujiyan", "name:en": "Qallah Mujiyan", "name:fr": "Qallah Mujiyan", "place": "village"}}, {"type": "node", "id": 2480142543, "lat": 36.2888121, "lon": 44.141325, "tags": {"alt_name": "\u0634\u0648\u0643", "int_name": "Shawak, Shawk, \u0634\u0648\u0643, Shawak, Shawk, \u0634\u0648\u0643", "name": "\u0634\u06d5\u0648\u06c6\u06a9", "name:ar": "\u0634\u0648\u0648\u0643", "name:ckb": "\u0634\u06d5\u0648\u06c6\u06a9", "name:en": "Shawok", "name:ku": "\u015eewok", "place": "village"}}, {"type": "node", "id": 2480142545, "lat": 36.2960515, "lon": 44.0139046, "tags": {"alt_name": "\u0634\u06ce\u062e\u06d5 \u0634\u06d5\u0644", "name": "\u0634\u06ce\u062e\u06d5\u0634\u06d5\u0644", "name:ar": "\u0634\u06ce\u062e\u06d5 \u0634\u06d5\u0644", "name:en": "Shekha Shal", "name:ku": "\u015e\u00eaxe \u015eel", "place": "village", "population": "1002"}}, {"type": "node", "id": 2488195291, "lat": 36.1056886, "lon": 44.5088175, "tags": {"int_name": "Takawl, Takwal, Taqwal, \u062a\u0643\u0648\u0644, Takawl, Takwal, Taqwal, \u062a\u0643\u0648\u0644", "name": "\u062a\u06d5\u06a9\u06d5\u0648\u06b5", "name:ar": "\u062a\u0643\u0648\u0644", "name:ar1": "\u062a\u0643\u0648\u0644", "name:ckb": "\u062a\u06d5\u06a9\u06d5\u0648\u06b5", "name:de": "Takawl", "name:en": "Takawl", "name:fr": "Takawl", "place": "village"}}, {"type": "node", "id": 2488196502, "lat": 36.3173965, "lon": 44.5010873, "tags": {"alt_name": "\u0641\u0631\u064a\u0632", "int_name": "Firayz, Friz, Fr\u012bz, \u0641\u0631\u064a\u0632, Firayz, Friz, Friz, \u0641\u0631\u064a\u0632", "name": "\u0641\u0631\u064a\u0632", "name:ar": "\u0641\u0631\u064a\u0632", "name:ar1": "\u0641\u0631\u064a\u0632", "name:de": "Firayz", "name:en": "Firayz", "name:fr": "Firayz", "place": "village"}}, {"type": "node", "id": 2488196512, "lat": 36.2798304, "lon": 44.4924823, "tags": {"alt_name": "\u0647\u064a\u0631\u0627\u0646", "capital": "7", "name": "\u06be\u06cc\u0631\u0627\u0646", "name:ar": "\u0647\u064a\u0631\u0627\u0646", "name:ckb": "\u06be\u06cc\u0631\u0627\u0646", "name:de": "Hiran", "name:en": "Hiran", "name:fr": "Hiran", "name:ku": "H\u00eeran", "name:ru": "\u0425\u0438\u0440\u0430\u043d", "place": "town"}}, {"type": "node", "id": 2488196515, "lat": 36.3476862, "lon": 44.4741875, "tags": {"alt_name": "\u0633\u0628\u0646\u062f\u0627\u0631\u0629", "int_name": "Sbind\u0101rah, Sipind\u0101 ah, Spidara, Spind\u0101ra, \u0633\u0628\u0646\u062f\u0627\u0631\u0629, \u0633\u0628\u0646\u062f\u0627\u0631\u0647, Sbindarah, Sipinda ah, Spidara, Spindara, \u0633\u0628\u0646\u062f\u0627\u0631\u0629, \u0633\u0628\u0646\u062f\u0627\u0631\u0647", "name": "\u0633\u067e\u06cc\u0646\u062f\u0627\u0631\u06d5", "name:ar": "\u0633\u0628\u064a\u0646\u062f\u0627\u0631\u0629", "name:ckb": "\u0633\u067e\u06cc\u0646\u062f\u0627\u0631\u06d5", "name:en": "Spindara", "name:ku": "Sip\u00eendare", "place": "village"}}, {"type": "node", "id": 2488208468, "lat": 36.4870124, "lon": 44.4777546, "tags": {"admin_level": "9", "name": "\u0634\u0627\u0631\u0633\u06cc\u0646\u06d5", "name:ar": "\u0634\u0627\u0631\u0633\u06cc\u0646\u06d5", "name:ckb": "\u0634\u0627\u0631\u0633\u06cc\u0646\u06d5", "name:de": "Sharsina", "name:en": "Sharsina", "name:fr": "Sharsina", "place": "village"}}, {"type": "node", "id": 2488208477, "lat": 36.4768086, "lon": 44.4777668, "tags": {"admin_level": "9", "name": "\u062a\u0627\u0631\u0627\u0648\u06d5", "name:ar": "\u062a\u0627\u0631\u0627\u0648\u06d5", "name:ckb": "\u062a\u0627\u0631\u0627\u0648\u06d5", "name:de": "Tarawa", "name:en": "Tarawa", "name:fr": "Tarawa", "place": "village"}}, {"type": "node", "id": 2488208501, "lat": 36.4804269, "lon": 44.4889364, "tags": {"admin_level": "9", "name": "\u062a\u0648\u062a\u0645\u06d5\u0631\u06d5", "name:ar": "\u062a\u0648\u062a\u0645\u0627\u0631\u0627", "name:ckb": "\u062a\u0648\u062a\u0645\u06d5\u0631\u06d5", "name:de": "Tutmara", "name:en": "Tutmara", "name:fr": "Tutmara", "place": "village"}}, {"type": "node", "id": 2488259147, "lat": 36.352147, "lon": 44.426724, "tags": {"alt_name": "\u0622\u0642\u0648\u0628\u0627\u0646 \u0627\u0644\u0633\u0641\u0644\u0649", "int_name": "Akoban Khwaru, \u0100q\u016bb\u0101n as Sufl\u00e1, Aq\u016bb\u0101n i Khw\u0101r\u016b, \u0622\u0642\u0648\u0628\u0627\u0646 \u0627\u0644\u0633\u0641\u0644\u0649, Akoban Khwaru, Aquban as Sufla, Aquban i Khwaru, \u0622\u0642\u0648\u0628\u0627\u0646 \u0627\u0644\u0633\u0641\u0644\u0649", "name": "\u0626\u0627\u0642\u0648\u0628\u0627\u0646\u06cc \u062e\u0648\u0627\u0631\u0648\u0648", "name:ar": "\u0622\u0642\u0648\u0628\u0627\u0646 \u0627\u0644\u0633\u0641\u0644\u0649", "name:ckb": "\u0626\u0627\u0642\u0648\u0628\u0627\u0646\u06cc \u062e\u0648\u0627\u0631\u0648\u0648", "name:en": "Lower Aquban", "name:ku": "Aquban\u00ee Xwar\u00fb", "place": "village"}}, {"type": "node", "id": 2488259148, "lat": 36.3462918, "lon": 44.4099088, "tags": {"alt_name": "\u0622\u0642\u0648\u0628\u0627\u0646 \u0627\u0644\u0639\u0644\u064a\u0627", "int_name": "Akoban Saru, \u0100q\u016bb\u0101n al Uly\u0101, Aq\u016bb\u0101n i Zh\u016br\u016b, \u0622\u0642\u0648\u0628\u0627\u0646 \u0627\u0644\u0639\u0644\u064a\u0627, Akoban Saru, Aquban al Ulya, Aquban i Zhuru, \u0622\u0642\u0648\u0628\u0627\u0646 \u0627\u0644\u0639\u0644\u064a\u0627", "name": "\u0626\u0627\u0642\u0648\u0628\u0627\u0646\u06cc \u0633\u06d5\u0631\u0648\u0648", "name:ar": "\u0622\u0642\u0648\u0628\u0627\u0646 \u0627\u0644\u0639\u0644\u064a\u0627", "name:ar1": "\u0622\u0642\u0648\u0628\u0627\u0646 \u0627\u0644\u0639\u0644\u064a\u0627", "name:ckb": "\u0626\u0627\u0642\u0648\u0628\u0627\u0646\u06cc \u0633\u06d5\u0631\u0648\u0648", "name:en": "Upper Aquban", "place": "village"}}, {"type": "node", "id": 2488259149, "lat": 36.3032621, "lon": 44.3366225, "tags": {"name": "\u0626\u06d5\u06b5\u0627\u0648\u06d5", "name:ar": "\u0639\u0644\u0627\u0648\u0647", "name:ar1": "\u0623\u0644\u0627\u0648\u0629", "name:de": "Al Lilawah", "name:en": "ALLawa", "name:fr": "Al Lilawah", "place": "village"}}, {"type": "node", "id": 2488259152, "lat": 36.407268, "lon": 44.221113, "tags": {"alt_name": "\u0627\u0644\u0645\u0627\u0648\u0627\u0646 \u0627\u0644\u0643\u0628\u064a\u0631", "int_name": "Al M\u0101w\u0101n al Kab\u012br, Alm\u0101w\u0101n i K\u014dn, \u0627\u0644\u0645\u0627\u0648\u0627\u0646 \u0627\u0644\u0643\u0628\u064a\u0631, Al Mawan al Kabir, Almawan i Kon, \u0627\u0644\u0645\u0627\u0648\u0627\u0646 \u0627\u0644\u0643\u0628\u064a\u0631", "is_in": "Iraq , \u062c\u0645\u0647\u0648\u0631\u064a\u0629 \u0627\u0644\u0639\u0631\u0627\u0642", "name": "\u0626\u0627\u0644\u0645\u06d5\u0648\u0627\u0646\u06cc \u06af\u06d5\u0648\u0631\u06d5", "name:ar": "\u0627\u0644\u0645\u0627\u0648\u0627\u0646 \u0627\u0644\u0643\u0628\u064a\u0631", "name:ar1": "\u0627\u0644\u0645\u0627\u0648\u0627\u0646 \u0627\u0644\u0643\u0628\u064a\u0631", "name:ckb": "\u0626\u0627\u0644\u0645\u06d5\u0648\u0627\u0646\u06cc \u06af\u06d5\u0648\u0631\u06d5", "place": "village"}}, {"type": "node", "id": 2488259153, "lat": 36.405554, "lon": 44.216971, "tags": {"alt_name": "\u0627\u0644\u0645\u0627\u0648\u0627\u0646 \u0627\u0644\u0635\u063a\u064a\u0631", "int_name": "Al M\u0101w\u0101n a\u015f \u015eagh\u012br, Alm\u0101w\u0101n, \u0627\u0644\u0645\u0627\u0648\u0627\u0646 \u0627\u0644\u0635\u063a\u064a\u0631, Al Mawan as Saghir, Almawan, \u0627\u0644\u0645\u0627\u0648\u0627\u0646 \u0627\u0644\u0635\u063a\u064a\u0631", "is_in": "Iraq , \u062c\u0645\u0647\u0648\u0631\u064a\u0629 \u0627\u0644\u0639\u0631\u0627\u0642", "name": "\u0626\u0627\u0644\u0645\u06d5\u0648\u0627\u0646\u06cc \u0628\u0686\u0648\u0648\u06a9", "name:ar": "\u0627\u0644\u0645\u0627\u0648\u0627\u0646 \u0627\u0644\u0635\u063a\u064a\u0631", "name:ar1": "\u0627\u0644\u0645\u0627\u0648\u0627\u0646 \u0627\u0644\u0635\u063a\u064a\u0631", "name:ckb": "\u0626\u0627\u0644\u0645\u06d5\u0648\u0627\u0646\u06cc \u0628\u0686\u0648\u0648\u06a9", "name:ku": "\u0626\u0627\u0644\u0645\u06d5\u0648\u0627\u0646\u06cc \u0628\u0686\u0648\u0648\u06a9", "place": "village"}}, {"type": "node", "id": 2488259161, "lat": 36.1950465, "lon": 44.4170269, "tags": {"alt_name": "\u0639\u0644\u064a\u0627\u0648\u0629", "int_name": "Aly\u0101wah, Aliawa, Aly\u0101wah, \u0639\u0644\u064a\u0627\u0648\u0629, \u0639\u0644\u064a\u0627\u0648\u0647, Alyawah, Aliawa, Alyawah, \u0639\u0644\u064a\u0627\u0648\u0629, \u0639\u0644\u064a\u0627\u0648\u0647", "name": "\u0639\u06d5\u0644\u06cc\u0627\u0648\u06d5", "name:ar": "\u0639\u0644\u064a\u0627\u0648\u0629", "name:ar1": "\u0639\u0644\u064a\u0627\u0648\u0629", "name:de": "Alyawah", "name:en": "Alyawah", "name:fr": "Alyawah", "place": "village"}}, {"type": "node", "id": 2488259180, "lat": 36.4306899, "lon": 44.1869059, "tags": {"int_name": "ashga", "is_in": "Iraq , \u062c\u0645\u0647\u0648\u0631\u064a\u0629 \u0627\u0644\u0639\u0631\u0627\u0642", "name": "\u0626\u0627\u0634\u06af\u06d5", "name:ar": "\u0627\u0634\u0643\u0629", "name:ckb": "\u0626\u0627\u0634\u06af\u06d5", "name:de": "Ashga", "name:en": "Ashga", "name:fr": "Ashga", "place": "village"}}, {"type": "node", "id": 2488259184, "lat": 36.2364077, "lon": 44.334928, "tags": {"alt_name": "\u0625\u0634\u0643\u0641\u062a\u0629 \u0633\u0642\u0629", "int_name": "Ashkaft Saqah, Ashkafta, Ishkaft Saqq\u0101, Ishkaftah Saqqah, \u0627\u0634\u0643\u0641\u062a\u0647 \u0633\u0642\u0629, Ashkaft Saqah, Ashkafta, Ishkaft Saqqa, Ishkaftah Saqqah, \u0627\u0634\u0643\u0641\u062a\u0647 \u0633\u0642\u0629", "name": "\u0626\u06d5\u0634\u06a9\u06d5\u0648\u062a \u0633\u06d5\u0642\u06d5", "name:ar": "\u0625\u0634\u0643\u0641\u062a\u0629 \u0633\u0642\u0629", "name:ar1": "\u0625\u0634\u0643\u0641\u062a\u0629 \u0633\u0642\u0629", "name:de": "Ashkaft Saqah", "name:en": "Ashkaft Saqah", "name:fr": "Ashkaft Saqah", "place": "village"}}, {"type": "node", "id": 2488259205, "lat": 36.1849192, "lon": 44.2571934, "tags": {"name": "\u0628\u0627\u062e\u0686\u06d5\u06cc \u06af\u06d5\u0648\u0631\u06d5", "name:en": "Big Baxcha", "place": "village", "population": "143"}}, {"type": "node", "id": 2488259210, "lat": 36.4975624, "lon": 44.1330366, "tags": {"name": "\u067e\u0627\u0646\u06a9\u0627\u0646", "name:de": "Pankan", "name:en": "Pankan", "name:fr": "Pankan", "place": "village"}}, {"type": "node", "id": 2488259215, "lat": 36.202252, "lon": 44.2791483, "tags": {"alt_name": "\u0628\u0644\u0643\u0629 \u0631\u0634", "int_name": "Balkah Rash, Bilka Rash, Katkrash, \u0628\u0644\u0643\u0629 \u0631\u0634, Balkah Rash, Bilka Rash, Katkrash, \u0628\u0644\u0643\u0629 \u0631\u0634", "name": "\u067e\u06d5\u0644\u06a9\u06d5\u0695\u06d5\u0634", "name:ar": "\u0628\u0644\u0643\u0629 \u0631\u0634", "name:ar1": "\u0628\u0644\u0643\u0629 \u0631\u0634", "name:de": "Balkah Rash", "name:en": "Balkah Rash", "name:fr": "Balkah Rash", "place": "village"}}, {"type": "node", "id": 2488259218, "lat": 36.355785, "lon": 44.180378, "tags": {"name": "\u0628\u0627\u0646\u06d5\u0645\u0627\u0646", "name:ckb": "\u0628\u0627\u0646\u06d5\u0645\u0627\u0646", "name:en": "Banaman", "name:fr": "Banaman", "name:ku": "Baneman", "place": "village"}}, {"type": "node", "id": 2488259224, "lat": 36.4708293, "lon": 44.2581471, "tags": {"is_in": "Iraq , \u062c\u0645\u0647\u0648\u0631\u064a\u0629 \u0627\u0644\u0639\u0631\u0627\u0642", "name": "\u067e\u0644\u0646\u06af\u06d5", "name:ar": "\u0628\u0644\u0646\u06a9\u0629", "name:ckb": "\u067e\u0644\u0646\u06af\u06d5", "name:en": "Plnga", "name:ku": "Pilinge", "place": "village"}}, {"type": "node", "id": 2488259256, "lat": 36.3887, "lon": 44.42118, "tags": {"alt_name": "\u0628\u064a\u0631\u0643\u0629", "int_name": "Baraka, B\u012brkah, M\u012brka, \u0628\u064a\u0631\u0643\u0647, Baraka, Birkah, Mirka, \u0628\u064a\u0631\u0643\u0647", "is_in": "Iraq , \u062c\u0645\u0647\u0648\u0631\u064a\u0629 \u0627\u0644\u0639\u0631\u0627\u0642", "name": "\u0628\u06d5\u0631\u06d5\u06a9\u06d5", "name:ar1": "\u0628\u064a\u0631\u0643\u0629", "name:de": "Baraka", "name:en": "Baraka", "name:fr": "Baraka", "place": "village"}}, {"type": "node", "id": 2488259284, "lat": 36.4037731, "lon": 43.9965724, "tags": {"name": "\u062f\u0627\u0631\u06d5\u0634\u06d5\u06a9\u0631\u0627\u0646", "name:ckb": "\u0642\u06d5\u0631\u06d5\u0642\u0627\u062c\u06cc\u0646\u06cc \u06a9\u06c6\u0646", "name:en": "Darashakran", "place": "village"}}, {"type": "node", "id": 2488259321, "lat": 36.5038048, "lon": 44.348437, "tags": {"admin_level": "7", "name": "\u0628\u0627\u0633\u0631\u0645\u06d5", "name:ar": "\u0628\u0627\u0633\u0631\u0645\u0629", "name:ckb": "\u0628\u0627\u0633\u0631\u0645\u06d5", "name:en": "Basirma", "name:ku": "Basirme", "place": "town", "wikidata": "Q65405274"}}, {"type": "node", "id": 2488259323, "lat": 36.511926, "lon": 44.332452, "tags": {"name": "\u0628\u0627\u0634\u0648\u0648\u0631\u06cc \u06af\u06d5\u0648\u0631\u06d5", "name:ckb": "\u0628\u0627\u0634\u0648\u0648\u0631\u06cc \u06af\u06d5\u0648\u0631\u06d5", "place": "village"}}, {"type": "node", "id": 2488259332, "lat": 36.5159007, "lon": 44.3846984, "tags": {"alt_name": "\u0628\u0627\u0648\u064a\u0627\u0646", "int_name": "B\u0101wiy\u0101n, \u0628\u0627\u0648\u064a\u0627\u0646, Bawiyan, \u0628\u0627\u0648\u064a\u0627\u0646", "is_in": "Iraq , \u062c\u0645\u0647\u0648\u0631\u064a\u0629 \u0627\u0644\u0639\u0631\u0627\u0642", "name": "\u0628\u0627\u0648\u06cc\u0627\u0646", "name:ar": "\u0628\u0627\u0648\u064a\u0627\u0646", "name:ar1": "\u0628\u0627\u0648\u064a\u0627\u0646", "name:en": "Bawyan", "place": "village"}}, {"type": "node", "id": 2488259342, "lat": 36.1987936, "lon": 44.2336917, "tags": {"alt_name": "\u0628\u064a\u0631\u0643\u0629", "int_name": "Beuka, B\u012brkah, B\u012bwkah, \u0628\u064a\u0631\u0643\u0629, Beuka, Birkah, Biwkah, \u0628\u064a\u0631\u0643\u0629", "name": "\u0628\u064a\u0631\u0643\u0629", "name:ar": "\u0628\u064a\u0631\u0643\u0629", "name:ar1": "\u0628\u064a\u0631\u0643\u0629", "name:de": "Beuka", "name:en": "Beuka", "name:fr": "Beuka", "place": "village"}}, {"type": "node", "id": 2488259343, "lat": 36.189354, "lon": 44.2139705, "tags": {"alt_name": "\u0628\u064a\u0648\u0643\u0629", "int_name": "Beuka, Biy\u016bkah, \u0628\u064a\u0648\u0643\u0629, Beuka, Biyukah, \u0628\u064a\u0648\u0643\u0629", "name": "\u0628\u06cc\u0648\u06a9\u06d5\u06cc \u06af\u0686\u06a9\u06d5", "name:en": "Little Biyoka", "place": "village", "population": "116"}}, {"type": "node", "id": 2488259352, "lat": 36.2807802, "lon": 44.2743535, "tags": {"name": "\u0647\u06d5\u0646\u0627\u0631\u06d5", "name:ar": "\u0647\u0646\u0627\u0631\u06d5", "name:ckb": "\u0647\u06d5\u0646\u0627\u0631\u06d5", "name:de": "hanara", "name:en": "hanara", "name:fr": "hanara", "place": "village"}}, {"type": "node", "id": 2488259355, "lat": 36.234088, "lon": 44.1408298, "tags": {"name": "\u067e\u06cc\u0631\u0695\u06d5\u0634", "name:ckb": "\u067e\u06cc\u0631\u0695\u06d5\u0634", "name:en": "Pirrash", "name:ku": "P\u00eerre\u015f", "place": "village"}}, {"type": "node", "id": 2488259392, "lat": 36.335002, "lon": 44.160139, "tags": {"name": "\u0628\u06d5\u0633\u062a\u06c6\u0695\u06d5", "name:ckb": "\u0628\u06d5\u0633\u062a\u06c6\u0695\u06d5", "name:de": "Bstora", "name:en": "Bastora", "name:fr": "Bstora", "place": "village"}}, {"type": "node", "id": 2488259404, "lat": 36.1375869, "lon": 44.1851068, "tags": {"int_name": "Bunj\u012bnah, Pongina, P\u016bng\u012bnah,\u067e\u0648\u0646\u06af\u06cc\u0646\u06d5, Bunjinah, Pongina, Punginah, \u067e\u0648\u0646\u06af\u06cc\u0646\u0629", "name": "\u067e\u0648\u0646\u06af\u06cc\u0646\u06d5", "name:ar": "\u067e\u0648\u0646\u06af\u06cc\u0646\u06d5", "name:de": "Pungina", "name:en": "Pungina", "name:fr": "Pungina", "name:ku-Arab": "\u06af\u0648\u0646\u062f\u06cc \u067e\u0648\u0646\u06af\u06cc\u0646\u06d5", "place": "village"}}, {"type": "node", "id": 2488259405, "lat": 36.329086, "lon": 44.429741, "tags": {"name": "\u067e\u0648\u0646\u06af\u06cc\u0646\u06d5", "name:ar": "\u0628\u0648\u0646\u062c\u064a\u0646\u0647", "name:ckb": "\u067e\u0648\u0646\u06af\u06cc\u0646\u06d5", "name:de": "Bunjinah", "name:en": "punjinah", "name:fr": "Bunjinah", "place": "village"}}, {"type": "node", "id": 2488259479, "lat": 36.104397, "lon": 44.2331235, "tags": {"name": "\u0686\u06d5\u0645\u0631\u06af\u06d5", "name:ar": "\u062c\u0645\u0631\u0643\u0629", "name:ckb": "\u0686\u06d5\u0645\u0631\u06af\u06d5", "name:de": "Chamarga", "name:en": "Chamarga", "name:fr": "Chamarga", "name:ku": "\u00c7emrge", "place": "village", "population": "167"}}, {"type": "node", "id": 2488259482, "lat": 36.261207, "lon": 44.366455, "tags": {"name": "\u06a9\u06ce\u0634\u06a9\u06d5", "name:ar": "\u06a9\u06ce\u0634\u06a9\u06d5", "name:ckb": "\u06a9\u06ce\u0634\u06a9\u06d5", "name:de": "Keshka", "name:en": "Keshka", "name:fr": "Keshka", "place": "village"}}, {"type": "node", "id": 2488259485, "lat": 36.5068104, "lon": 44.0529367, "tags": {"alt_name": "\u062c\u0631\u0643\u0629 \u0632\u0648\u064a", "int_name": "Chirkah Zaw\u012b, Jirgazaw\u012b, \u0686\u0631\u0643\u0647 \u0632\u0648\u064a, Chirkah Zawi, Jirgazawi, \u0686\u0631\u0643\u0647 \u0632\u0648\u064a", "is_in": "Iraq , \u062c\u0645\u0647\u0648\u0631\u064a\u0629 \u0627\u0644\u0639\u0631\u0627\u0642", "name": "\u0632\u06d5\u0631\u06af\u06d5\u0632\u06d5\u06cc", "name:ar": "\u0632\u064e\u0631\u0643\u064e\u0632\u064e\u0648\u064a", "name:ar1": "\u062c\u0631\u0643\u0629 \u0632\u0648\u064a", "name:ckb": "\u0632\u06d5\u0631\u06af\u06d5\u0632\u06d5\u0648\u06cc", "name:en": "Zargazawi", "place": "village"}}, {"type": "node", "id": 2488259493, "lat": 36.381763, "lon": 44.074435, "tags": {"alt_name": "\u062f\u0631\u0627\u0634", "int_name": "Darash, Dar\u0101sh, \u062f\u0631\u0627\u0634, Darash, Darash, \u062f\u0631\u0627\u0634", "is_in": "Iraq , \u062c\u0645\u0647\u0648\u0631\u064a\u0629 \u0627\u0644\u0639\u0631\u0627\u0642", "name": "\u062f\u0631\u06d5\u0634", "name:ar": "\u062f\u0631\u0627\u0634", "name:ar1": "\u062f\u0631\u0627\u0634", "name:de": "Darash", "name:en": "Darash", "name:fr": "Darash", "place": "village"}}, {"type": "node", "id": 2488259494, "lat": 36.414016, "lon": 44.35037, "tags": {"name": "\u062f\u06d5\u0631\u0628\u06d5\u0646\u062f\u06cc \u0634\u06d5\u0642\u06b5\u0627\u0648\u06d5", "name:de": "Darband Shaqlawah", "name:en": "Darband Shaqlawa", "name:fr": "Darband Shaqlawah", "place": "village"}}, {"type": "node", "id": 2488259495, "lat": 36.275709, "lon": 44.327376, "tags": {"name": "\u062f\u06d5\u0631\u0628\u06d5\u0646\u062f\u06cc \u06af\u06c6\u0645\u06d5\u0633\u067e\u0627\u0646", "name:ckb": "\u062f\u06d5\u0631\u0628\u06d5\u0646\u062f\u06cc \u06af\u06c6\u0645\u06d5\u0633\u067e\u0627\u0646", "name:de": "Darbandi Gomaspan", "name:en": "Darbandi Gomaspan", "name:fr": "Darbandi Gomaspan", "place": "village"}}, {"type": "node", "id": 2488259496, "lat": 36.3954693, "lon": 44.0210428, "tags": {"name": "\u06a9\u06d5\u067e\u0631\u0627\u0646", "name:en": "Kapran", "place": "village"}}, {"type": "node", "id": 2488259510, "lat": 36.5153395, "lon": 44.1401449, "tags": {"alt_name": "\u062e\u0631\u0627\u0628\u0629 \u062f\u064a\u0631\u0629 \u0628\u0631\u0648\u0634\u0629", "int_name": "D\u0113r a Bir\u016bsha, Khar\u0101bat Dayrah Bar\u016bshah, \u062e\u0631\u0627\u0628\u0629 \u062f\u064a\u0631\u0647 \u0628\u0631\u0648\u0634\u0629, Der a Birusha, Kharabat Dayrah Barushah, \u062e\u0631\u0627\u0628\u0629 \u062f\u064a\u0631\u0647 \u0628\u0631\u0648\u0634\u0629", "is_in": "Iraq , \u062c\u0645\u0647\u0648\u0631\u064a\u0629 \u0627\u0644\u0639\u0631\u0627\u0642", "name": "\u062e\u0631\u0627\u0628\u0629 \u062f\u064a\u0631\u0629 \u0628\u0631\u0648\u0634\u0629", "name:ar": "\u062e\u0631\u0627\u0628\u0629 \u062f\u064a\u0631\u0629 \u0628\u0631\u0648\u0634\u0629", "name:ar1": "\u062e\u0631\u0627\u0628\u0629 \u062f\u064a\u0631\u0629 \u0628\u0631\u0648\u0634\u0629", "name:de": "Der a Birusha", "name:en": "Der a Birusha", "name:fr": "Der a Birusha", "place": "village"}}, {"type": "node", "id": 2488259511, "lat": 36.4191284, "lon": 44.0991988, "tags": {"alt_name": "\u062f\u064a\u0631\u064a", "int_name": "D\u0113ra Fort, Diri, D\u012br\u012b, \u062f\u064a\u0631\u064a, Dera Fort, Diri, Diri, \u062f\u064a\u0631\u064a", "is_in": "Iraq , \u062c\u0645\u0647\u0648\u0631\u064a\u0629 \u0627\u0644\u0639\u0631\u0627\u0642", "name": "\u062f\u06ce\u0631\u06ce", "name:ar": "\u062f\u064a\u0631\u064a", "name:ar1": "\u062f\u064a\u0631\u064a", "place": "village"}}, {"type": "node", "id": 2488259562, "lat": 36.1367798, "lon": 44.1059648, "tags": {"alt_name": "\u0642\u0631\u0629 \u0633\u0648\u0631", "int_name": "Garasoor, Garas\u014dr, Garah S\u016br, \u06af\u0631\u0629 \u0633\u0648\u0631, Garasoor, Garasor, Qarah Sur, \u0642\u0631\u0629 \u0633\u0648\u0631", "name": "\u06af\u06d5\u0695\u06d5\u0633\u06c6\u0631", "name:ar": "\u0643\u0631\u0629\u0633\u0648\u0631", "name:ckb": "\u06af\u06d5\u0695\u06d5\u0633\u06c6\u0631", "name:de": "Garasor", "name:en": "Garasor", "name:fr": "Garasor", "name:ku": "Geresor", "place": "village"}}, {"type": "node", "id": 2488259570, "lat": 36.313351, "lon": 44.451639, "tags": {"alt_name": "\u0643\u0631\u0648\u062a\u0629", "int_name": "Garota, Karwatah, \u0643\u0631\u0648\u062a\u0629, Garota, Karwatah, \u0643\u0631\u0648\u062a\u0629", "name": "\u06af\u06d5\u0631\u06c6\u062a\u06d5", "name:ar": "\u0643\u0647 \u0631\u0648\u062a\u0647", "name:ar1": "\u0643\u0631\u0648\u062a\u0629", "name:de": "Garota", "name:en": "Garota", "name:fr": "Garota", "place": "village"}}, {"type": "node", "id": 2488259629, "lat": 36.1244401, "lon": 44.2300763, "tags": {"alt_name": "\u0643\u0631\u062f\u0631\u0634", "int_name": "Girdesh, G\u012brd\u012bsh, Kirdarash, \u0643\u0631\u062f\u0631\u0634, Girdesh, Girdish, Kirdarash, \u0643\u0631\u062f\u0631\u0634", "name": "\u06af\u0631\u062f\u06cc\u0634\u06cc \u062e\u0648\u0627\u0631\u0648\u0648", "name:ar1": "\u0643\u0631\u062f\u0631\u0634", "name:en": "Grdish Lower", "place": "village", "population": "99"}}, {"type": "node", "id": 2488259633, "lat": 36.265, "lon": 44.1475, "tags": {"name": "\u06a9\u06c6\u0644\u06d5\u06a9\u06cc \u06af\u06d5\u0648\u0631\u06d5", "name:ar": "\u06a9\u0648\u0644\u06d5\u06a9 \u0627\u0644\u0643\u0628\u064a\u0631", "name:ckb": "\u06a9\u06c6\u0644\u06d5\u06a9\u06cc \u06af\u06d5\u0648\u0631\u06d5", "name:de": "Golak i Gawra", "name:en": "Golak i Gawra", "name:fr": "Golak i Gawra", "place": "village"}}, {"type": "node", "id": 2488259637, "lat": 36.2716498, "lon": 44.2995929, "tags": {"name": "\u06af\u06c6\u0645\u06d5\u0633\u067e\u0627\u0646", "name:ckb": "\u06af\u06c6\u0645\u06d5\u0633\u067e\u0627\u0646", "name:de": "Gomaspan", "name:en": "Gomaspan", "name:fr": "Gomaspan", "place": "village"}}, {"type": "node", "id": 2488259639, "lat": 36.147501, "lon": 44.42763, "tags": {"name": "\u06af\u06c6\u0645\u06d5\u062a\u0627\u06b5", "name:ar": "\u0643\u0648\u0645\u062a\u0627\u0644", "name:ckb": "\u06af\u06c6\u0645\u06d5\u062a\u0627\u06b5", "name:en": "Gomatal", "name:ku": "Gometall", "place": "village", "wikipedia": "ckb:\u06af\u06c6\u0645\u06d5\u062a\u0627\u06b5"}}, {"type": "node", "id": 2488259642, "lat": 36.3806762, "lon": 44.2708663, "tags": {"alt_name": "\u0643\u0648\u0631\u0629 \u0634\u064a\u0631 \u0627\u0644\u0639\u0644\u064a\u0627", "int_name": "Gor Shar, G\u014drash\u0113r, K\u016brah Sh\u012br al Uly\u0101, K\u016br\u0101shir al Uly\u0101, \u0643\u0648\u0631\u0627\u0634\u0631 \u0627\u0644\u0639\u0644\u064a\u0627, \u0643\u0648\u0631\u0647 \u0634\u064a\u0631 \u0627\u0644\u0639\u0644\u064a\u0627, Gor Shar, Gorasher, Kurah Shir al Ulya, Kurashir al Ulya, \u0643\u0648\u0631\u0627\u0634\u0631 \u0627\u0644\u0639\u0644\u064a\u0627, \u0643\u0648\u0631\u0647 \u0634\u064a\u0631 \u0627\u0644\u0639\u0644\u064a\u0627", "is_in": "Iraq , \u062c\u0645\u0647\u0648\u0631\u064a\u0629 \u0627\u0644\u0639\u0631\u0627\u0642", "name": "\u06af\u06c6\u0695\u06d5\u0634\u06ce\u0631\u06cc \u0633\u06d5\u0631\u0648\u0648", "name:ar": "\u0643\u0648\u0631\u0629 \u0634\u064a\u0631 \u0627\u0644\u0639\u0644\u064a\u0627", "name:ar1": "\u0643\u0648\u0631\u0629 \u0634\u064a\u0631 \u0627\u0644\u0639\u0644\u064a\u0627", "name:de": "Gorasher Upper", "name:en": "Gorasher Upper", "name:fr": "Gorasher Upper", "place": "village"}}, {"type": "node", "id": 2488259649, "lat": 36.3585509, "lon": 44.2914187, "tags": {"alt_name": "\u0643\u0648\u0631\u0627\u0634\u0631 \u0627\u0644\u0633\u0641\u0644\u0649", "int_name": "G\u014drash\u0113r, GorSher, K\u016br\u0101shir as Sufl\u00e1, \u0643\u0648\u0631\u0627\u0634\u0631 \u0627\u0644\u0633\u0641\u0644\u0649, Gorasher, GorSher, Kurashir as Sufla, \u0643\u0648\u0631\u0627\u0634\u0631 \u0627\u0644\u0633\u0641\u0644\u0649", "name": "\u06af\u06c6\u0631\u06d5\u0634\u06ce\u0631\u06cc \u062e\u0648\u0627\u0631\u0648\u0648", "name:ar1": "\u0643\u0648\u0631\u0627\u0634\u0631 \u0627\u0644\u0633\u0641\u0644\u0649", "name:de": "Gorasher Lower", "name:en": "Gorasher Lower", "name:fr": "Gorasher Lower", "place": "village"}}, {"type": "node", "id": 2488259668, "lat": 36.130368, "lon": 44.2555901, "tags": {"name": "\u0647\u06d5\u0645\u0632\u06d5 \u0628\u06d5\u06af", "name:ar": "\u062d\u0645\u0632\u0629 \u0628\u064a\u0643", "name:ckb": "\u0647\u06d5\u0645\u0632\u06d5 \u0628\u06d5\u06af", "name:de": "Hamza Bag", "name:en": "Hamza Bag", "name:fr": "Hamza Bag", "name:ku": "Hemze Beg", "place": "village", "population": "148"}}, {"type": "node", "id": 2488259732, "lat": 36.4142715, "lon": 44.3508522, "tags": {"name": "\u0647\u06d5\u0633\u0627\u0631\u06d5", "name:de": "Hasara", "name:en": "Hasara", "name:fr": "Hasara", "place": "village"}}, {"type": "node", "id": 2488259838, "lat": 36.3690296, "lon": 44.3892934, "tags": {"alt_name": "\u062c\u0646\u064a\u0631\u0627\u0646", "int_name": "Jan\u012br\u0101n, \u062c\u0646\u064a\u0631\u0627\u0646, Janiran, \u062c\u0646\u064a\u0631\u0627\u0646", "is_in": "Iraq , \u062c\u0645\u0647\u0648\u0631\u064a\u0629 \u0627\u0644\u0639\u0631\u0627\u0642", "name": "\u0686\u0646\u06ce\u0631\u0627\u0646", "name:ar": "\u062c\u0646\u064a\u0631\u0627\u0646", "name:de": "Janiran", "name:en": "chneran", "name:fr": "Janiran", "place": "village"}}, {"type": "node", "id": 2488259935, "lat": 36.4079028, "lon": 44.4117399, "tags": {"alt_name": "\u0643\u0631\u0648\u0646\u0627\u0646 \u0627\u0644\u0639\u0644\u064a\u0627", "int_name": "Kar\u016bn\u0101n al Uly\u0101, \u0643\u0631\u0648\u0646\u0627\u0646 \u0627\u0644\u0639\u0644\u064a\u0627, Karunan al Ulya, \u0643\u0631\u0648\u0646\u0627\u0646 \u0627\u0644\u0639\u0644\u064a\u0627", "is_in": "Iraq , \u062c\u0645\u0647\u0648\u0631\u064a\u0629 \u0627\u0644\u0639\u0631\u0627\u0642", "name": "\u06af\u06d5\u0631\u06d5\u0648\u0627\u0646\u06cc \u0633\u06d5\u0631\u0648\u0648", "name:ar": "\u0643\u0631\u0648\u0627\u0646 \u0627\u0644\u0639\u0644\u064a\u0627", "name:ar1": "\u0643\u0631\u0648\u0646\u0627\u0646 \u0627\u0644\u0639\u0644\u064a\u0627", "name:ckb": "\u06af\u06d5\u0631\u06d5\u0648\u0627\u0646\u06cc \u0633\u06d5\u0631\u0648\u0648", "name:en": "\u06a9\u06c6\u06cc\u06a9\u0627\u0646", "place": "village"}}, {"type": "node", "id": 2488259936, "lat": 36.4203179, "lon": 44.4038779, "tags": {"name": "\u06af\u06d5\u0631\u06d5\u0648\u0627\u0646\u06cc \u062e\u0648\u0627\u0631\u0648\u0648", "name:ckb": "\u06af\u06d5\u0631\u06d5\u0648\u0627\u0646\u06cc \u062e\u0648\u0627\u0631\u0648\u0648", "place": "village"}}, {"type": "node", "id": 2488259949, "lat": 36.4867495, "lon": 44.380237, "tags": {"name": "\u0643\u0648\u064a\u0643\u0627\u0646", "name:de": "Koikan", "name:en": "Koikan", "name:fr": "Koikan", "place": "village"}}, {"type": "node", "id": 2488259967, "lat": 36.337222, "lon": 44.161944, "tags": {"alt_name": "\u062e\u0646\u0632\u062f", "int_name": "Khanzad, Kh\u0101nz\u0101d, Khanzad, Khanzad", "name": "\u062e\u0627\u0646\u0632\u0627\u062f", "name:ar": "\u062e\u0627\u0646\u0632\u0627\u062f", "name:ar1": "\u062e\u0646\u0632\u062f", "name:de": "Khanzad", "name:en": "Khanzad", "name:fr": "Khanzad", "place": "village"}}, {"type": "node", "id": 2488259973, "lat": 36.4871034, "lon": 44.3302948, "tags": {"name": "\u062e\u06d5\u062a\u06cc\u0628\u06cc\u0627\u0646", "place": "village"}}, {"type": "node", "id": 2488259985, "lat": 36.3999285, "lon": 44.2369061, "tags": {"alt_name": "\u0643\u0648\u0631\u064a", "int_name": "K\u014dre, \u0643\u0648\u0631\u064a, Kore, \u06a9\u06c6\u0695\u06ce", "is_in": "Iraq , \u062c\u0645\u0647\u0648\u0631\u064a\u0629 \u0627\u0644\u0639\u0631\u0627\u0642", "name": "\u06a9\u06c6\u0695\u06ce", "name:ckb": "\u06a9\u06c6\u0695\u06ce", "name:de": "Kore", "name:en": "Kore", "name:fr": "Kore", "name:ku": "Korr\u00ea", "place": "town"}}, {"type": "node", "id": 2488260002, "lat": 36.2722631, "lon": 44.1616762, "tags": {"name": "\u0643\u06c6\u0644\u06d5\u06a9\u06cc \u0628\u0686\u0648\u0648\u06a9", "name:ar": "\u06a9\u0648\u0644\u06d5\u06a9 \u0627\u0644\u0635\u063a\u064a\u0631", "name:ckb": "\u06a9\u06c6\u0644\u06d5\u06a9\u06cc \u0628\u0686\u0648\u0648\u06a9", "name:de": "Kolaki bchuk", "name:en": "Kolaki bchuk", "name:fr": "Kolaki bchuk", "place": "village"}}, {"type": "node", "id": 2488260010, "lat": 36.3707649, "lon": 44.4428307, "tags": {"alt_name": "\u0643\u0648\u0631\u0641\u064a\u0627\u0646", "int_name": "K\u016brfiy\u0101n, \u0643\u0648\u0631\u0641\u064a\u0627\u0646, Kurfiyan, \u0643\u0648\u0631\u0641\u064a\u0627\u0646", "is_in": "Iraq , \u062c\u0645\u0647\u0648\u0631\u064a\u0629 \u0627\u0644\u0639\u0631\u0627\u0642", "name": "\u06a9\u06d5\u0648\u0631\u062a\u06cc\u0627\u0646", "name:ar": "\u06a9\u0648\u0631\u062a\u06cc\u0627\u0646", "name:ckb": "\u06a9\u06d5\u0648\u0631\u062a\u06cc\u0627\u0646", "name:en": "Kawartian", "name:ku": "Kewirtiyan", "place": "village"}}, {"type": "node", "id": 2488260012, "lat": 36.3976126, "lon": 44.3867257, "tags": {"name": "\u0644\u0627\u0633\u06d5", "name:de": "Lasa", "name:en": "Lasa", "name:fr": "Lasa", "place": "village"}}, {"type": "node", "id": 2488260023, "lat": 36.221015, "lon": 44.2123103, "tags": {"name": "\u0645\u0627\u0645 \u0686\u06c6\u063a\u0627\u0646", "name:ar": "\u0645\u0627\u0645 \u0686\u06c6\u063a\u0627\u0646", "name:ckb": "\u0645\u0627\u0645 \u0686\u06c6\u063a\u0627\u0646", "name:de": "Mam Choghan", "name:en": "Mam Choghan", "name:fr": "Mam Choghan", "place": "village"}}, {"type": "node", "id": 2488260025, "lat": 36.4488793, "lon": 44.3808333, "tags": {"alt_name": "\u06af\u0648\u0646\u062f\u06cc \u0645\u0627\u0645\u06d5 \u062c\u06d5\u0644\u06a9\u06d5", "name": "\u0645\u0627\u0645\u06d5 \u062c\u06d5\u0644\u06a9\u06d5", "name:ar": "\u0645\u0627\u0645\u0627 \u062c\u0644\u0643\u0627", "name:en": "Mama Jalka", "place": "village"}}, {"type": "node", "id": 2488260043, "lat": 36.437461, "lon": 44.310692, "tags": {"alt_name": "\u0645\u0627\u0648\u0627\u0631\u0627\u0646 \u0627\u0644\u0639\u0644\u064a\u0627", "is_in": "Iraq , \u062c\u0645\u0647\u0648\u0631\u064a\u0629 \u0627\u0644\u0639\u0631\u0627\u0642", "name": "\u0645\u0627\u0648\u06d5\u0631\u0627\u0646\u06cc \u0633\u06d5\u0631\u0648\u0648", "name:ar": "\u0645\u0627\u0648\u0627\u0631\u0627\u0646 \u0627\u0644\u0639\u0644\u064a\u0627", "name:ckb": "\u0645\u0627\u0648\u06d5\u0631\u0627\u0646\u06cc \u0633\u06d5\u0631\u0648\u0648", "name:en": "Upper Mawaran", "name:ku": "Maweran Jor\u00ee", "place": "village"}}, {"type": "node", "id": 2488260047, "lat": 36.5214083, "lon": 44.26091, "tags": {"alt_name": "\u0645\u0631\u0632\u0627\u0646", "int_name": "Marzan, Mirz\u0101n, Mizr\u0101n, \u0645\u0631\u0632\u0627\u0646, Marzan, Mirzan, Mizran, \u0645\u0631\u0632\u0627\u0646", "is_in": "Iraq , \u062c\u0645\u0647\u0648\u0631\u064a\u0629 \u0627\u0644\u0639\u0631\u0627\u0642", "name": "\u0645\u06d5\u0631\u0632\u0627\u0646", "name:ar": "\u0645\u0631\u0632\u0627\u0646", "name:ckb": "\u0645\u06d5\u0631\u0632\u0627\u0646", "name:en": "Marzan", "name:ku": "Merzan", "place": "village"}}, {"type": "node", "id": 2488260049, "lat": 36.457274, "lon": 44.289767, "tags": {"alt_name": "\u0645\u0627\u0648\u0627\u0631\u0627\u0646 \u0627\u0644\u0633\u0641\u0644\u0649", "int_name": "M\u0101w\u0101r\u0101n as Sufl\u00e1, M\u0101war\u0101n i Khw\u0101r\u016b, \u0645\u0627\u0648\u0627\u0631\u0627\u0646 \u0627\u0644\u0633\u0641\u0644\u0649, Mawaran as Sufla, Mawaran i Khwaru, \u0645\u0627\u0648\u0627\u0631\u0627\u0646 \u0627\u0644\u0633\u0641\u0644\u0649", "is_in": "Iraq , \u062c\u0645\u0647\u0648\u0631\u064a\u0629 \u0627\u0644\u0639\u0631\u0627\u0642", "name": "\u0645\u0627\u0648\u06d5\u0631\u0627\u0646\u06cc \u062e\u0648\u0627\u0631\u0648\u0648", "name:ar": "\u0645\u0627\u0648\u0627\u0631\u0627\u0646 \u0627\u0644\u0633\u0641\u0644\u0649", "name:ckb": "\u0645\u0627\u0648\u06d5\u0631\u0627\u0646\u06cc \u062e\u0648\u0627\u0631\u0648\u0648", "name:de": "Mawaran as Sufla", "name:en": "Mawaran Lower", "name:fr": "Mawaran as Sufla", "name:ku": "Maweran J\u00ear\u00ee", "place": "village"}}, {"type": "node", "id": 2488260057, "lat": 36.4339283, "lon": 44.360871, "tags": {"name": "\u0645\u06cc\u0631\u0627\u0648\u06d5", "name:ar": "\u0645\u064a\u0631\u0627\u0648\u0629", "name:de": "Mirawa", "name:en": "Mirawa", "name:fr": "Mirawa", "place": "village"}}, {"type": "node", "id": 2488260061, "lat": 36.4140349, "lon": 44.0450361, "tags": {"alt_name": "\u0645\u064a\u0631\u0627\u062e\u0648\u0631", "int_name": "Mirakhur, M\u012br\u0101kh\u016br, \u0645\u064a\u0631\u0627\u062e\u0648\u0631, Mirakhur, Mirakhur, \u0645\u064a\u0631\u0627\u062e\u0648\u0631", "is_in": "Iraq , \u062c\u0645\u0647\u0648\u0631\u064a\u0629 \u0627\u0644\u0639\u0631\u0627\u0642", "name": "\u0645\u064a\u0631\u0627\u062e\u0648\u0631", "name:ar": "\u0645\u064a\u0631\u0627\u062e\u0648\u0631", "name:de": "Mirakhur", "name:en": "Mirakhur", "name:fr": "Mirakhur", "place": "village"}}, {"type": "node", "id": 2488260070, "lat": 36.459693, "lon": 44.376755, "tags": {"alt_name": "\u0645\u064a\u0631\u0632\u0627 \u0631\u0648\u0633\u062a\u0645", "int_name": "Mirza Rustam, M\u012brz\u0101 R\u016bstam, P\u012br Rustam, \u0645\u064a\u0631\u0632\u0627 \u0631\u0648\u0633\u062a\u0645, Pir Rustam, \u0645\u06cc\u0631\u0632\u0627 \u0695\u06c6\u0633\u062a\u06d5\u0645", "name": "\u0645\u06cc\u0631\u0632\u0627 \u0695\u06c6\u0633\u062a\u06d5\u0645", "name:ar": "\u0645\u064a\u0631\u0632\u0627 \u0631\u0648\u0633\u062a\u0645", "name:ckb": "\u0645\u06cc\u0631\u0632\u0627 \u0695\u06c6\u0633\u062a\u06d5\u0645", "name:de": "Mirza Rostam", "name:en": "Mirza Rostam", "name:fr": "Mirza Rostam", "place": "village"}}, {"type": "node", "id": 2488260086, "lat": 36.2844906, "lon": 44.422965, "tags": {"alt_name": "\u0646\u0627\u0648\u062f\u0627\u0631\u0648\u0643\u0627\u0646", "int_name": "N\u0101wd\u0101r\u016bk\u0101n, \u0646\u0627\u0648\u062f\u0627\u0631\u0648\u0643\u0627\u0646, Nawdarukan, \u0646\u0627\u0648\u062f\u0627\u0631\u0648\u0643\u0627\u0646", "name": "\u0646\u0627\u0648\u062f\u0627\u0631\u0648\u06a9\u0627\u0646", "name:ar": "\u0646\u0627\u0648\u062f\u0627\u0631\u0648\u0643\u0627\u0646", "name:de": "Nawdarukan", "name:en": "Nawdarukan", "name:fr": "Nawdarukan", "place": "village"}}, {"type": "node", "id": 2488260096, "lat": 36.47554, "lon": 44.36222, "tags": {"alt_name": "\u0642\u0627\u062f\u064a\u0627\u0646", "name": "\u0642\u0627\u062f\u06cc\u0627\u0646\u06d5", "name:ar": "\u0642\u0627\u062f\u064a\u0627\u0646", "name:ckb": "\u0642\u0627\u062f\u06cc\u0627\u0646\u06d5", "name:en": "Qadyana", "place": "village"}}, {"type": "node", "id": 2488260097, "lat": 36.335811, "lon": 44.32671, "tags": {"name": "\u0642\u06d5\u06b5\u0627 \u0633\u0646\u06af \u062e\u0648\u0627\u0631\u0648\u0648", "name:ar": "\u0642\u0644\u0627 \u0633\u0646\u062e \u0627\u0644\u0633\u0641\u0644\u0649", "name:ar1": "\u0642\u0644\u0627 \u0633\u0646\u062e \u0627\u0644\u0633\u0641\u0644\u0649", "name:de": "Qal ah Sani Gawrah", "name:en": "Qala Sinj Lower", "name:fr": "Qal ah Sani Gawrah", "name:ku": "\u0642\u06d5\u0644\u0627 \u0633\u0646\u062c\u06cc \u062e\u0648\u0627\u0631\u0648\u0648", "place": "village"}}, {"type": "node", "id": 2488260098, "lat": 36.3569881, "lon": 44.3234234, "tags": {"name": "\u0642\u06d5\u06b5\u0627 \u0633\u0646\u06af \u0698\u0648\u0648\u0631\u0648\u0648", "name:ar": "\u0642\u0644\u0627 \u0633\u0646\u062c \u0627\u0644\u0639\u0644\u064a\u0627", "name:ar1": "\u0642\u0644\u0627 \u0633\u0646\u062c \u0627\u0644\u0639\u0644\u064a\u0627", "name:de": "Qala Sing", "name:en": "Qala Sing Upper", "name:fr": "Qala Sing", "name:ku": "\u0642\u06d5\u0644\u0627 \u0633\u0646\u062c\u06cc \u0633\u06d5\u0631\u0648\u0648", "place": "village"}}, {"type": "node", "id": 2488260139, "lat": 36.4643354, "lon": 44.3707615, "tags": {"name": "\u0642\u06d5\u0633\u0631\u06c6\u06a9", "name:ar": "\u0642\u0635\u0631\u0648\u0643\u0629", "name:de": "Qasrok", "name:en": "Qasrok", "name:fr": "Qasrok", "place": "village"}}, {"type": "node", "id": 2488260141, "lat": 36.3331636, "lon": 44.2893385, "tags": {"alt_name": "\u0642\u064a\u0631\u0634\u0627", "int_name": "Q\u012brsh\u0101, \u0642\u064a\u0631\u0634\u0627, Qirsha, \u0642\u064a\u0631\u0634\u0627", "name": "\u0642\u064a\u0631\u0634\u0627", "name:ar": "\u0642\u064a\u0631\u0634\u0627", "name:ar1": "\u0642\u064a\u0631\u0634\u0627", "name:de": "Qirsha", "name:en": "Qirsha", "name:fr": "Qirsha", "place": "village"}}, {"type": "node", "id": 2488260198, "lat": 36.382703, "lon": 44.202575, "tags": {"alt_name": "\u0633\u06d5\u06b5\u0627\u062d\u06d5\u062f\u062f\u06cc\u0646\u06cc", "alt_name:en": "Pirmam", "capital": "7", "is_in:country": "Iraq", "is_in:country_code": "IQ", "name": "\u067e\u06cc\u0631\u0645\u0627\u0645", "name:ar": "\u0645\u0635\u064a\u0641 \u0635\u0644\u0627\u062d \u0627\u0644\u062f\u064a\u0646", "name:ckb": "\u067e\u06cc\u0631\u0645\u0627\u0645", "name:de": "Saladin", "name:en": "Massif Saladin", "name:es": "Saladino", "name:fr": "Saladin", "name:ku": "P\u00eermam", "place": "town", "postal_code": "44004", "wikidata": "Q25452645", "wikipedia": "ar:\u0645\u0635\u064a\u0641 \u0635\u0644\u0627\u062d \u0627\u0644\u062f\u064a\u0646"}}, {"type": "node", "id": 2488260216, "lat": 36.490593, "lon": 44.237268, "tags": {"is_in": "Iraq , \u062c\u0645\u0647\u0648\u0631\u064a\u0629 \u0627\u0644\u0639\u0631\u0627\u0642", "name": "\u0633\u06d5\u0631\u06a9\u06d5\u0646\u062f", "name:ar": "\u0633\u0631\u0643\u0646\u062f", "name:ckb": "\u0633\u06d5\u0631\u06a9\u06d5\u0646\u062f", "name:ku": "serkend", "place": "village"}}, {"type": "node", "id": 2488260221, "lat": 36.4537205, "lon": 44.0853472, "tags": {"alt_name": "\u0633\u0631\u0633\u0648\u0644", "int_name": "Sars\u016bl, Sarsul", "is_in": "Iraq , \u062c\u0645\u0647\u0648\u0631\u064a\u0629 \u0627\u0644\u0639\u0631\u0627\u0642", "name": "\u0633\u06d5\u0631\u0633\u0648\u0644", "name:ar": "\u0633\u0631\u0633\u0648\u0644", "name:ar1": "\u0633\u0631\u0633\u0648\u0644", "name:de": "Sarsul", "name:en": "Sarsul", "name:fr": "Sarsul", "place": "village"}}, {"type": "node", "id": 2488260223, "lat": 36.4196479, "lon": 44.1158685, "tags": {"alt_name": "\u0633\u0631\u0648\u0643\u0627\u0646\u064a", "int_name": "Sarukani, Sar\u016bk\u0101n\u012b, \u0633\u0631\u0648\u0643\u0627\u0646\u064a, Sarukani, Sarukani, \u0633\u0631\u0648\u0643\u0627\u0646\u064a", "is_in": "Iraq , \u062c\u0645\u0647\u0648\u0631\u064a\u0629 \u0627\u0644\u0639\u0631\u0627\u0642", "name": "\u0633\u06d5\u0631\u0648\u06a9\u0627\u0646\u06cc", "name:ar": "\u0633\u0631\u0648\u0643\u0627\u0646\u064a", "name:ar1": "\u0633\u0631\u0648\u0643\u0627\u0646\u064a", "name:de": "Sarukani", "name:en": "Sarukani", "name:fr": "Sarukani", "place": "village"}}, {"type": "node", "id": 2488260227, "lat": 36.217028, "lon": 44.097924, "tags": {"name": "\u0633\u06ce\u0628\u06d5\u0631\u062f\u0627\u0646", "name:ar": "\u0633\u06cc\u0628\u0631\u062f\u0627\u0646", "name:ckb": "\u0633\u06ce\u0628\u06d5\u0631\u062f\u0627\u0646", "name:de": "Sebardan", "name:en": "Sebardan", "name:ku": "\u0633\u06ce\u0628\u06d5\u0631\u062f\u0627\u0646", "place": "village"}}, {"type": "node", "id": 2488260230, "lat": 36.341159, "lon": 44.178587, "tags": {"name": "\u0633\u064a\u0648\u06c6\u0643\u06d5", "name:en": "Sewaka", "name:ku": "\u0633\u06ce\u0648\u06d5\u06a9\u06d5", "place": "village"}}, {"type": "node", "id": 2488260231, "lat": 36.381194, "lon": 44.376588, "tags": {"alt_name": "\u0633\u0628\u064a\u0643\u0631\u0627", "int_name": "Sb\u012bkr\u0101, Spikr\u0101, \u0633\u0628\u064a\u0643\u0631\u0627, Sbikra, Spikra, \u0633\u0628\u064a\u0643\u0631\u0627", "is_in": "Iraq , \u062c\u0645\u0647\u0648\u0631\u064a\u0629 \u0627\u0644\u0639\u0631\u0627\u0642", "name": "\u0633\u0628\u064a\u0643\u0631\u0627", "name:ar": "\u0633\u0628\u064a\u0643\u0631\u0627", "name:ar1": "\u0633\u0628\u064a\u0643\u0631\u0627", "name:de": "Sbikra", "name:en": "Spigra", "name:fr": "Sbikra", "name:ku": "\u0633\u067e\u06cc\u06af\u0631\u06d5", "place": "village"}}, {"type": "node", "id": 2488260243, "lat": 36.2556741, "lon": 44.219146, "tags": {"alt_name": "\u0634\u0631\u0628\u0648\u062a", "int_name": "Sharabut, Sharb\u014dt, Sharb\u016bt, \u0634\u0631\u0628\u0648\u062a, Sharabut, Sharbot, Sharbut, \u0634\u0631\u0628\u0648\u062a", "name": "\u0634\u0647\u200c\u0631\u0647\u200c\u0628\u06c6\u062a\u06cc \u06af\u0647\u200c\u0648\u0631\u0647\u200c", "name:ar": "\u0634\u06d5\u0631\u06d5\u0628\u06c6\u062a\u06cc \u06af\u06d5\u0648\u0631\u06d5", "name:ar1": "\u0634\u0631\u0628\u0648\u062a", "name:de": "Sharabut", "name:en": "Sharabut Big", "name:fr": "Sharabut", "name:ku": "\u0634\u06d5\u0631\u06d5\u0628\u06c6\u062a\u06cc \u06af\u06d5\u0648\u0631\u06d5", "place": "village"}}, {"type": "node", "id": 2488260253, "lat": 36.4520662, "lon": 44.1684455, "tags": {"alt_name": "\u0634\u064a\u062e \u062d\u0645\u0648\u0646\u062f\u064a\u0627\u0646", "int_name": "Shaykh \u1e28im\u016bndiy\u0101n, Shaykh Ma\u1e29m\u016bd\u012by\u0101n, Sheikh Hmundian, \u0634\u064a\u062e \u062d\u0645\u0648\u0646\u062f\u064a\u0627\u0646, Shaykh Himundiyan, Shaykh Mahmudiyan, Sheikh Hmundian, \u0634\u064a\u062e \u062d\u0645\u0648\u0646\u062f\u064a\u0627\u0646", "is_in": "Iraq , \u062c\u0645\u0647\u0648\u0631\u064a\u0629 \u0627\u0644\u0639\u0631\u0627\u0642", "name": "\u0634\u064a\u062e \u062d\u0645\u0648\u0646\u062f\u064a\u0627\u0646", "name:ar": "\u0634\u064a\u062e \u062d\u0645\u0648\u0646\u062f\u064a\u0627\u0646", "name:ar1": "\u0634\u064a\u062e \u062d\u0645\u0648\u0646\u062f\u064a\u0627\u0646", "name:de": "Shaykh Himundiyan", "name:en": "Shaykh Himundiyan", "name:fr": "Shaykh Himundiyan", "place": "village"}}, {"type": "node", "id": 2488260254, "lat": 36.46072, "lon": 44.4124, "tags": {"alt_name": "\u0634\u064a\u062e \u0645\u062d\u0645\u0648\u062f\u064a\u0627\u0646", "int_name": "Shaykh Ma\u1e29m\u016bdiy\u0101n, Sheikh Mahmudian, \u0634\u064a\u062e \u0645\u062d\u0645\u0648\u062f\u064a\u0627\u0646, Shaykh Mahmudiyan, Sheikh Mahmudian, \u0634\u064a\u062e \u0645\u062d\u0645\u0648\u062f\u064a\u0627\u0646", "name": "\u0634\u06ce\u062e \u0645\u06d5\u062d\u0645\u0648\u0648\u062f\u06cc\u0627\u0646", "name:ckb": "\u0634\u064a\u062e \u0645\u062d\u0645\u0648\u062f\u064a\u0627\u0646", "name:en": "Shaykh Mahmudiyan", "place": "village"}}, {"type": "node", "id": 2488260255, "lat": 36.4062078, "lon": 44.1352625, "tags": {"alt_name": "\u0634\u064a\u062e\u0627\u0646", "int_name": "Shaykh\u0101n, Sheikhan, \u0634\u064a\u062e\u0627\u0646, Shaykhan, Sheikhan, \u0634\u064a\u062e\u0627\u0646", "is_in": "Iraq , \u062c\u0645\u0647\u0648\u0631\u064a\u0629 \u0627\u0644\u0639\u0631\u0627\u0642", "name": "\u0634\u06ce\u062e\u0627\u0646", "name:ar": "\u0634\u064a\u062e\u0627\u0646", "name:ar1": "\u0634\u064a\u062e\u0627\u0646", "name:de": "Shaykhan", "name:en": "Shaykhan", "name:fr": "Shaykhan", "place": "village"}}, {"type": "node", "id": 2488260260, "lat": 36.480126, "lon": 44.393519, "tags": {"alt_name": "\u06af\u0648\u0646\u062f\u06cc \u0634\u06cc\u0646\u0627\u0648\u06d5", "name": "\u0634\u06cc\u0646\u0627\u0648\u06d5", "name:ckb": "\u0634\u06cc\u0646\u0627\u0648\u06d5", "name:en": "Shinawa", "place": "village"}}, {"type": "node", "id": 2488260261, "lat": 36.3580347, "lon": 44.1404002, "tags": {"int_name": "Shin\u0101wah, Shinawah", "name": "\u0634\u06cc\u0646\u0627\u0648\u06d5", "name:ar": "\u0634\u064a\u0646\u0627\u0648\u0629", "name:ckb": "\u0634\u06cc\u0646\u0627\u0648\u06d5", "name:de": "Shinawah", "name:en": "Shinawah", "name:fr": "Shinawah", "place": "village"}}, {"type": "node", "id": 2488260323, "lat": 36.1443455, "lon": 44.3508026, "tags": {"alt_name": "\u0633\u0645\u0627\u0642 \u0634\u064a\u0631\u064a\u0646 \u0627\u0644\u0635\u063a\u064a\u0631", "int_name": "Sim\u0101qash\u012br\u012bn i Pich\u016bk, Smaqa Shirin Bchook, Smaqe Sh\u00eer\u00een, Sumaq Shirin Bchook, Smm\u0101qa Sh\u012br\u012bn, \u0633\u0645\u0627\u0642\u06d5 \u0634\u06cc\u0631\u06cc\u0646\u06cc \u0628\u0686\u0648\u0648\u06a9", "name": "\u0633\u0645\u0627\u0642\u06d5 \u0634\u06cc\u0631\u06cc\u0646\u06cc \u0628\u0686\u0648\u0648\u06a9", "name:ar": "\u0633\u0645\u0627\u0642 \u0634\u064a\u0631\u064a\u0646 \u0627\u0644\u0635\u063a\u064a\u0631", "name:ckb": "\u0633\u0645\u0627\u0642\u06d5 \u0634\u06cc\u0631\u06cc\u0646\u06cc \u0628\u0686\u0648\u0648\u06a9", "name:de": "Simaqashirin i Pichuk", "name:en": "Simaqashirin i Pichuk", "name:fr": "Simaqashirin i Pichuk", "place": "village"}}, {"type": "node", "id": 2488260325, "lat": 36.4891082, "lon": 44.3943403, "tags": {"alt_name": "\u06af\u0648\u0646\u062f\u06cc \u0633\u06cc\u0633\u0627\u0648\u06d5", "name": "\u0633\u06cc\u0633\u0627\u0648\u06d5", "name:de": "Sisawa", "name:en": "Sisawa", "name:fr": "Sisawa", "place": "village"}}, {"type": "node", "id": 2488260331, "lat": 36.510102, "lon": 44.352947, "tags": {"alt_name": "\u0633\u0648\u0631\u0633\u0648\u0631\u0629", "int_name": "Sors\u014dra, S\u016brs\u016brah, \u0633\u0648\u0631\u0633\u0648\u0631\u0629, Sursura, Sursurah, \u0633\u0648\u0631\u0633\u0648\u0631\u0629", "is_in": "Iraq , \u062c\u0645\u0647\u0648\u0631\u064a\u0629 \u0627\u0644\u0639\u0631\u0627\u0642", "name": "\u0633\u0648\u0631\u0633\u0648\u0631\u0629", "name:ar": "\u0633\u0648\u0631\u0633\u0648\u0631\u0629", "name:ar1": "\u0633\u0648\u0631\u0633\u0648\u0631\u0629", "name:de": "Sursura", "name:en": "Sursura", "name:fr": "Sursura", "place": "village"}}, {"type": "node", "id": 2488260352, "lat": 36.199336, "lon": 44.360561, "tags": {"alt_name": "\u062a\u0631\u062c\u064a\u0646\u0629", "int_name": "Targ\u012bna, Targ\u012bnah, Tarjina, Tarj\u012bnah, \u062a\u0631\u062c\u064a\u0646\u0629, \u062a\u0631\u062c\u064a\u0646\u0647, Targina, Targinah, Tarjina, Tarjinah, \u062a\u0631\u062c\u064a\u0646\u0629, \u062a\u0631\u062c\u064a\u0646\u0647", "name": "\u062a\u06d5\u0631\u06af\u06ce\u0646\u06d5", "name:ar": "\u062a\u0631\u062c\u064a\u0646\u0629", "name:ar1": "\u062a\u0631\u062c\u064a\u0646\u0629", "name:de": "Targina", "name:en": "Targina", "name:fr": "Targina", "name:ku": "\u062a\u06d5\u0631\u06af\u06ce\u0646\u06d5", "name:ku-Arab": "\u062a\u06d5\u0631\u06af\u06ce\u0646\u06d5", "place": "village"}}, {"type": "node", "id": 2488260360, "lat": 36.4131724, "lon": 44.3505124, "tags": {"name": "\u062a\u0644\u0643\u0631\u0629", "name:de": "Tilgara", "name:en": "Tilgara", "name:fr": "Tilgara", "place": "village"}}, {"type": "node", "id": 2488260369, "lat": 36.4122971, "lon": 44.2667777, "tags": {"is_in": "Iraq , \u062c\u0645\u0647\u0648\u0631\u064a\u0629 \u0627\u0644\u0639\u0631\u0627\u0642", "name": "\u0639\u0648\u0633\u0645\u0627\u0646 \u0628\u06d5\u06af", "name:ar": "\u0639\u062b\u0645\u0627\u0646 \u0628\u064a\u0643", "name:ar1": "\u0639\u062b\u0645\u0627\u0646 \u0628\u064a\u0643", "name:en": "Othman Bak", "place": "village"}}, {"type": "node", "id": 2488260531, "lat": 36.235675, "lon": 44.402552, "tags": {"name": "\u0648\u0646\u06a9\u06d5", "name:ar": "\u0648\u0646\u0643\u0629", "name:ckb": "\u0648\u0646\u06a9\u06d5", "name:en": "Wnka", "name:ku": "Winke", "place": "village", "wikipedia": "ckb:\u0648\u0646\u06a9\u06d5"}}, {"type": "node", "id": 2488260570, "lat": 36.468392, "lon": 44.2284232, "tags": {"name": "\u0632\u06ce\u0628\u0627\u0631\u06c6\u06a9", "name:ar": "\u0632\u064a\u0628\u0627\u0631\u0648\u0643", "name:ckb": "\u0632\u06ce\u0628\u0627\u0631\u06c6\u06a9", "name:ku": "Z\u00eabarok", "place": "village"}}, {"type": "node", "id": 2488260572, "lat": 36.2973876, "lon": 44.3926719, "tags": {"name": "\u0632\u06cc\u0627\u0631\u06d5\u062a", "name:ar": "\u0632\u06cc\u0627\u0631\u06d5\u062a", "name:ckb": "\u0632\u06cc\u0627\u0631\u06d5\u062a", "name:de": "Ziarat", "name:en": "Ziarat", "name:fr": "Ziarat", "place": "village"}}, {"type": "node", "id": 2488260574, "lat": 36.4381767, "lon": 44.154287, "tags": {"alt_name": "\u0632\u064a\u0627\u0631\u062a", "int_name": "Ziarat, Ziy\u0101rat, \u0632\u064a\u0627\u0631\u062a, Ziarat, Ziyarat, \u0632\u064a\u0627\u0631\u062a", "is_in": "Iraq , \u062c\u0645\u0647\u0648\u0631\u064a\u0629 \u0627\u0644\u0639\u0631\u0627\u0642", "name": "\u0632\u06cc\u0627\u0631\u06d5\u062a", "name:ar": "\u0632\u064a\u0627\u0631\u062a", "name:ckb": "\u0632\u06cc\u0627\u0631\u06d5\u062a", "name:de": "Ziarat", "name:en": "Ziarat", "name:fr": "Ziarat", "place": "village"}}, {"type": "node", "id": 2488260577, "lat": 36.4219868, "lon": 44.196228, "tags": {"alt_name": "\u0632\u0631\u0643\u0648\u0632", "int_name": "Zirg\u014dz, Zirk\u016bz, Zrgwez, \u0632\u0631\u0643\u0648\u0632, Zirgoz, Zirkuz, Zrgwez, \u0632\u0631\u0643\u0648\u0632", "is_in": "Iraq , \u062c\u0645\u0647\u0648\u0631\u064a\u0629 \u0627\u0644\u0639\u0631\u0627\u0642", "name": "\u0632\u0631\u06af\u0648\u0632", "name:ar": "\u0632\u0631\u0643\u0648\u0632", "name:ckb": "\u0632\u0631\u06af\u0648\u0632", "name:de": "Zirgoz", "name:en": "Zirgoz", "name:fr": "Zirgoz", "place": "village"}}, {"type": "node", "id": 2488260597, "lat": 36.357363, "lon": 44.1400397, "tags": {"alt_name": "\u0634\u0646\u0627\u0648\u0647", "int_name": "\u0634\u0646\u0627\u0648\u0647, \u0634\u0646\u0627\u0648\u0647", "name": "\u0634\u0646\u0627\u0648\u0647", "name:ar": "\u0634\u0646\u0627\u0648\u0647", "name:ar1": "\u0634\u0646\u0627\u0648\u0647", "name:de": "\u0634\u0646\u0627\u0648\u0647", "name:en": "\u0634\u0646\u0627\u0648\u0647", "name:fr": "\u0634\u0646\u0627\u0648\u0647", "place": "village"}}, {"type": "node", "id": 2488260603, "lat": 36.4876265, "lon": 44.3855931, "tags": {"alt_name": "\u0641\u0627\u062a\u0627\u0648\u0647", "name": "\u0641\u0627\u062a\u0627\u0648\u06d5", "name:ckb": "\u0641\u0627\u062a\u0627\u0648\u06d5", "name:en": "Fatawa", "place": "village"}}, {"type": "node", "id": 2488260606, "lat": 36.3577106, "lon": 44.3235004, "tags": {"alt_name": "\u0642\u0644\u0627 \u0633\u0646\u062e \u0627\u0644\u0639\u0644\u064a\u0627", "int_name": "\u0642\u0644\u0627 \u0633\u0646\u062e \u0627\u0644\u0639\u0644\u064a\u0627, \u0642\u0644\u0627 \u0633\u0646\u062e \u0627\u0644\u0639\u0644\u064a\u0627", "name": "\u0642\u0644\u0627 \u0633\u0646\u062e \u0627\u0644\u0639\u0644\u064a\u0627", "name:ar": "\u0642\u0644\u0627 \u0633\u0646\u062e \u0627\u0644\u0639\u0644\u064a\u0627", "name:ar1": "\u0642\u0644\u0627 \u0633\u0646\u062e \u0627\u0644\u0639\u0644\u064a\u0627", "name:de": "\u0642\u0644\u0627 \u0633\u0646\u062e \u0627\u0644\u0639\u0644\u064a\u0627", "name:en": "Qala Sinj", "name:fr": "\u0642\u0644\u0627 \u0633\u0646\u062e \u0627\u0644\u0639\u0644\u064a\u0627", "name:ku": "\u0642\u06d5\u0644\u0627 \u0633\u0646\u062c", "place": "village"}}, {"type": "node", "id": 2488265292, "lat": 36.136389, "lon": 44.4575, "tags": {"name": "\u0628\u0627\u0648\u06d5 \u0642\u06c6\u067e\u06cc \u06af\u06d5\u0648\u0631\u06d5", "name:ar": "\u0628\u0627\u0648\u06d5\u0642\u0648\u0628", "name:ar1": "\u0633\u0627\u0648\u0629 \u0642\u0648\u0628", "name:de": "Bawe Qup", "name:en": "Gundy bawaqube gawra", "name:fr": "Bawe Qup", "name:ku-Arab": "\u06af\u0648\u0646\u062f\u06cc \u0628\u0627\u0648\u06d5\u0642\u0648\u0628\u06cc \u06af\u06d5\u0648\u0631\u06d5", "place": "village"}}, {"type": "node", "id": 2488265885, "lat": 36.235587, "lon": 44.503027, "tags": {"alt_name": "\u0633\u0645\u0627\u0642\u0629 \u0642\u0644\u064a \u0633\u0631\u062c\u0627\u0648", "name": "\u0633\u0645\u0627\u0642\u0648\u0644\u06cc \u0633\u06d5\u0631\u0648\u0686\u0627\u0648\u06d5", "name:ar": "\u0633\u0645\u0627\u0642\u0648\u0644\u06cc \u0633\u06d5\u0631\u0648\u0686\u0627\u0648\u06d5", "name:ckb": "\u0633\u0645\u0627\u0642\u0648\u0644\u06cc \u0633\u06d5\u0631\u0648\u0686\u0627\u0648\u06d5", "name:de": "Smaquli Seruchawa", "name:en": "Smaquli Seruchawa", "name:fr": "Smaquli Seruchawa", "place": "village"}}, {"type": "node", "id": 2488268784, "lat": 36.4473469, "lon": 44.4963289, "tags": {"admin_level": "9", "name": "\u0626\u06d5\u0634\u06a9\u06d5\u0641\u062a\u06d5", "name:ar": "\u0626\u06d5\u0634\u06a9\u06d5\u0641\u062a\u06d5", "name:ar1": "\u0623\u0634\u0643\u0641\u062a", "name:ckb": "\u0626\u06d5\u0634\u06a9\u06d5\u0641\u062a\u06d5", "name:de": "Ashkafata", "name:en": "Ashkafata", "name:fr": "Ashkafata", "place": "village"}}, {"type": "node", "id": 2488268831, "lat": 36.41454, "lon": 44.5258015, "tags": {"alt_name": "\u0628\u0627\u0644\u0648\u0631\u0643\u0627\u0648\u0629", "int_name": "Balurkawa, B\u0101l\u016brk\u0101wah, \u0628\u0627\u0644\u0648\u0631\u0643\u0627\u0648\u0629, Balurkawa, Balurkawah, \u0628\u0627\u0644\u0648\u0631\u0643\u0627\u0648\u0629", "is_in": "Iraq , \u062c\u0645\u0647\u0648\u0631\u064a\u0629 \u0627\u0644\u0639\u0631\u0627\u0642", "name": "\u0628\u0627\u0631\u0648\u0648\u06a9\u0627\u0648\u06d5", "name:ar": "\u0628\u0627\u0644\u0648\u0631\u0643\u0627\u0648\u0629", "name:ar1": "\u0628\u0627\u0644\u0648\u0631\u0643\u0627\u0648\u0629", "name:de": "Balurkawa", "name:en": "Balurkawa", "name:fr": "Balurkawa", "place": "village"}}, {"type": "node", "id": 2488268844, "lat": 36.5008682, "lon": 44.5283149, "tags": {"admin_level": "9", "name": "\u0628\u06d5\u0631\u062f\u0648\u06a9", "name:ckb": "\u0628\u06d5\u0631\u062f\u0648\u06a9", "name:de": "Bardok", "name:en": "Bardok", "name:fr": "Bardok", "place": "village"}}, {"type": "node", "id": 2488268850, "lat": 36.4133972, "lon": 44.5268438, "tags": {"alt_name": "\u0628\u0627\u0631\u0648\u0643\u0627\u0648\u064a", "int_name": "B\u0101r\u016bk\u0101w\u012b, \u0628\u0627\u0631\u0648\u0643\u0627\u0648\u064a, Barukawi, \u0628\u0627\u0631\u0648\u0643\u0627\u0648\u064a", "is_in": "Iraq , \u062c\u0645\u0647\u0648\u0631\u064a\u0629 \u0627\u0644\u0639\u0631\u0627\u0642", "name": "\u0628\u0627\u0631\u0648\u0643\u0627\u0648\u064a", "name:ar": "\u0628\u0627\u0631\u0648\u0643\u0627\u0648\u064a", "name:ar1": "\u0628\u0627\u0631\u0648\u0643\u0627\u0648\u064a", "name:de": "Barukawi", "name:en": "Barukawi", "name:fr": "Barukawi", "place": "village"}}, {"type": "node", "id": 2488268869, "lat": 36.4300417, "lon": 44.5163354, "tags": {"alt_name": "\u0628\u064a \u0631\u0648\u0648\u064a", "int_name": "Bay R\u016bway, B\u0113r\u014d, Beru, Berwy, B\u012br\u016b, \u0628\u064a \u0631\u0648\u0648\u064a, Bay Ruway, Bero, Beru, Berwy, Biru, \u0628\u064a \u0631\u0648\u0648\u064a", "is_in": "Iraq , \u062c\u0645\u0647\u0648\u0631\u064a\u0629 \u0627\u0644\u0639\u0631\u0627\u0642", "name": "\u0628\u06ce \u0695\u06c6", "name:ar": "\u0628\u064a \u0631\u0648\u0648\u064a", "name:ar1": "\u0628\u064a \u0631\u0648\u0648\u064a", "name:de": "Bay Ruway", "name:en": "Bay Ruway", "name:fr": "Bay Ruway", "place": "village"}}, {"type": "node", "id": 2488268881, "lat": 36.5074466, "lon": 44.5229351, "tags": {"admin_level": "9", "name": "\u0628\u0644\u06cc \u0698\u06ce\u0631\u06cc", "name:de": "Bla Lower", "name:en": "Bla Lower", "name:fr": "Bla Lower", "place": "village"}}, {"type": "node", "id": 2488268921, "lat": 36.50399, "lon": 44.473722, "tags": {"admin_level": "9", "name": "\u0628\u0646\u0627\u0648\u06cc", "name:ar": "\u0628\u0646\u0627\u0648\u064a", "name:de": "Bunawi", "name:en": "Bunawi", "name:fr": "Bunawi", "place": "village"}}, {"type": "node", "id": 2488269303, "lat": 36.469389, "lon": 44.497528, "tags": {"admin_level": "9", "name": "\u0647\u06d5\u0631\u0648\u0648\u062a\u06d5 \u06a9\u06c6\u0646", "name:ckb": "\u0647\u06d5\u0631\u0648\u0648\u062a\u06d5 \u06a9\u06c6\u0646", "name:de": "Haruta Kawn", "name:en": "Haruta Kawn", "name:fr": "Haruta Kawn", "place": "village"}}, {"type": "node", "id": 2488269518, "lat": 36.442028, "lon": 44.513583, "tags": {"admin_level": "9", "name": "\u062e\u06d5\u062a\u06ce", "name:ar": "\u062e\u0647 \u062a\u064a", "name:ckb": "\u062e\u06d5\u062a\u06ce", "name:de": "Khate", "name:en": "Khate", "name:fr": "Khat\u00e9", "place": "village"}}, {"type": "node", "id": 2488269698, "lat": 36.516667, "lon": 44.5, "tags": {"admin_level": "9", "name": "\u0645\u0632\u0627\u0643\u0629", "name:ar": "\u0645\u0632\u0627\u0643\u0629", "name:de": "Mezaka", "name:en": "Mezaka", "name:fr": "Mezaka", "place": "village"}}, {"type": "node", "id": 2488269747, "lat": 36.240083, "lon": 44.531472, "tags": {"int_name": "N\u0101waz\u012bn\u0101n, N\u0101zahn\u012bn, Nazaneen, N\u0101zan\u012bn, \u0646\u0627\u0632\u0647 \u0646\u064a\u0646, Nawazinan, Nazahnin, Nazaneen, Nazanin, \u0646\u0627\u0632\u0647 \u0646\u064a\u0646", "name": "\u0646\u0627\u0632\u06d5\u0646\u06cc\u0646", "name:de": "Nazanin", "name:en": "Nazanin", "name:fr": "Nazanin", "name:ru": "\u041d\u0430\u0437\u0430\u043d\u0438\u043d", "place": "village"}}, {"type": "node", "id": 2488269856, "lat": 36.457537, "lon": 44.496264, "tags": {"admin_level": "9", "name": "\u0633\u0627\u0631\u062a\u06a9\u06d5", "name:ar": "\u0633\u0627\u0631\u062a\u0643\u0629", "name:ckb": "\u0633\u0627\u0631\u062a\u06a9\u06d5", "name:de": "Saratka", "name:en": "Sartka", "name:fr": "Saratka", "place": "village"}}, {"type": "node", "id": 2488269921, "lat": 36.196269, "lon": 44.53011, "tags": {"name": "\u0633\u0645\u0627\u0642\u0648\u0648\u06b5\u06cc \u0633\u06d5\u0631\u0648\u0686\u0627\u0648\u06d5", "name:ar": "\u0633\u0645\u0627\u0642\u0648\u0644\u064a \u0633\u0631\u0648\u062c\u0627\u0648\u0629", "name:ckb": "\u0633\u0645\u0627\u0642\u0648\u0648\u06b5\u06cc \u0633\u06d5\u0631\u0648\u0686\u0627\u0648\u06d5", "name:de": "Smaquli Saruchawa", "name:en": "Smaquli Saruchawa", "name:fr": "Smaquli Saruchawa", "place": "village"}}, {"type": "node", "id": 2488270129, "lat": 36.414589, "lon": 44.5152339, "tags": {"alt_name": "\u062a\u0648\u062a\u0645\u0629", "int_name": "T\u016btmah, \u062a\u0648\u062a\u0645\u0647, Tutmah, \u062a\u0648\u062a\u0645\u0647", "is_in": "Iraq , \u062c\u0645\u0647\u0648\u0631\u064a\u0629 \u0627\u0644\u0639\u0631\u0627\u0642", "name": "\u062a\u0648\u062a\u0645\u06d5", "name:ar": "\u062a\u0648\u062a\u0645\u0629", "name:ar1": "\u062a\u0648\u062a\u0645\u0629", "name:de": "Tutmah", "name:en": "Tutmah", "name:fr": "Tutmah", "name:ku": "\u062a\u0648\u062a\u0645\u06d5", "place": "village"}}, {"type": "node", "id": 2691060984, "lat": 36.2572189, "lon": 44.0011491}, {"type": "node", "id": 2692210723, "lat": 36.2609114, "lon": 43.9998632}, {"type": "node", "id": 2815231376, "lat": 36.2747468, "lon": 43.9988693}, {"type": "node", "id": 2815231383, "lat": 36.2687168, "lon": 43.9900719}, {"type": "node", "id": 2815231384, "lat": 36.2756321, "lon": 43.9924272}, {"type": "node", "id": 2815231388, "lat": 36.275292, "lon": 43.991322}, {"type": "node", "id": 2815233412, "lat": 36.2698303, "lon": 43.9944501}, {"type": "node", "id": 2815233414, "lat": 36.269103, "lon": 43.9885523}, {"type": "node", "id": 2815233436, "lat": 36.2673909, "lon": 43.9912958}, {"type": "node", "id": 2815233442, "lat": 36.2685418, "lon": 43.9898455}, {"type": "node", "id": 2815233444, "lat": 36.2757178, "lon": 43.9910083}, {"type": "node", "id": 2815233456, "lat": 36.2699869, "lon": 43.9890632}, {"type": "node", "id": 2815233478, "lat": 36.267762, "lon": 43.994272}, {"type": "node", "id": 2815233502, "lat": 36.2731345, "lon": 43.9974112}, {"type": "node", "id": 2815233531, "lat": 36.2757724, "lon": 43.9901055}, {"type": "node", "id": 2815233533, "lat": 36.275932, "lon": 43.9905732}, {"type": "node", "id": 2823579544, "lat": 36.2877591, "lon": 44.2499361}, {"type": "node", "id": 2823579553, "lat": 36.2473018, "lon": 44.0770548}, {"type": "node", "id": 2823579559, "lat": 36.2888414, "lon": 44.250435}, {"type": "node", "id": 2823579583, "lat": 36.2862643, "lon": 44.2497484}, {"type": "node", "id": 2823579591, "lat": 36.2452083, "lon": 44.0908811}, {"type": "node", "id": 2823579597, "lat": 36.252775, "lon": 44.087977}, {"type": "node", "id": 2823579808, "lat": 36.2430847, "lon": 44.0881452}, {"type": "node", "id": 2823579810, "lat": 36.2908983, "lon": 44.2492066}, {"type": "node", "id": 2823579832, "lat": 36.2881483, "lon": 44.2496786}, {"type": "node", "id": 2823579836, "lat": 36.2898865, "lon": 44.2518566}, {"type": "node", "id": 2823579861, "lat": 36.2520878, "lon": 44.0925387}, {"type": "node", "id": 2823579864, "lat": 36.2529205, "lon": 44.0795768}, {"type": "node", "id": 2823579875, "lat": 36.2420613, "lon": 44.0868721}, {"type": "node", "id": 2823579878, "lat": 36.2479867, "lon": 44.0930108}, {"type": "node", "id": 2823579892, "lat": 36.2900941, "lon": 44.2532835}, {"type": "node", "id": 2823579895, "lat": 36.2530261, "lon": 44.0840147}, {"type": "node", "id": 2823580006, "lat": 36.2533628, "lon": 44.0893056}, {"type": "node", "id": 2823580012, "lat": 36.2525974, "lon": 44.091439}, {"type": "node", "id": 2823580015, "lat": 36.2425947, "lon": 44.0874856}, {"type": "node", "id": 2823580039, "lat": 36.2447751, "lon": 44.0787353}, {"type": "node", "id": 2823580072, "lat": 36.2524244, "lon": 44.0791653}, {"type": "node", "id": 2823580079, "lat": 36.2411549, "lon": 44.0803217}, {"type": "node", "id": 2823580128, "lat": 36.2883904, "lon": 44.2536483}, {"type": "node", "id": 2823580137, "lat": 36.2418543, "lon": 44.0794116}, {"type": "node", "id": 2823580161, "lat": 36.2516309, "lon": 44.0945441}, {"type": "node", "id": 2823580162, "lat": 36.2403046, "lon": 44.0814299}, {"type": "node", "id": 2823580165, "lat": 36.2863594, "lon": 44.2512504}, {"type": "node", "id": 2823580194, "lat": 36.287344, "lon": 44.2516098}, {"type": "node", "id": 2823580195, "lat": 36.2903795, "lon": 44.2493139}, {"type": "node", "id": 2823580203, "lat": 36.2912356, "lon": 44.2495284}, {"type": "node", "id": 2823580227, "lat": 36.2905524, "lon": 44.2510734}, {"type": "node", "id": 2823580230, "lat": 36.2893936, "lon": 44.2540667}, {"type": "node", "id": 2921744634, "lat": 36.305807, "lon": 44.0304653}, {"type": "node", "id": 2921744636, "lat": 36.3068575, "lon": 44.0281474}, {"type": "node", "id": 2921744637, "lat": 36.3064274, "lon": 44.0291851}, {"type": "node", "id": 2921744638, "lat": 36.3078234, "lon": 44.0234395}, {"type": "node", "id": 2921744643, "lat": 36.3082804, "lon": 44.0326704}, {"type": "node", "id": 2921744644, "lat": 36.3117981, "lon": 44.0233472}, {"type": "node", "id": 2921744645, "lat": 36.3081504, "lon": 44.0347727}, {"type": "node", "id": 2921744647, "lat": 36.3087946, "lon": 44.035561}, {"type": "node", "id": 2921744648, "lat": 36.3098238, "lon": 44.0370124}, {"type": "node", "id": 2921744649, "lat": 36.310154, "lon": 44.039268}, {"type": "node", "id": 2921744650, "lat": 36.311461, "lon": 44.0407658}, {"type": "node", "id": 2921744654, "lat": 36.3119869, "lon": 44.0422655}, {"type": "node", "id": 2921744655, "lat": 36.3125615, "lon": 44.0452253}, {"type": "node", "id": 2921744662, "lat": 36.3135966, "lon": 44.0469321}, {"type": "node", "id": 2921744664, "lat": 36.3133672, "lon": 44.0451668}, {"type": "node", "id": 2921744665, "lat": 36.3148793, "lon": 44.0240168}, {"type": "node", "id": 2921744671, "lat": 36.3165073, "lon": 44.0241679}, {"type": "node", "id": 2921744672, "lat": 36.3170669, "lon": 44.0468248}, {"type": "node", "id": 2921744673, "lat": 36.3154527, "lon": 44.0242293}, {"type": "node", "id": 2921744676, "lat": 36.3180042, "lon": 44.0241739}, {"type": "node", "id": 2921744680, "lat": 36.3178902, "lon": 44.0470377}, {"type": "node", "id": 2921744690, "lat": 36.3190555, "lon": 44.0468492}, {"type": "node", "id": 2921744691, "lat": 36.3186079, "lon": 44.0474255}, {"type": "node", "id": 2921744695, "lat": 36.3196015, "lon": 44.0260013}, {"type": "node", "id": 2921744805, "lat": 36.3200896, "lon": 44.0473913}, {"type": "node", "id": 2921744808, "lat": 36.3201257, "lon": 44.0491074}, {"type": "node", "id": 2921744816, "lat": 36.3217102, "lon": 44.0266865}, {"type": "node", "id": 2921744825, "lat": 36.3226859, "lon": 44.0476975}, {"type": "node", "id": 2921744834, "lat": 36.3231924, "lon": 44.0273957}, {"type": "node", "id": 2921744845, "lat": 36.3234715, "lon": 44.0470333}, {"type": "node", "id": 2921744852, "lat": 36.324434, "lon": 44.0289714}, {"type": "node", "id": 2921744858, "lat": 36.326096, "lon": 44.0293769}, {"type": "node", "id": 2921744862, "lat": 36.3236512, "lon": 44.0471117}, {"type": "node", "id": 2921744863, "lat": 36.3281767, "lon": 44.0400092}, {"type": "node", "id": 2921744870, "lat": 36.3249044, "lon": 44.0442685}, {"type": "node", "id": 2921744876, "lat": 36.3282989, "lon": 44.0427172}, {"type": "node", "id": 2921744877, "lat": 36.3257776, "lon": 44.0440371}, {"type": "node", "id": 2921744879, "lat": 36.3271677, "lon": 44.0424428}, {"type": "node", "id": 3029549061, "lat": 36.3282681, "lon": 44.3554612}, {"type": "node", "id": 3029549062, "lat": 36.3290136, "lon": 44.3559436}, {"type": "node", "id": 3029549063, "lat": 36.329931, "lon": 44.3554374}, {"type": "node", "id": 3029549064, "lat": 36.3324094, "lon": 44.3566316}, {"type": "node", "id": 3029549065, "lat": 36.3330147, "lon": 44.3548601}, {"type": "node", "id": 3029549066, "lat": 36.3338047, "lon": 44.3541721}, {"type": "node", "id": 3029549067, "lat": 36.3336836, "lon": 44.3535236}, {"type": "node", "id": 3029549068, "lat": 36.3321928, "lon": 44.3524005}, {"type": "node", "id": 3029549069, "lat": 36.3307784, "lon": 44.3508505}, {"type": "node", "id": 3029549070, "lat": 36.3300139, "lon": 44.3501308}, {"type": "node", "id": 3029549071, "lat": 36.3293895, "lon": 44.3502178}, {"type": "node", "id": 3029549072, "lat": 36.3283446, "lon": 44.352535}, {"type": "node", "id": 3029549073, "lat": 36.3294341, "lon": 44.3528592}, {"type": "node", "id": 3029549074, "lat": 36.3293831, "lon": 44.3535789}, {"type": "node", "id": 3029549075, "lat": 36.3288415, "lon": 44.3541642}, {"type": "node", "id": 3029549397, "lat": 36.4154533, "lon": 44.2651656}, {"type": "node", "id": 3029549398, "lat": 36.4161242, "lon": 44.2658039}, {"type": "node", "id": 3029549399, "lat": 36.4158202, "lon": 44.266846}, {"type": "node", "id": 3029549400, "lat": 36.4149921, "lon": 44.2673411}, {"type": "node", "id": 3029549401, "lat": 36.4142687, "lon": 44.2672629}, {"type": "node", "id": 3029549402, "lat": 36.4136386, "lon": 44.266559}, {"type": "node", "id": 3029549403, "lat": 36.4132949, "lon": 44.2669228}, {"type": "node", "id": 3029549404, "lat": 36.4127985, "lon": 44.2677058}, {"type": "node", "id": 3029549405, "lat": 36.411952, "lon": 44.2679984}, {"type": "node", "id": 3029549406, "lat": 36.4115065, "lon": 44.2681012}, {"type": "node", "id": 3029549407, "lat": 36.4102145, "lon": 44.2679193}, {"type": "node", "id": 3029549409, "lat": 36.4086424, "lon": 44.2695564}, {"type": "node", "id": 3029549410, "lat": 36.4083432, "lon": 44.2691293}, {"type": "node", "id": 3029549411, "lat": 36.408706, "lon": 44.2684017}, {"type": "node", "id": 3029549412, "lat": 36.4084896, "lon": 44.2680696}, {"type": "node", "id": 3029549413, "lat": 36.409177, "lon": 44.2664879}, {"type": "node", "id": 3029549414, "lat": 36.4095653, "lon": 44.266733}, {"type": "node", "id": 3029549415, "lat": 36.4099535, "lon": 44.2658077}, {"type": "node", "id": 3029549416, "lat": 36.4096926, "lon": 44.2654756}, {"type": "node", "id": 3029549417, "lat": 36.4102208, "lon": 44.2652462}, {"type": "node", "id": 3029549418, "lat": 36.4112774, "lon": 44.2644}, {"type": "node", "id": 3029549419, "lat": 36.4117293, "lon": 44.2651118}, {"type": "node", "id": 3029549420, "lat": 36.412283, "lon": 44.265088}, {"type": "node", "id": 3029549421, "lat": 36.4126649, "lon": 44.2662822}, {"type": "node", "id": 3029549422, "lat": 36.4128431, "lon": 44.2662664}, {"type": "node", "id": 3029549423, "lat": 36.4129322, "lon": 44.265871}, {"type": "node", "id": 3029549424, "lat": 36.413314, "lon": 44.2660766}, {"type": "node", "id": 3029549425, "lat": 36.4134413, "lon": 44.2656654}, {"type": "node", "id": 3029549426, "lat": 36.4132568, "lon": 44.2648271}, {"type": "node", "id": 3029549427, "lat": 36.4135941, "lon": 44.2647638}, {"type": "node", "id": 3029549428, "lat": 36.4137659, "lon": 44.2651434}, {"type": "node", "id": 3029549429, "lat": 36.4140523, "lon": 44.264922}, {"type": "node", "id": 3029549430, "lat": 36.414816, "lon": 44.2649852}, {"type": "node", "id": 3053882293, "lat": 36.1055823, "lon": 44.2314098}, {"type": "node", "id": 3053882294, "lat": 36.1042994, "lon": 44.2306158}, {"type": "node", "id": 3053882295, "lat": 36.1038834, "lon": 44.231045}, {"type": "node", "id": 3053882296, "lat": 36.1027738, "lon": 44.2327831}, {"type": "node", "id": 3053882297, "lat": 36.1027045, "lon": 44.2344568}, {"type": "node", "id": 3053882298, "lat": 36.1031899, "lon": 44.2352292}, {"type": "node", "id": 3053882299, "lat": 36.1045595, "lon": 44.2362163}, {"type": "node", "id": 3053882300, "lat": 36.1049409, "lon": 44.2362163}, {"type": "node", "id": 3053882301, "lat": 36.1058944, "lon": 44.235358}, {"type": "node", "id": 3053882302, "lat": 36.1055477, "lon": 44.2343709}, {"type": "node", "id": 3053882303, "lat": 36.1051316, "lon": 44.2331479}, {"type": "node", "id": 3064199069, "lat": 36.231459, "lon": 44.1403738}, {"type": "node", "id": 3064199070, "lat": 36.231665, "lon": 44.1414376}, {"type": "node", "id": 3064199071, "lat": 36.231745, "lon": 44.1391965}, {"type": "node", "id": 3064199072, "lat": 36.231745, "lon": 44.142544}, {"type": "node", "id": 3064199074, "lat": 36.2322714, "lon": 44.1385298}, {"type": "node", "id": 3064199075, "lat": 36.2324659, "lon": 44.1434376}, {"type": "node", "id": 3064199076, "lat": 36.2330722, "lon": 44.1386149}, {"type": "node", "id": 3064199078, "lat": 36.233324, "lon": 44.1434376}, {"type": "node", "id": 3064199079, "lat": 36.2333583, "lon": 44.1382603}, {"type": "node", "id": 3064199080, "lat": 36.2336786, "lon": 44.1436929}, {"type": "node", "id": 3064199081, "lat": 36.2338159, "lon": 44.1449836}, {"type": "node", "id": 3064199083, "lat": 36.234182, "lon": 44.1376646}, {"type": "node", "id": 3064199084, "lat": 36.2343765, "lon": 44.1454517}, {"type": "node", "id": 3064199085, "lat": 36.2352918, "lon": 44.1457354}, {"type": "node", "id": 3064199087, "lat": 36.2354177, "lon": 44.1380192}, {"type": "node", "id": 3064199088, "lat": 36.2354634, "lon": 44.1449553}, {"type": "node", "id": 3064199089, "lat": 36.2356122, "lon": 44.1420901}, {"type": "node", "id": 3064199090, "lat": 36.2356694, "lon": 44.143239}, {"type": "node", "id": 3064199091, "lat": 36.2356694, "lon": 44.1441751}, {"type": "node", "id": 3064199092, "lat": 36.2357723, "lon": 44.141466}, {"type": "node", "id": 3064199093, "lat": 36.2358867, "lon": 44.1385582}, {"type": "node", "id": 3064199094, "lat": 36.2359325, "lon": 44.1398348}, {"type": "node", "id": 3064199095, "lat": 36.2361041, "lon": 44.1405582}, {"type": "node", "id": 3067754471, "lat": 36.4512536, "lon": 44.1670759}, {"type": "node", "id": 3067754472, "lat": 36.4510292, "lon": 44.1702838}, {"type": "node", "id": 3067754473, "lat": 36.4520993, "lon": 44.1702301}, {"type": "node", "id": 3067754474, "lat": 36.453109, "lon": 44.1691465}, {"type": "node", "id": 3067754475, "lat": 36.4531349, "lon": 44.1681273}, {"type": "node", "id": 3067754476, "lat": 36.4523582, "lon": 44.1672904}, {"type": "node", "id": 3068454897, "lat": 36.1683767, "lon": 44.1503043}, {"type": "node", "id": 3072576506, "lat": 36.4044045, "lon": 44.2149178}, {"type": "node", "id": 3072576507, "lat": 36.4064942, "lon": 44.2157547}, {"type": "node", "id": 3072576508, "lat": 36.4053716, "lon": 44.218866}, {"type": "node", "id": 3072576509, "lat": 36.4027465, "lon": 44.2195312}, {"type": "node", "id": 3072576510, "lat": 36.4020039, "lon": 44.2185871}, {"type": "node", "id": 3072576511, "lat": 36.401624, "lon": 44.2167632}, {"type": "node", "id": 3072576512, "lat": 36.4076858, "lon": 44.2198531}, {"type": "node", "id": 3072576513, "lat": 36.4056652, "lon": 44.2207758}, {"type": "node", "id": 3072576514, "lat": 36.4040073, "lon": 44.2237584}, {"type": "node", "id": 3072576515, "lat": 36.4042491, "lon": 44.2254965}, {"type": "node", "id": 3072576516, "lat": 36.4052335, "lon": 44.2254965}, {"type": "node", "id": 3072576517, "lat": 36.4065114, "lon": 44.2230074}, {"type": "node", "id": 3081043988, "lat": 36.1285709, "lon": 44.254818}, {"type": "node", "id": 3081043989, "lat": 36.1289349, "lon": 44.2568993}, {"type": "node", "id": 3081043990, "lat": 36.1305034, "lon": 44.2569315}, {"type": "node", "id": 3081043991, "lat": 36.132557, "lon": 44.255923}, {"type": "node", "id": 3081043992, "lat": 36.1320718, "lon": 44.2539489}, {"type": "node", "id": 3081067456, "lat": 36.1687624, "lon": 44.1523321}, {"type": "node", "id": 3094957080, "lat": 36.3524692, "lon": 43.9988144}, {"type": "node", "id": 3094957081, "lat": 36.3505768, "lon": 43.9978917}, {"type": "node", "id": 3094957082, "lat": 36.3497041, "lon": 43.9983423}, {"type": "node", "id": 3094957083, "lat": 36.3492547, "lon": 44.0006383}, {"type": "node", "id": 3094957084, "lat": 36.3506546, "lon": 44.002194}, {"type": "node", "id": 3094957085, "lat": 36.3517866, "lon": 44.0018721}, {"type": "node", "id": 3094957086, "lat": 36.3525124, "lon": 44.0005954}, {"type": "node", "id": 3125843826, "lat": 36.2447871, "lon": 44.0777242}, {"type": "node", "id": 3142818544, "lat": 36.348382, "lon": 44.0338039}, {"type": "node", "id": 3142818545, "lat": 36.3471722, "lon": 44.0217233}, {"type": "node", "id": 3142818546, "lat": 36.3499892, "lon": 44.0135693}, {"type": "node", "id": 3142818547, "lat": 36.3515619, "lon": 44.0085697}, {"type": "node", "id": 3142818548, "lat": 36.3511817, "lon": 44.0027332}, {"type": "node", "id": 3142818549, "lat": 36.344597, "lon": 43.99827}, {"type": "node", "id": 3142818550, "lat": 36.3399476, "lon": 44.0113163}, {"type": "node", "id": 3142818551, "lat": 36.3353671, "lon": 44.0150285}, {"type": "node", "id": 3142818552, "lat": 36.3340361, "lon": 44.0210152}, {"type": "node", "id": 3142818553, "lat": 36.3340534, "lon": 44.0292334}, {"type": "node", "id": 3142818554, "lat": 36.3372685, "lon": 44.0304565}, {"type": "node", "id": 3488246365, "lat": 36.3954714, "lon": 44.1936184}, {"type": "node", "id": 3488246366, "lat": 36.384819, "lon": 44.1788192}, {"type": "node", "id": 3488246389, "lat": 36.3996062, "lon": 44.1879313}, {"type": "node", "id": 3488246390, "lat": 36.3806738, "lon": 44.2156773}, {"type": "node", "id": 3488246391, "lat": 36.382387, "lon": 44.2102465}, {"type": "node", "id": 3488246392, "lat": 36.3830662, "lon": 44.2096496}, {"type": "node", "id": 3488246893, "lat": 36.3840888, "lon": 44.2095972}, {"type": "node", "id": 3505944023, "lat": 36.2572822, "lon": 43.9996733}, {"type": "node", "id": 3505944030, "lat": 36.260957, "lon": 43.9959608}, {"type": "node", "id": 3505944070, "lat": 36.2631659, "lon": 43.9959385}, {"type": "node", "id": 3505944074, "lat": 36.2634299, "lon": 44.0015902}, {"type": "node", "id": 3598637911, "lat": 36.2486836, "lon": 44.0931128}, {"type": "node", "id": 3605226144, "lat": 36.3918249, "lon": 44.1797078}, {"type": "node", "id": 3605257687, "lat": 36.3928689, "lon": 44.2005071}, {"type": "node", "id": 3605257828, "lat": 36.4009596, "lon": 44.185657}, {"type": "node", "id": 3605259771, "lat": 36.3881289, "lon": 44.207717}, {"type": "node", "id": 3605259772, "lat": 36.3893488, "lon": 44.206367}, {"type": "node", "id": 3693140208, "lat": 36.4288383, "lon": 44.3623225}, {"type": "node", "id": 3693140209, "lat": 36.4298003, "lon": 44.3655412}, {"type": "node", "id": 3700650891, "lat": 36.3854655, "lon": 44.2085868}, {"type": "node", "id": 3957493880, "lat": 36.0871349, "lon": 44.0586882}, {"type": "node", "id": 3957493881, "lat": 36.083762, "lon": 44.0600438}, {"type": "node", "id": 3957493882, "lat": 36.084352, "lon": 44.0663095}, {"type": "node", "id": 3957493883, "lat": 36.0878556, "lon": 44.0645743}, {"type": "node", "id": 3957517080, "lat": 36.1596131, "lon": 44.1615491}, {"type": "node", "id": 3957517081, "lat": 36.1574232, "lon": 44.1618708}, {"type": "node", "id": 3957517082, "lat": 36.1575718, "lon": 44.1666184}, {"type": "node", "id": 3957517083, "lat": 36.1595603, "lon": 44.1678961}, {"type": "node", "id": 3957517084, "lat": 36.1625343, "lon": 44.1691912}, {"type": "node", "id": 3957517085, "lat": 36.1626304, "lon": 44.1683523}, {"type": "node", "id": 3957517086, "lat": 36.1627274, "lon": 44.1644269}, {"type": "node", "id": 3957517087, "lat": 36.1606218, "lon": 44.1635084}, {"type": "node", "id": 3957517237, "lat": 36.1736268, "lon": 44.1492497}, {"type": "node", "id": 3957546104, "lat": 36.3067751, "lon": 44.0237164}, {"type": "node", "id": 3958490886, "lat": 36.1819099, "lon": 44.2992344}, {"type": "node", "id": 3958490887, "lat": 36.1810093, "lon": 44.299406}, {"type": "node", "id": 3958490888, "lat": 36.1809574, "lon": 44.3006291}, {"type": "node", "id": 3958490889, "lat": 36.1819446, "lon": 44.3005648}, {"type": "node", "id": 3958490898, "lat": 36.2251466, "lon": 44.2726997}, {"type": "node", "id": 3958490899, "lat": 36.224113, "lon": 44.2727475}, {"type": "node", "id": 3958490900, "lat": 36.224143, "lon": 44.2737444}, {"type": "node", "id": 3958490901, "lat": 36.2251766, "lon": 44.2736966}, {"type": "node", "id": 3958491205, "lat": 36.0907969, "lon": 44.2844357, "tags": {"name": "\u0633\u0645\u0627\u06cc\u0644\u0627\u0648\u06d5", "name:ar": "\u0633\u0645\u0627\u06cc\u0644\u0627\u0648\u0629", "name:ckb": "\u0633\u0645\u0627\u06cc\u0644\u0627\u0648\u06d5", "name:en": "Smailawa", "name:ku": "Simaylawe", "place": "village"}}, {"type": "node", "id": 3958722798, "lat": 36.432341, "lon": 44.1155968}, {"type": "node", "id": 3958722799, "lat": 36.4349527, "lon": 44.1184328}, {"type": "node", "id": 3958722800, "lat": 36.4340487, "lon": 44.1192711}, {"type": "node", "id": 3958722801, "lat": 36.4327284, "lon": 44.1176836}, {"type": "node", "id": 3958722802, "lat": 36.4333598, "lon": 44.1164172}, {"type": "node", "id": 3958722846, "lat": 36.4035854, "lon": 44.0307883, "tags": {"name": "\u062f\u06d5\u0631\u0628\u06d5\u0646\u062f\u06cc \u0633\u06d5\u06cc\u06cc\u062f\u0627\u0646", "name:en": "Darbandi Sayidan", "place": "village"}}, {"type": "node", "id": 3958827837, "lat": 36.3191293, "lon": 44.0244386}, {"type": "node", "id": 3958886632, "lat": 36.171202, "lon": 44.2211675, "tags": {"name": "\u0628\u06cc\u0648\u06a9\u06d5\u06cc \u06af\u06d5\u0648\u0631\u06d5", "name:en": "big byoka", "place": "village", "population": "136"}}, {"type": "node", "id": 4178477675, "lat": 36.2865929, "lon": 44.2513356}, {"type": "node", "id": 4178477676, "lat": 36.2863551, "lon": 44.2511821}, {"type": "node", "id": 4209184660, "lat": 36.3695333, "lon": 44.2034066}, {"type": "node", "id": 4487038391, "lat": 36.5194703, "lon": 44.2723034, "tags": {"addr:street": "\u062a\u0646\u0643\u0628\u064a\u0631", "name": "\u062a\u06d5\u0646\u06af\u06d5\u0628\u06cc\u0631", "name:ar": "\u062a\u0646\u0643\u0628\u064a\u0631", "name:ckb": "\u062a\u06d5\u0646\u06af\u06d5\u0628\u06cc\u0631", "name:en": "Tangabir", "name:ku": "Tengeb\u00eer", "phone": "07504716068", "place": "village"}}, {"type": "node", "id": 4523107922, "lat": 36.4029919, "lon": 44.2193692}, {"type": "node", "id": 4523107944, "lat": 36.4054537, "lon": 44.2186386}, {"type": "node", "id": 4523107945, "lat": 36.4056274, "lon": 44.2181571}, {"type": "node", "id": 4559183795, "lat": 36.0823211, "lon": 44.0173021, "tags": {"name": "\u0642\u06c6\u067e\u06d5\u0642\u0631\u0627\u0646\u06cc \u0646\u0648\u06ce", "name:ar": "\u0642\u0648\u0628\u0642\u0631\u0627\u0646 \u0646\u0648\u064a", "name:ckb": "\u0642\u06c6\u067e\u06d5\u0642\u0631\u0627\u0646\u06cc \u0646\u0648\u06ce", "name:en": "Qopaqran New", "place": "village"}}, {"type": "node", "id": 4678708489, "lat": 36.373836, "lon": 44.086895, "tags": {"addr:street": "Khabat Road", "name": "\u06af\u0648\u0646\u062f\u06ce \u0633\u06ce \u06af\u0631\u06a9\u0627", "name:ar": "\u0642\u0631\u06cc\u0629 \u0633\u06ce \u06af\u0631\u06a9\u0627", "name:en": "Segrka Village", "name:ku": "Gund\u00ea S\u00eagirka - \u06af\u0648\u0646\u062f\u06cc \u0633\u06ce \u06af\u0631\u06a9\u0627", "place": "village"}}, {"type": "node", "id": 4973119626, "lat": 36.4753261, "lon": 44.4214671, "tags": {"name": "\u062d\u06d5\u0633\u06d5\u0646\u0627\u0648\u06d5", "name:ckb": "\u062d\u06d5\u0633\u06d5\u0646\u0627\u0648\u06d5", "name:en": "Hasanawa", "name:ku": "Hesenawe", "place": "village"}}, {"type": "node", "id": 5056330635, "lat": 36.2984554, "lon": 44.3924157}, {"type": "node", "id": 5056330636, "lat": 36.2991109, "lon": 44.3930196}, {"type": "node", "id": 5056330637, "lat": 36.2996175, "lon": 44.3928594}, {"type": "node", "id": 5056330638, "lat": 36.2998956, "lon": 44.3932044}, {"type": "node", "id": 5056330639, "lat": 36.3000048, "lon": 44.3937221}, {"type": "node", "id": 5056330640, "lat": 36.3003624, "lon": 44.3955707}, {"type": "node", "id": 5056330641, "lat": 36.299687, "lon": 44.396458}, {"type": "node", "id": 5056330642, "lat": 36.2989818, "lon": 44.3952133}, {"type": "node", "id": 5056330643, "lat": 36.2978693, "lon": 44.3946587}, {"type": "node", "id": 5056330644, "lat": 36.2967569, "lon": 44.3941288}, {"type": "node", "id": 5056330645, "lat": 36.2957934, "lon": 44.3943876}, {"type": "node", "id": 5056330646, "lat": 36.295257, "lon": 44.3943013}, {"type": "node", "id": 5056330647, "lat": 36.2948994, "lon": 44.3935618}, {"type": "node", "id": 5056330648, "lat": 36.2939458, "lon": 44.3932291}, {"type": "node", "id": 5056330649, "lat": 36.2939359, "lon": 44.3925389}, {"type": "node", "id": 5056330650, "lat": 36.2945021, "lon": 44.3921446}, {"type": "node", "id": 5056330651, "lat": 36.294363, "lon": 44.3908998}, {"type": "node", "id": 5056330652, "lat": 36.2955351, "lon": 44.3914298}, {"type": "node", "id": 5056330653, "lat": 36.2965085, "lon": 44.3920213}, {"type": "node", "id": 5056330654, "lat": 36.2960218, "lon": 44.3905794}, {"type": "node", "id": 5056330655, "lat": 36.2967171, "lon": 44.3900864}, {"type": "node", "id": 5056330656, "lat": 36.2975713, "lon": 44.3908875}, {"type": "node", "id": 5056330657, "lat": 36.2980779, "lon": 44.3914174}, {"type": "node", "id": 5100099513, "lat": 36.4915739, "lon": 44.3706123, "tags": {"name": "\u0628\u0627\u0633\u0631\u0645\u06d5", "name:ckb": "\u0628\u0627\u0633\u0631\u0645\u06d5", "name:en": "Basirma", "place": "village"}}, {"type": "node", "id": 5114592591, "lat": 36.4070365, "lon": 44.2215969}, {"type": "node", "id": 5114605195, "lat": 36.3647108, "lon": 44.1811326, "tags": {"name": "\u062f\u0627\u0648\u062f\u0627\u0648\u06d5", "name:ckb": "\u062f\u0627\u0648\u062f\u0627\u0648\u06d5", "place": "village"}}, {"type": "node", "id": 5115935422, "lat": 36.369754, "lon": 44.1762925, "tags": {"name": "\u0639\u06d5\u0632\u06cc\u0632\u0627\u0648\u06d5", "name:ckb": "\u0639\u06d5\u0632\u06cc\u0632\u0627\u0648\u06d5", "name:en": "Azizawa", "place": "village"}}, {"type": "node", "id": 5141532083, "lat": 36.2465292, "lon": 44.0769574}, {"type": "node", "id": 5158736325, "lat": 36.12044, "lon": 43.9998209, "tags": {"name": "\u062a\u06c6\u0628\u0632\u0627\u0648\u06d5", "name:ar": "\u0637\u0631\u0627\u0628\u0632\u0627\u0648\u0647", "name:en": "Tobzawa", "place": "village"}}, {"type": "node", "id": 5199189450, "lat": 36.3120559, "lon": 44.0428162}, {"type": "node", "id": 5207981686, "lat": 36.2013702, "lon": 44.141239, "tags": {"name": "\u06a9\u06d5\u0633\u0646\u06d5\u0632\u0627\u0646", "name:ar": "\u0643\u0633\u0646\u0632\u0627\u0646", "name:ckb": "\u06a9\u06d5\u0633\u0646\u06d5\u0632\u0627\u0646", "name:ku": "Kesnezan", "place": "town", "population": "25000", "wikidata": "Q23731282"}}, {"type": "node", "id": 5272667108, "lat": 36.4305979, "lon": 44.365004}, {"type": "node", "id": 5272667109, "lat": 36.4319098, "lon": 44.364656}, {"type": "node", "id": 5272667110, "lat": 36.4327098, "lon": 44.3643876}, {"type": "node", "id": 5272667111, "lat": 36.4329977, "lon": 44.3642881}, {"type": "node", "id": 5272667112, "lat": 36.4337897, "lon": 44.3642881}, {"type": "node", "id": 5272667113, "lat": 36.4344856, "lon": 44.3637214}, {"type": "node", "id": 5272667114, "lat": 36.4364453, "lon": 44.3649642}, {"type": "node", "id": 5272667115, "lat": 36.4379171, "lon": 44.3631249}, {"type": "node", "id": 5272667116, "lat": 36.4391649, "lon": 44.3604304}, {"type": "node", "id": 5272667117, "lat": 36.4398069, "lon": 44.358888}, {"type": "node", "id": 5272667118, "lat": 36.4399841, "lon": 44.3584993}, {"type": "node", "id": 5272667119, "lat": 36.4397339, "lon": 44.3579941}, {"type": "node", "id": 5272667120, "lat": 36.438525, "lon": 44.3574759}, {"type": "node", "id": 5272667221, "lat": 36.4378788, "lon": 44.3576702}, {"type": "node", "id": 5272667222, "lat": 36.4371701, "lon": 44.3576573}, {"type": "node", "id": 5272667223, "lat": 36.4355025, "lon": 44.3575018}, {"type": "node", "id": 5272667224, "lat": 36.4346478, "lon": 44.357152}, {"type": "node", "id": 5272667225, "lat": 36.4341997, "lon": 44.3564654}, {"type": "node", "id": 5272667226, "lat": 36.4335847, "lon": 44.35631}, {"type": "node", "id": 5272667227, "lat": 36.4325946, "lon": 44.3557529}, {"type": "node", "id": 5272667228, "lat": 36.4318962, "lon": 44.3552088}, {"type": "node", "id": 5272667229, "lat": 36.4312291, "lon": 44.3552477}, {"type": "node", "id": 5272667230, "lat": 36.4308226, "lon": 44.3564654}, {"type": "node", "id": 5272667231, "lat": 36.4304057, "lon": 44.3569318}, {"type": "node", "id": 5272667232, "lat": 36.4299992, "lon": 44.3575277}, {"type": "node", "id": 5272667233, "lat": 36.4303119, "lon": 44.358305}, {"type": "node", "id": 5272667234, "lat": 36.4300513, "lon": 44.359445}, {"type": "node", "id": 5272667235, "lat": 36.4300305, "lon": 44.3599891}, {"type": "node", "id": 5272667236, "lat": 36.4291974, "lon": 44.3590898}, {"type": "node", "id": 5272667237, "lat": 36.4288931, "lon": 44.360475}, {"type": "node", "id": 5272667238, "lat": 36.4292765, "lon": 44.3641822}, {"type": "node", "id": 5315962253, "lat": 36.2572539, "lon": 43.9996715}, {"type": "node", "id": 5345632023, "lat": 36.48382, "lon": 44.4133781, "tags": {"name": "\u0628\u0646\u0627\u0631\u06cc \u0633\u06cc\u0633\u0627\u0648\u0647", "name:ckb": "\u0628\u0646\u0627\u0631\u06cc \u0633\u06cc\u0633\u0627\u0648\u0647", "name:en": "Bnari Sisawa", "name:ku": "Binar\u00ee S\u00eesawe", "place": "village"}}, {"type": "node", "id": 5375537022, "lat": 36.37338, "lon": 44.08358, "tags": {"name": "\u0646\u0632\u0627\u0631 \u0647\u06d5\u0631\u06a9\u06cc", "name:ar": "\u06af\u0648\u0646\u062f\u06cc \u0648\u06d5\u0632\u06cc\u0631", "name:en": "Wazir Village", "place": "village"}}, {"type": "node", "id": 5384088220, "lat": 36.3766175, "lon": 44.2099696}, {"type": "node", "id": 5384088233, "lat": 36.3748558, "lon": 44.2128155}, {"type": "node", "id": 5384088234, "lat": 36.3801131, "lon": 44.2149073}, {"type": "node", "id": 5384088235, "lat": 36.3838422, "lon": 44.2138184}, {"type": "node", "id": 5384088236, "lat": 36.382506, "lon": 44.2148095}, {"type": "node", "id": 5384088237, "lat": 36.3803199, "lon": 44.2115708}, {"type": "node", "id": 5384088238, "lat": 36.3795641, "lon": 44.2123793}, {"type": "node", "id": 5384088239, "lat": 36.3809822, "lon": 44.2146075}, {"type": "node", "id": 5384099782, "lat": 36.3248791, "lon": 44.2172855}, {"type": "node", "id": 5384099783, "lat": 36.3230314, "lon": 44.2176584}, {"type": "node", "id": 5384099784, "lat": 36.321715, "lon": 44.2201972}, {"type": "node", "id": 5384099786, "lat": 36.3225296, "lon": 44.2262395}, {"type": "node", "id": 5384099787, "lat": 36.3232043, "lon": 44.2269978},