{"version": 0.6, "generator": "Overpass API 0.7.61.5 4133829e", "osm3s": {"timestamp_osm_base": "2024-03-05T11:03:14Z", "copyright": "The data included in this document is from www.openstreetmap.org. The data is made available under ODbL."}, "elements": [{"type": "node", "id": 434406493, "lat": 9.2727455, "lon": -2.4139258, "tags": {"capital": "6", "name": "Sawla", "place": "village", "wikidata": "Q7428651"}}, {"type": "node", "id": 784646987, "lat": 9.307247, "lon": -2.4236881, "tags": {"name": "Doume", "place": "village"}}, {"type": "node", "id": 1783595788, "lat": 9.217205, "lon": -2.0283212, "tags": {"name": "Kapambe", "place": "village"}}, {"type": "node", "id": 1824160960, "lat": 9.324458, "lon": -2.3436119, "tags": {"name": "Gelencon", "place": "hamlet"}}, {"type": "node", "id": 1824160961, "lat": 9.3511765, "lon": -2.3791191, "tags": {"name": "Jilikon", "place": "hamlet"}}, {"type": "node", "id": 2204436258, "lat": 9.0402209, "lon": -2.4056756, "tags": {"name": "Kiape", "place": "village"}}, {"type": "node", "id": 2204436725, "lat": 9.0818598, "lon": -2.3531164, "tags": {"place": "village"}}, {"type": "node", "id": 2205011041, "lat": 9.0848564, "lon": -2.345368, "tags": {"name": "Senyon", "place": "village"}}, {"type": "node", "id": 2247172333, "lat": 9.2430357, "lon": -2.3498377, "tags": {"name": "Jentilpe", "place": "village"}}, {"type": "node", "id": 2247172334, "lat": 9.2490514, "lon": -2.376818, "tags": {"name": "Nyanoa", "place": "village"}}, {"type": "node", "id": 2247172728, "lat": 9.1297641, "lon": -2.4151555, "tags": {"place": "village"}}, {"type": "node", "id": 2247172829, "lat": 9.1750958, "lon": -2.3974425, "tags": {"place": "village"}}, {"type": "node", "id": 2247173541, "lat": 9.2347249, "lon": -2.4018511, "tags": {"place": "village"}}, {"type": "node", "id": 2247173552, "lat": 9.2339474, "lon": -2.3143639, "tags": {"name": "Jantilla", "place": "village"}}, {"type": "node", "id": 2247173766, "lat": 9.2537509, "lon": -2.4140171, "tags": {"place": "village"}}, {"type": "node", "id": 2247782843, "lat": 9.3869412, "lon": -2.4175402, "tags": {"noname": "yes", "place": "village"}}, {"type": "node", "id": 2247783005, "lat": 9.4097177, "lon": -2.3835455, "tags": {"place": "village"}}, {"type": "node", "id": 2248033776, "lat": 9.2314202, "lon": -2.2211845, "tags": {"name": "Grupe", "place": "hamlet"}}, {"type": "node", "id": 7515375036, "lat": 9.0948241, "lon": -2.0249069, "tags": {"place": "hamlet"}}, {"type": "node", "id": 7566367826, "lat": 9.3293602, "lon": -2.3996705, "tags": {"place": "hamlet"}}, {"type": "node", "id": 7566379150, "lat": 9.315814, "lon": -2.3868013, "tags": {"place": "hamlet"}}, {"type": "node", "id": 7566379151, "lat": 9.3528995, "lon": -2.4043858, "tags": {"place": "hamlet"}}, {"type": "node", "id": 7566379152, "lat": 9.3597275, "lon": -2.3703432, "tags": {"place": "hamlet"}}, {"type": "node", "id": 7758086940, "lat": 9.1937664, "lon": -2.3621297, "tags": {"place": "village"}}, {"type": "node", "id": 9545947468, "lat": 9.3236697, "lon": -2.429722, "tags": {"place": "village"}}]}