{"version": 0.6, "generator": "Overpass API 0.7.61.5 4133829e", "osm3s": {"timestamp_osm_base": "2024-03-06T11:17:45Z", "copyright": "The data included in this document is from www.openstreetmap.org. The data is made available under ODbL."}, "elements": [{"type": "node", "id": 206205926, "lat": 37.246423, "lon": 43.6112852, "tags": {"name": "\u00c7ukurca", "name:ckb": "\u0686\u06d5\u0644\u06ce", "name:ku": "\u00c7el\u00ea", "name:tr": "\u00c7ukurca", "old_name": "\u00c7al", "place": "town", "population": "15477"}}, {"type": "node", "id": 213526185, "lat": 37.0919695, "lon": 43.4874378, "tags": {"alt_name": "\u0627\u0644\u0639\u0645\u0627\u062f\u064a\u0629", "capital": "6", "ele": "1185", "ele:accuracy": "1200", "name": "\u0626\u0627\u0645\u06ce\u062f\u06cc", "name:ar": "\u0627\u0644\u0639\u0645\u0627\u062f\u064a\u0629", "name:ckb": "\u0626\u0627\u0645\u06ce\u062f\u06cc", "name:en": "Amedi", "name:fa": "\u0639\u0645\u0627\u062f\u06cc\u0647", "name:ku": "Am\u00ead\u00ee", "name:ru": "\u042d\u043b\u044c-\u0410\u043c\u0430\u0434\u0438\u044f", "name:tr": "\u0130madiye", "place": "town", "population": "6000", "wikidata": "Q460736", "wikipedia": "ckb:\u0626\u0627\u0645\u06ce\u062f\u06cc"}}, {"type": "node", "id": 1105783116, "lat": 37.333906, "lon": 43.7328139, "tags": {"place": "hamlet"}}, {"type": "node", "id": 1105783963, "lat": 37.3427954, "lon": 43.6796297, "tags": {"name": "Kayal\u0131k", "name:ku": "Zaw\u00eete", "place": "village", "wikidata": "Q6624809", "wikipedia": "tr:Kayal\u0131k, \u00c7ukurca"}}, {"type": "node", "id": 1105794072, "lat": 37.2605894, "lon": 43.8781911, "tags": {"name": "Dede", "name:ku": "Betr\u00fbt", "note": "k\u00f6y bo\u015falt\u0131lm\u0131\u015f ve tahrip edilmi\u015ftir", "place": "village", "wikidata": "Q6801847", "wikipedia": "tr:Dede, \u00c7ukurca"}}, {"type": "node", "id": 1105794076, "lat": 37.3327913, "lon": 43.7167144, "tags": {"alt_name:ku": "Gw\u00eezere\u015f", "name": "Cevizli", "name:ku": "G\u00fbzere\u015f", "place": "hamlet", "turkey_class": "mezra", "wikidata": "Q3669057", "wikipedia": "tr:Cevizli, \u00c7ukurca"}}, {"type": "node", "id": 1105794097, "lat": 37.2373806, "lon": 43.7362176, "tags": {"alt_name:ku": "\u00car\u00ee\u015f", "name": "\u00c7ay\u0131rl\u0131", "name:ku": "Er\u00eej", "place": "village", "wikidata": "Q6480990", "wikipedia": "tr:\u00c7ay\u0131rl\u0131, \u00c7ukurca"}}, {"type": "node", "id": 1105794108, "lat": 37.2525092, "lon": 43.5266643, "tags": {"name": "\u00dcz\u00fcml\u00fc", "name:ku": "De\u015ftan", "place": "village", "wikidata": "Q3669109", "wikipedia": "tr:\u00dcz\u00fcml\u00fc, \u00c7ukurca"}}, {"type": "node", "id": 1105794127, "lat": 37.2883672, "lon": 43.7115219, "tags": {"alt_name:ku": "Mar\u00eefan;Mar\u00fbfan;Mer\u00fbfa;Mar\u00eefa", "name": "Kurudere", "name:ku": "Mer\u00fbfan", "note": "k\u00f6y bo\u015falt\u0131lm\u0131\u015f ve tahrip edilmi\u015ftir", "place": "village", "wikidata": "Q6602172", "wikipedia": "tr:Kurudere, \u00c7ukurca"}}, {"type": "node", "id": 1105794129, "lat": 37.3458432, "lon": 43.6474296, "tags": {"name": "Me\u015feli", "name:ku": "H\u00ea\u015fet", "old_name": "Hi\u015fet;Hai\u015fat", "place": "hamlet"}}, {"type": "node", "id": 1105794132, "lat": 37.3130792, "lon": 43.4709865, "tags": {"name": "G\u00fcnde\u015f", "name:ku": "Gundik", "place": "village", "wikidata": "Q6697895", "wikipedia": "tr:G\u00fcnde\u015f, \u00c7ukurca"}}, {"type": "node", "id": 1105794147, "lat": 37.3066492, "lon": 43.5120315, "tags": {"name": "K\u00f6pr\u00fcl\u00fc", "name:ku": "\u00c7em\u00ea", "place": "hamlet", "source_name:ku": "nisanyanmap.com"}}, {"type": "node", "id": 1105794153, "lat": 37.2635833, "lon": 43.5969814, "tags": {"alt_name:ku": "Biyadir", "name": "Narl\u0131", "name:ku": "Beyad\u00eer", "place": "village", "wikidata": "Q6583411", "wikipedia": "tr:Narl\u0131, \u00c7ukurca"}}, {"type": "node", "id": 1105794159, "lat": 37.2881303, "lon": 43.8193017, "tags": {"abandoned": "yes", "alt_name:ku": "Eb\u00fb\u015f", "name": "\u00c7a\u011flayan", "name:ku": "Arb\u00fb\u015f", "note": "k\u00f6y bo\u015falt\u0131lm\u0131\u015f ve tahrip edilmi\u015ftir", "place": "village", "wikidata": "Q6480073", "wikipedia": "tr:\u00c7a\u011flayan, \u00c7ukurca"}}, {"type": "node", "id": 1105794162, "lat": 37.2560973, "lon": 43.7033218, "tags": {"alt_name:ku": "Jiyani\u015f", "name": "I\u015f\u0131kl\u0131", "name:ku": "Ziyani\u015f", "note": "k\u00f6y bo\u015falt\u0131lm\u0131\u015f ve tahrip edilmi\u015ftir", "place": "village", "wikidata": "Q6656243", "wikipedia": "tr:I\u015f\u0131kl\u0131, \u00c7ukurca"}}, {"type": "node", "id": 1105794257, "lat": 37.2430515, "lon": 43.8209675, "tags": {"alt_name:ku": "\u015e\u00eevarezan", "name": "\u00c7\u0131narl\u0131", "name:ku": "\u015e\u00eewer\u00eez", "note": "k\u00f6y bo\u015falt\u0131lm\u0131\u015f ve tahrip edilmi\u015ftir", "place": "village", "wikidata": "Q6465829", "wikipedia": "tr:\u00c7\u0131narl\u0131, \u00c7ukurca"}}, {"type": "node", "id": 1105794313, "lat": 37.2899993, "lon": 43.7476772, "tags": {"alt_name": "Kav\u015fak", "name": "Kavu\u015fak", "name:ku": "Bil\u00eacan", "note": "k\u00f6y bo\u015falt\u0131lm\u0131\u015f ve tahrip edilmi\u015ftir", "place": "village", "wikidata": "Q6627097", "wikipedia": "tr:Kavu\u015fak, \u00c7ukurca"}}, {"type": "node", "id": 1105794349, "lat": 37.3478552, "lon": 43.4641585, "tags": {"name": "Akkaya", "name:ku": "Ser\u00easip\u00ee", "place": "village", "wikidata": "Q6950003", "wikipedia": "tr:Akkaya, \u00c7ukurca"}}, {"type": "node", "id": 1105826251, "lat": 37.2522682, "lon": 43.7036993, "tags": {"name": "Tepeba\u015f\u0131", "place": "hamlet"}}, {"type": "node", "id": 1106260799, "lat": 37.2241206, "lon": 43.4686568}, {"type": "node", "id": 1106260833, "lat": 37.2276841, "lon": 43.438268}, {"type": "node", "id": 1106261877, "lat": 37.231835, "lon": 43.4331469}, {"type": "node", "id": 1106262084, "lat": 37.2221283, "lon": 43.468574}, {"type": "node", "id": 1106262176, "lat": 37.2229037, "lon": 43.467044}, {"type": "node", "id": 1106262575, "lat": 37.2280645, "lon": 43.4420551}, {"type": "node", "id": 1106262775, "lat": 37.2233532, "lon": 43.4680637}, {"type": "node", "id": 1106263853, "lat": 37.2244155, "lon": 43.4670869}, {"type": "node", "id": 1106263872, "lat": 37.227054, "lon": 43.4382602}, {"type": "node", "id": 1106264391, "lat": 37.2276322, "lon": 43.4360532}, {"type": "node", "id": 1106264671, "lat": 37.2225699, "lon": 43.4667342}, {"type": "node", "id": 1106264882, "lat": 37.2284439, "lon": 43.442531}, {"type": "node", "id": 1106265182, "lat": 37.2228191, "lon": 43.4696456}, {"type": "node", "id": 1106265919, "lat": 37.2239975, "lon": 43.4667005}, {"type": "node", "id": 1106265939, "lat": 37.2265688, "lon": 43.4398222}, {"type": "node", "id": 1106266470, "lat": 37.2239652, "lon": 43.4689526}, {"type": "node", "id": 1106266486, "lat": 37.2265552, "lon": 43.4381462}, {"type": "node", "id": 1106267055, "lat": 37.2315344, "lon": 43.4350218}, {"type": "node", "id": 1106267190, "lat": 37.2263771, "lon": 43.4369567}, {"type": "node", "id": 1106267369, "lat": 37.2228191, "lon": 43.4699883}, {"type": "node", "id": 1106267548, "lat": 37.2224247, "lon": 43.465823}, {"type": "node", "id": 1106267794, "lat": 37.2308579, "lon": 43.4397372}, {"type": "node", "id": 1106268089, "lat": 37.2232487, "lon": 43.4676992}, {"type": "node", "id": 1106268997, "lat": 37.2235854, "lon": 43.4658257}, {"type": "node", "id": 1106269019, "lat": 37.2267593, "lon": 43.4392799}, {"type": "node", "id": 1106269257, "lat": 37.2234048, "lon": 43.4711778}, {"type": "node", "id": 1106269642, "lat": 37.2222579, "lon": 43.4702425}, {"type": "node", "id": 1106269669, "lat": 37.2249669, "lon": 43.4685011}, {"type": "node", "id": 1106269677, "lat": 37.2272125, "lon": 43.437058}, {"type": "node", "id": 1106269845, "lat": 37.2296675, "lon": 43.4301739}, {"type": "node", "id": 1106270115, "lat": 37.2282939, "lon": 43.4402324}, {"type": "node", "id": 1106270300, "lat": 37.2230049, "lon": 43.4687344}, {"type": "node", "id": 1106270626, "lat": 37.2256269, "lon": 43.468495}, {"type": "node", "id": 1106270634, "lat": 37.2268726, "lon": 43.4376906}, {"type": "node", "id": 1106271126, "lat": 37.2280323, "lon": 43.4378094}, {"type": "node", "id": 1106271296, "lat": 37.2224828, "lon": 43.4663697}, {"type": "node", "id": 1106271507, "lat": 37.2223373, "lon": 43.468246}, {"type": "node", "id": 1106271562, "lat": 37.2231358, "lon": 43.4668436}, {"type": "node", "id": 1106271636, "lat": 37.2277022, "lon": 43.4410186}, {"type": "node", "id": 1106271763, "lat": 37.2243119, "lon": 43.4650136}, {"type": "node", "id": 1106271914, "lat": 37.2228777, "lon": 43.4711642}, {"type": "node", "id": 1106272011, "lat": 37.2222113, "lon": 43.4711051}, {"type": "node", "id": 1106272143, "lat": 37.2247705, "lon": 43.4675429}, {"type": "node", "id": 1106272156, "lat": 37.2260131, "lon": 43.4381274}, {"type": "node", "id": 1106272306, "lat": 37.2279271, "lon": 43.4395534}, {"type": "node", "id": 1106272375, "lat": 37.2277569, "lon": 43.4354695}, {"type": "node", "id": 1106272716, "lat": 37.2293092, "lon": 43.4390794}, {"type": "node", "id": 1106272861, "lat": 37.2225927, "lon": 43.4694853}, {"type": "node", "id": 1106273313, "lat": 37.2260513, "lon": 43.4396669}, {"type": "node", "id": 1106273482, "lat": 37.223804, "lon": 43.469877}, {"type": "node", "id": 1106273628, "lat": 37.2238846, "lon": 43.469296}, {"type": "node", "id": 1106273645, "lat": 37.2280138, "lon": 43.4373669}, {"type": "node", "id": 1106273918, "lat": 37.2319971, "lon": 43.4370778}, {"type": "node", "id": 1106273953, "lat": 37.2265876, "lon": 43.4360002}, {"type": "node", "id": 1106274237, "lat": 37.2283083, "lon": 43.4406001}, {"type": "node", "id": 1106274323, "lat": 37.2233532, "lon": 43.466839}, {"type": "node", "id": 1106274550, "lat": 37.2255503, "lon": 43.4678352}, {"type": "node", "id": 1106274555, "lat": 37.2266768, "lon": 43.4392956}, {"type": "node", "id": 1110830342, "lat": 37.0897439, "lon": 43.4894224}, {"type": "node", "id": 1110830373, "lat": 37.0886741, "lon": 43.4883763}, {"type": "node", "id": 1110830384, "lat": 37.1014375, "lon": 43.4973145}, {"type": "node", "id": 1110830393, "lat": 37.0957559, "lon": 43.4901734}, {"type": "node", "id": 1110830489, "lat": 37.0885709, "lon": 43.485501}, {"type": "node", "id": 1110830551, "lat": 37.0945022, "lon": 43.4901573}, {"type": "node", "id": 1110830566, "lat": 37.0892944, "lon": 43.4839094}, {"type": "node", "id": 1110830598, "lat": 37.094147, "lon": 43.4901304}, {"type": "node", "id": 1110830627, "lat": 37.0919243, "lon": 43.4899557}, {"type": "node", "id": 1110830662, "lat": 37.0907889, "lon": 43.4900405}, {"type": "node", "id": 1110830663, "lat": 37.0950798, "lon": 43.4904094}, {"type": "node", "id": 1110830679, "lat": 37.0875872, "lon": 43.4871478}, {"type": "node", "id": 1110830750, "lat": 37.0943214, "lon": 43.4859975}, {"type": "node", "id": 1437898515, "lat": 37.070514, "lon": 43.5847047}, {"type": "node", "id": 1437898516, "lat": 37.0706173, "lon": 43.5828}, {"type": "node", "id": 1437898558, "lat": 37.0719986, "lon": 43.5813137}, {"type": "node", "id": 1437898600, "lat": 37.0730563, "lon": 43.5839482}, {"type": "node", "id": 1437898604, "lat": 37.0729152, "lon": 43.5809685}, {"type": "node", "id": 1437898612, "lat": 37.0735771, "lon": 43.5796261}, {"type": "node", "id": 1437898624, "lat": 37.0737037, "lon": 43.5863924}, {"type": "node", "id": 1437898625, "lat": 37.0739819, "lon": 43.5790613}, {"type": "node", "id": 1437898636, "lat": 37.0743565, "lon": 43.5785093}, {"type": "node", "id": 1437898637, "lat": 37.0757638, "lon": 43.581209}, {"type": "node", "id": 1437898640, "lat": 37.0750405, "lon": 43.5799298}, {"type": "node", "id": 1437898653, "lat": 37.0753047, "lon": 43.5800564}, {"type": "node", "id": 1437898658, "lat": 37.0747983, "lon": 43.5963596}, {"type": "node", "id": 1437898664, "lat": 37.074814, "lon": 43.5971878}, {"type": "node", "id": 1437898671, "lat": 37.0751245, "lon": 43.5982597}, {"type": "node", "id": 1437898682, "lat": 37.074621, "lon": 43.5981761}, {"type": "node", "id": 1437898727, "lat": 37.075665, "lon": 43.5989431}, {"type": "node", "id": 1482241049, "lat": 37.3292964, "lon": 43.9617887, "tags": {"abandoned": "yes", "name": "Dilekli", "name:ku": "\u015euk\u00ea", "note": "halen 'k\u00f6y'-stat\u00fcs\u00fc tas\u0131yor!", "place": "village", "source": "HGK", "wikidata": "Q6782106", "wikipedia": "tr:Dilekli, Y\u00fcksekova"}}, {"type": "node", "id": 1482241060, "lat": 37.2723816, "lon": 43.70092, "tags": {"abandoned": "yes", "alt_name:ku": "\u015e\u00eev\u00ee\u015fk", "name": "Kavakl\u0131", "name:ku": "\u015eew\u00ee\u015fek", "note": "k\u00f6y bo\u015falt\u0131lm\u0131\u015f ve tahrip edilmi\u015ftir", "place": "village", "wikidata": "Q6078433", "wikipedia": "tr:Kavakl\u0131, \u00c7ukurca"}}, {"type": "node", "id": 1482241069, "lat": 37.300488, "lon": 43.636372, "tags": {"name": "Kazan", "name:ku": "Tiyar", "place": "village", "wikidata": "Q6070988", "wikipedia": "tr:Kazan, \u00c7ukurca"}}, {"type": "node", "id": 2381936133, "lat": 37.0730216, "lon": 43.580463}, {"type": "node", "id": 2381936164, "lat": 37.0713003, "lon": 43.5823189}, {"type": "node", "id": 2381936181, "lat": 37.0741847, "lon": 43.5788327}, {"type": "node", "id": 2381936189, "lat": 37.073233, "lon": 43.5797598}, {"type": "node", "id": 2479378666, "lat": 37.117222, "lon": 43.913889, "tags": {"int_name": "Cham\u0113j\u016b, Chameju", "name": "Chameju", "name:ar": "\u062c\u0645 \u062c\u0648", "name:en": "Chameju", "name:ku": "\u0686\u06d5\u0645\u06ce \u062c\u06cc", "place": "village"}}, {"type": "node", "id": 2480147203, "lat": 37.172457, "lon": 43.439072, "tags": {"alt_name": "\u0645\u0631\u0643\u0644\u064a", "int_name": "Margal\u012b, Margaly, Mirgaj\u0113, \u0645\u0631\u06af\u0644\u064a, Margali, Margaly, Mirgaje, \u0645\u0631\u06af\u0644\u064a", "is_in": "Iraq , \u062c\u0645\u0647\u0648\u0631\u064a\u0629 \u0627\u0644\u0639\u0631\u0627\u0642", "name": "\u0645\u0631\u0643\u0644\u064a", "name:ar": "\u0645\u0631\u0643\u0627\u062c\u064a\u0627", "name:ar1": "\u0645\u0631\u0643\u0644\u064a", "name:de": "Margali", "name:en": "Merkajiya", "name:fr": "Margali", "place": "village"}}, {"type": "node", "id": 2480236746, "lat": 37.0276984, "lon": 43.7638178, "tags": {"int_name": "D\u0113wik, D\u012bq\u016bk, Divok, D\u012bv\u016bk, \u062f\u064a\u06a4\u0648\u0643, Dewik, Diquk, Divok, Divuk, \u062f\u064a\u06a4\u0648\u0643", "name": "\u062f\u064a\u0641\u0648\u0643", "name:ar": "\u062f\u064a\u0641\u0648\u0643", "name:de": "Dewik", "name:en": "Dewik", "name:fr": "Dewik", "place": "village"}}, {"type": "node", "id": 2480236751, "lat": 37.047896, "lon": 43.7393875, "tags": {"int_name": "Rash\u0101n, Rash\u0101nk, Rashanke, \u0631\u0634\u0627\u0646, Rashan, Rashank, Rashanke, \u0631\u0634\u0627\u0646", "name": "\u0631\u06d5\u0634\u0627\u0646\u06a9", "name:ar": "\u0631\u0634\u0627\u0646", "name:de": "Rashan", "name:en": "Rashan", "name:fr": "Rashan", "place": "village"}}, {"type": "node", "id": 2480237086, "lat": 37.172965, "lon": 43.805753, "tags": {"alt_name": "\u0631\u0634\u0645\u0629", "int_name": "Rashma, Rashma, Rashmah, \u0631\u0634\u0645\u0647, Rashma, Rashma, Rashmah, \u0631\u0634\u0645\u0647", "is_in": "Iraq , \u062c\u0645\u0647\u0648\u0631\u064a\u0629 \u0627\u0644\u0639\u0631\u0627\u0642", "name": "\u0631\u0634\u0645\u0629", "name:ar": "\u0631\u06ce\u0640\u0640\u0640\u0640\u0640\u0640\u0640\u0640\u0634\u0640\u0640\u0640\u0640\u0645\u0640\u0640\u0640\u0640\u0640\u0640\u0640\u06d5", "name:ar1": "\u0631\u0634\u0645\u0629", "name:de": "Rashma", "name:en": "RESHMA", "name:fr": "Rashma", "name:ku": "\u0631\u06ce\u0640\u0640\u0640\u0640\u0640\u0640\u0640\u0640\u0634\u0640\u0640\u0640\u0640\u0645\u0640\u0640\u0640\u0640\u0640\u0640\u0640\u06d5", "place": "village"}}, {"type": "node", "id": 2481841196, "lat": 37.0147808, "lon": 43.8490242, "tags": {"designation": "Balinda", "name": "\u0628\u0627\u0644\u064a\u0646\u062f\u0627", "place": "village", "source": "GPS"}}, {"type": "node", "id": 2482495226, "lat": 37.2288413, "lon": 43.4388506, "tags": {"alt_name": "K\u0101ni Mase, K\u0101n\u012b M\u0101s\u012b, Kany Masy, Kani Mase, Kani Masi, Kany Masy", "capital": "7", "ele": "1250", "int_name": "Kani Mase\u060c \u06a9\u0627\u0646\u06cc \u0645\u0627\u0633\u06cc", "is_in": "Iraq , \u062c\u0645\u0647\u0648\u0631\u064a\u0629 \u0627\u0644\u0639\u0631\u0627\u0642", "name": "\u06a9\u0627\u0646\u06cc \u0645\u0627\u0633\u06cc", "name:ar": "\u0643\u0627\u0646\u064a \u0645\u0627\u0633\u064a", "name:de": "Kani Mase", "name:en": "Kani Mase", "name:fa": "\u06a9\u0627\u0646\u06cc \u0645\u0627\u0633\u06cc", "name:fr": "Kani Mase", "name:ku": "Kan\u00ee Mas\u00ee", "place": "village", "wikidata": "Q12234397", "wikipedia": "en:Kani Masi"}}, {"type": "node", "id": 2482495879, "lat": 37.1878359, "lon": 43.5653021, "tags": {"alt_name": "\u0643\u0631\u064a", "int_name": "Kir\u012b, Kri, \u0643\u0631\u064a, Kiri, Kri, \u0643\u0631\u064a", "is_in": "Iraq , \u062c\u0645\u0647\u0648\u0631\u064a\u0629 \u0627\u0644\u0639\u0631\u0627\u0642", "name": "\u0643\u0631\u064a", "name:ar": "\u0643\u0631\u064a", "name:ar1": "\u0643\u0631\u064a", "name:de": "Kiri", "name:en": "Kiri", "name:fr": "Kiri", "place": "village"}}, {"type": "node", "id": 2482496612, "lat": 37.1617582, "lon": 43.6245395, "tags": {"alt_name": "\u0632\u064a\u0648\u0629", "int_name": "Z\u0113wa, Ziwa, Z\u012bwah, \u0632\u064a\u0648\u0647, Zewa, Ziwa, Ziwah, \u0632\u064a\u0648\u0647", "is_in": "Iraq , \u062c\u0645\u0647\u0648\u0631\u064a\u0629 \u0627\u0644\u0639\u0631\u0627\u0642", "name": "\u0632\u064a\u0648\u0629", "name:ar": "\u0632\u064a\u0648\u0629", "name:ar1": "\u0632\u064a\u0648\u0629", "name:de": "Zewa", "name:en": "Zewa", "name:fr": "Zewa", "place": "village"}}, {"type": "node", "id": 2482497550, "lat": 37.178755, "lon": 43.630172, "tags": {"name": "\u06a9\u0627\u0631\u06d5", "name:ar": "\u0643\u0627\u0631\u0629", "name:ckb": "\u06a9\u0627\u0631\u06d5", "name:de": "Kara", "name:en": "Kara", "name:fr": "Kara", "name:ku": "Kare", "name:ku-Arab": "\u06a9\u0627\u0631\u06d5", "place": "village", "population": "kare"}}, {"type": "node", "id": 2482498582, "lat": 37.055263, "lon": 43.648005, "tags": {"alt_name": "\u062f\u06ce\u0631\u06d5\u0644\u06c6\u06a9", "alt_name:ku": "D\u00earelok", "capital": "7", "int_name": "Dairaluk, Dera Louk, D\u0113ral\u014dk, Mujama D\u012brah L\u016bk, \u0645\u062c\u0645\u0639 \u062f\u064a\u0631\u0629 \u0644\u0648\u0643, Dairaluk, Dera Louk, Deralok, Mujama Dirah Luk, \u0645\u062c\u0645\u0639 \u062f\u064a\u0631\u0629 \u0644\u0648\u0643, Deralok", "name": "\u062f\u06ce\u0631\u06d5\u0644\u0648\u0648\u06a9", "name:ar": "\u062f\u064a\u0631\u0644\u0648\u0643", "name:ckb": "\u062f\u06ce\u0631\u06d5\u0644\u0648\u0648\u06a9", "name:de": "Dairaluk", "name:en": "Deraluk", "name:fr": "Dairaluk", "name:ku": "D\u00earel\u00fbk", "name:ku-Arab": "\u062f\u06ce\u0631\u06d5\u0644\u0648\u0648\u06a9", "place": "town", "population": "52533", "population:date": "2010", "wikidata": "Q10950935", "wikipedia": "ckb:\u062f\u06ce\u0631\u06d5\u0644\u0648\u0648\u06a9"}}, {"type": "node", "id": 2482498596, "lat": 37.0833976, "lon": 43.6116339, "tags": {"int_name": "Guh\u0113rz, Joharze, J\u016bhariz, \u062c\u0648\u0647\u0631\u0632, Guherz, Joharze, Juhariz, \u062c\u0648\u0647\u0631\u0632", "name": "\u06af\u0648\u0647\u06d5\u0631\u0632", "name:ar": "\u062c\u0648\u0647\u0631\u0632", "name:de": "Guherz", "name:en": "Guherz", "name:fr": "Guherz", "place": "village"}}, {"type": "node", "id": 2482498644, "lat": 37.100333, "lon": 43.647338, "tags": {"alt_name": "\u0695\u06d5\u0634\u0627\u06a4\u0627", "alt_name:ku": "Re\u015fava", "int_name": "Rash\u0101va, Rash\u0101wa, Rash\u0101wah, Rishawa, Rish\u0101wah, \u0631\u0634\u0627\u0648\u0647, Rashava, Rashawa, Rashawah, Rishawa, Rishawah, \u0631\u0634\u0627\u0648\u0647", "is_in": "Iraq , \u062c\u0645\u0647\u0648\u0631\u064a\u0629 \u0627\u0644\u0639\u0631\u0627\u0642", "name": "\u0631\u0634\u0627\u0641\u06d5", "name:ar": "\u0631\u0634\u0627\u0641\u0627", "name:de": "Rashava", "name:en": "Rashava", "name:fr": "Rashava", "name:ku": "Ro\u015fava", "place": "village", "wikipedia": "ku:Ro\u015fava"}}, {"type": "node", "id": 2482498678, "lat": 37.098943, "lon": 43.5220847, "tags": {"int_name": "Dayr\u012b, D\u0113r\u012b, D\u0113r\u012b Sig\u0113r\u012b, D\u012br\u012b, Pery, \u062f\u064a\u0631\u064a, Dayri, Deri, Deri Sigeri, Diri, Pery, \u062f\u064a\u0631\u064a", "name": "\u062f\u06ce\u0631\u06ce", "name:ar": "\u062f\u064a\u0631\u064a", "name:de": "Dayri", "name:en": "Dayri", "name:fr": "Dayri", "name:ku": "D\u00ear\u00ea", "place": "village"}}, {"type": "node", "id": 2482498874, "lat": 37.0462597, "lon": 43.5645413, "tags": {"alt_name": "\u0631\u062c\u062a", "int_name": "Rachit, Rajit, \u0631\u062c\u062a, \u0631\u0686\u062a, Rachit, Rajit, \u0631\u062c\u062a, \u0631\u0686\u062a", "is_in": "Iraq , \u062c\u0645\u0647\u0648\u0631\u064a\u0629 \u0627\u0644\u0639\u0631\u0627\u0642", "name": "\u0631\u062c\u062a", "name:ar": "\u0631\u062c\u062a", "name:ar1": "\u0631\u062c\u062a", "name:de": "Rachit", "name:en": "Rachit", "name:fr": "Rachit", "place": "village"}}, {"type": "node", "id": 2482499117, "lat": 37.1128046, "lon": 43.7115741, "tags": {"alt_name": "\u0623\u064a\u062a\u0648\u062a", "int_name": "Atiot, Ayt\u016bt, H\u0113t\u016bt, \u0623\u064a\u062a\u0648\u062a, \u0627\u064a\u062a\u0648\u062a, Atiot, Aytut, Hetut, \u0623\u064a\u062a\u0648\u062a, \u0627\u064a\u062a\u0648\u062a", "is_in": "Iraq , \u062c\u0645\u0647\u0648\u0631\u064a\u0629 \u0627\u0644\u0639\u0631\u0627\u0642", "name": "\u0623\u064a\u062a\u0648\u062a", "name:ar": "\u0623\u064a\u062a\u0648\u062a", "name:ar1": "\u0623\u064a\u062a\u0648\u062a", "name:de": "Atiot", "name:en": "Atiot", "name:fr": "Atiot", "place": "village"}}, {"type": "node", "id": 2482500400, "lat": 37.174077, "lon": 43.772079, "tags": {"alt_name": "\u0628\u064a\u0628\u0648", "int_name": "Baibo, Baibu, Bayb\u016b, Bebo, B\u0113b\u014d, Bibo, B\u012bb\u016b, \u0628\u064a\u0628\u0648, Baibo, Baibu, Baybu, Bebo, Bebo, Bibo, Bibu, \u0628\u064a\u0628\u0648", "is_in": "Iraq , \u062c\u0645\u0647\u0648\u0631\u064a\u0629 \u0627\u0644\u0639\u0631\u0627\u0642", "name": "\u0628\u064a\u0628\u0648", "name:ar": "\u0628\u064a\u0628\u0648", "name:ar1": "\u0628\u064a\u0628\u0648", "name:de": "Baibo", "name:en": "Baibo", "name:fr": "Baibo", "name:ru": "\u0411\u0430\u0439\u0431\u0443", "place": "village"}}, {"type": "node", "id": 2482500402, "lat": 37.1347666, "lon": 43.8043102, "tags": {"alt_name": "\u0628\u0627\u064a\u0632\u0644\u0629", "int_name": "B\u0101yzalah, B\u0101yzlah, B\u0113zal, Paizla, \u0628\u0627\u064a\u0632\u0644\u0647, Bayzalah, Bayzlah, Bezal, Paizla, \u0628\u0627\u064a\u0632\u0644\u0647", "is_in": "Iraq , \u062c\u0645\u0647\u0648\u0631\u064a\u0629 \u0627\u0644\u0639\u0631\u0627\u0642", "name": "\u0628\u0627\u064a\u0632\u0644\u0629", "name:ar": "\u0628\u0627\u064a\u0632\u0644\u0629", "name:ar1": "\u0628\u0627\u064a\u0632\u0644\u0629", "name:de": "Bayzalah", "name:en": "Bayzalah", "name:fr": "Bayzalah", "place": "village"}}, {"type": "node", "id": 2482500421, "lat": 37.1737806, "lon": 43.7476806, "tags": {"alt_name": "\u0645\u0633\u0628\u064a\u0631", "int_name": "Masb\u012br, Mstir, Sip\u0113, Sip\u012b, \u0633\u067e\u064a, \u0645\u0633\u0628\u064a\u0631, Masbir, Mstir, Sipe, Sipi, \u0633\u067e\u064a, \u0645\u0633\u0628\u064a\u0631", "is_in": "Iraq , \u062c\u0645\u0647\u0648\u0631\u064a\u0629 \u0627\u0644\u0639\u0631\u0627\u0642", "name": "\u0645\u0633\u0628\u064a\u0631", "name:ar": "\u0645\u0633\u0628\u064a\u0631", "name:ar1": "\u0645\u0633\u0628\u064a\u0631", "name:de": "Masbir", "name:en": "Masbir", "name:fr": "Masbir", "place": "village"}}, {"type": "node", "id": 2482500450, "lat": 37.2209481, "lon": 43.7137346, "tags": {"alt_name": "\u062f\u0632\u0643\u0627", "int_name": "Dizg\u0101, Dizk\u0101, \u062f\u0632\u0643\u0627, \u062f\u0632\u06af\u0627, Dizga, Dizka, \u062f\u0632\u0643\u0627, \u062f\u0632\u06af\u0627", "is_in": "Iraq , \u062c\u0645\u0647\u0648\u0631\u064a\u0629 \u0627\u0644\u0639\u0631\u0627\u0642", "name": "\u062f\u0632\u0643\u0627", "name:ar": "\u062f\u0632\u0643\u0627", "name:ar1": "\u062f\u0632\u0643\u0627", "name:de": "Dizga", "name:en": "Dizga", "name:fr": "Dizga", "place": "village"}}, {"type": "node", "id": 2482500466, "lat": 37.223856, "lon": 43.855609, "tags": {"alt_name": "Mind\u0101lah, \u0645\u0646\u062f\u0627\u0644\u0647, Mindala, Mindalah, \u0645\u0646\u062f\u0627\u0644\u0647", "int_name": "Mindala", "is_in": "Iraq , \u062c\u0645\u0647\u0648\u0631\u064a\u0629 \u0627\u0644\u0639\u0631\u0627\u0642", "name": "Mindala", "place": "village"}}, {"type": "node", "id": 2482500469, "lat": 37.209839, "lon": 43.687023, "tags": {"alt_name": "\u0646\u064a\u0631\u0641\u0629 \u0627\u0644\u0639\u0644\u064a\u0627", "int_name": "Nabirva, N\u0113rva Zh\u014dri, N\u012brfah al Uly\u0101, N\u012brvah al Uly\u0101, \u0646\u064a\u0631\u0641\u0647 \u0627\u0644\u0639\u0644\u064a\u0627, \u0646\u064a\u0631\u06a4\u0647 \u0627\u0644\u0639\u0644\u064a\u0627, Nabirva, Nerva Zhori, Nirfah al Ulya, Nirvah al Ulya, \u0646\u064a\u0631\u0641\u0647 \u0627\u0644\u0639\u0644\u064a\u0627, \u0646\u064a\u0631\u06a4\u0647 \u0627\u0644\u0639\u0644\u064a\u0627", "is_in": "Iraq , \u062c\u0645\u0647\u0648\u0631\u064a\u0629 \u0627\u0644\u0639\u0631\u0627\u0642", "name": "\u0646\u06ce\u0631\u0648\u06d5 \u0639\u0644\u06cc\u0627", "name:ar": "\u0646\u064a\u0631\u0648\u0647 \u0627\u0644\u0639\u0644\u064a\u0627", "name:ar1": "\u0646\u064a\u0631\u0641\u0629 \u0627\u0644\u0639\u0644\u064a\u0627", "name:de": "Nabirva", "name:en": "Upper Nerwa", "name:fr": "Nabirva", "name:ku": "\u0646\u06ce\u0631\u0648\u06d5 \u0698\u0648\u0648\u0631\u06cc", "name:tr": "Nerwa", "place": "village", "population": "2000"}}, {"type": "node", "id": 2482500470, "lat": 37.218333, "lon": 43.849444, "tags": {"alt_name": "\u0648\u0633\u0631\u0643\u0629, Oasirka", "int_name": "Oasirka", "is_in": "Iraq , \u062c\u0645\u0647\u0648\u0631\u064a\u0629 \u0627\u0644\u0639\u0631\u0627\u0642", "place": "village"}}, {"type": "node", "id": 2482500475, "lat": 37.1823665, "lon": 43.7152627, "tags": {"alt_name": "\u0633\u0631\u0646\u064a", "int_name": "Sarn\u012b, Sirni, Sirn\u012b, \u0633\u0631\u0646\u064a, Sarni, Sirni, Sirni, \u0633\u0631\u0646\u064a", "is_in": "Iraq , \u062c\u0645\u0647\u0648\u0631\u064a\u0629 \u0627\u0644\u0639\u0631\u0627\u0642", "name": "\u0633\u0631\u0646\u064a", "name:ar": "\u0633\u0631\u0646\u064a", "name:ar1": "\u0633\u0631\u0646\u064a", "name:de": "Sarni", "name:en": "Sarni", "name:fr": "Sarni", "place": "village"}}, {"type": "node", "id": 2482500483, "lat": 37.0554886, "lon": 43.9569489, "tags": {"alt_name": "\u0622\u0641\u0627\u062f\u0648\u0631", "int_name": "Ador, \u0100v\u0101d\u014dr, \u0100v\u0101d\u016br, Aw\u0101d\u016br, \u0622\u06a4\u0627\u062f\u0648\u0631, Ador, Avador, Avadur, Awadur, \u0622\u06a4\u0627\u062f\u0648\u0631", "name": "\u0626\u0627\u06a4\u06d5\u062f\u0648\u0631", "name:ar": "\u0622\u0641\u062f\u0648\u0631", "name:ckb": "\u0626\u0627\u06a4\u06d5\u062f\u0648\u0631", "name:de": "Avadur", "name:en": "Avadur", "name:fr": "Avadur", "name:ku": "Avedur", "place": "village", "wikipedia": "ckb: \u0626\u0627\u06a4\u06d5\u062f\u0648\u0631"}}, {"type": "node", "id": 2482500491, "lat": 37.048805, "lon": 43.676532, "tags": {"name": "\u0686\u06d5\u0644\u06a9\u06ce", "name:ar": "\u062c\u0627\u0644\u0643\u064a", "name:de": "Chalke", "name:en": "Chalke", "name:fr": "Chalke", "name:ru": "\u0427\u0430\u043b\u044c\u043a\u0438", "place": "village"}}, {"type": "node", "id": 2482500503, "lat": 37.0407497, "lon": 43.6429521, "tags": {"int_name": "G\u0101lk\u016b, K\u0101lk\u016b, \u0643\u0627\u0644\u0643\u0648, \u06af\u0627\u0644\u0643\u0648, Galku, Kalku, \u0643\u0627\u0644\u0643\u0648, \u06af\u0627\u0644\u0643\u0648", "name": "\u06a9\u0631\u06a9\u0648", "name:ar": "\u0643\u0627\u0644\u0643\u0648", "name:de": "Galku", "name:en": "Galku", "name:fr": "Galku", "place": "village"}}, {"type": "node", "id": 2482500505, "lat": 37.0397477, "lon": 43.6698552, "tags": {"int_name": "Har\u012bk, Hrik, \u0647\u0631\u064a\u0643, Harik, Hrik, \u0647\u0631\u064a\u0643", "name": "\u0647\u06d5\u0631\u06cc\u06a9", "name:ar": "\u0647\u0631\u064a\u0643", "name:de": "Harik", "name:en": "Harik", "name:fr": "Harik", "place": "village"}}, {"type": "node", "id": 2482500514, "lat": 37.2003358, "lon": 43.9403552, "tags": {"alt_name": "\u0628\u064a\u0631 \u062d\u0633\u0646\u0629", "int_name": "Pir Hasna, P\u012br \u1e28asnah, Pir Khansa, P\u012br Khasna, \u0628\u064a\u0631 \u062d\u0633\u0646\u0629, Pir Hasna, Pir Hasnah, Pir Khansa, Pir Khasna, \u067e\u064a\u0631 \u062d\u0633\u0646\u0647", "is_in": "Iraq , \u062c\u0645\u0647\u0648\u0631\u064a\u0629 \u0627\u0644\u0639\u0631\u0627\u0642", "name": "\u0628\u064a\u0631 \u062d\u0633\u0646\u0629", "name:ar": "\u0628\u064a\u0631 \u062d\u0633\u0646\u0629", "name:ar1": "\u0628\u064a\u0631 \u062d\u0633\u0646\u0629", "name:de": "Pir Hasna", "name:en": "Pir Hasna", "name:fr": "Pir Hasna", "place": "village"}}, {"type": "node", "id": 2482500515, "lat": 37.0490583, "lon": 43.9701748, "tags": {"int_name": "Saif, Sayf, S\u0113fa, \u0633\u064a\u0641, Saif, Sayf, Sefa, \u0633\u064a\u0641", "name": "\u0633\u064a\u0641", "name:ar": "\u0633\u064a\u0641", "name:de": "Saif", "name:en": "Saif", "name:fr": "Saif", "place": "village"}}, {"type": "node", "id": 2482500520, "lat": 37.051899, "lon": 43.863426, "tags": {"alt_name": "\u0633\u064a\u062a\u0627", "int_name": "S\u012bt\u0101, Syta, \u0633\u064a\u062a\u0627, Sita, Syta, \u0633\u064a\u062a\u0627", "is_in": "Iraq , \u062c\u0645\u0647\u0648\u0631\u064a\u0629 \u0627\u0644\u0639\u0631\u0627\u0642", "name": "S\u00eete", "name:ar": "\u0633\u064a\u062a\u0627", "name:ar1": "\u0633\u064a\u062a\u0627", "name:ckb": "\u0633\u06cc\u062a\u06d5", "name:de": "Sita", "name:en": "Sita", "name:fr": "Sita", "name:ru": "\u0421\u0438\u0442\u0430", "place": "village"}}, {"type": "node", "id": 2482500620, "lat": 36.9687712, "lon": 43.6464056, "tags": {"alt_name": "\u0643\u064a\u0631\u064a\u0629", "int_name": "Girya, Kiria, K\u012br\u012byah, \u0643\u064a\u0631\u064a\u0629, Girya, Kiria, Kiriyah, \u0643\u064a\u0631\u064a\u0629", "is_in": "Iraq , \u062c\u0645\u0647\u0648\u0631\u064a\u0629 \u0627\u0644\u0639\u0631\u0627\u0642", "name": "\u06a9\u06ce\u0631\u06cc\u0627", "name:ar": "\u0643\u064a\u0631\u064a\u0629", "name:ar1": "\u0643\u064a\u0631\u064a\u0629", "name:de": "Girya", "name:en": "Girya", "name:fr": "Girya", "place": "village"}}, {"type": "node", "id": 2482500622, "lat": 37.0418845, "lon": 43.6280626, "tags": {"alt_name": "\u0645\u0647\u0648\u062f\u064a", "int_name": "Mah\u016bd\u012b, Mhudi, \u0645\u0647\u0648\u062f\u064a, Mahudi, Mhudi, \u0645\u0647\u0648\u062f\u064a", "name": "\u0645\u06d5\u0647\u06ce\u062f\u06ce", "name:ar": "\u0645\u06d5\u06be\u06cc\u062f\u06ce", "name:de": "Mahudi", "name:en": "Mahide", "name:fr": "Mahudi", "name:ku": "\u0645\u06d5\u06be\u06cc\u062f\u06ce", "place": "village"}}, {"type": "node", "id": 2482501238, "lat": 37.021404, "lon": 43.7768875, "tags": {"int_name": "Br\u012bsk\u012b, Brisky, \u0628\u0631\u064a\u0633\u0643\u064a, Briski, Brisky, \u0628\u0631\u064a\u0633\u0643\u064a", "name": "\u0628\u0631\u064a\u0633\u0643\u064a", "name:ar": "\u0628\u0631\u064a\u0633\u0643\u064a", "name:de": "Briski", "name:en": "Briski", "name:fr": "Briski", "place": "village"}}, {"type": "node", "id": 2482501240, "lat": 37.01705, "lon": 43.7920894, "tags": {"alt_name": "\u062e\u0633\u062a\u0648", "int_name": "Khast\u014d, Khast\u016b, Khsto, \u062e\u0633\u062a\u0648, Khasto, Khastu, Khsto, \u062e\u0633\u062a\u0648", "name": "\u062e\u0627\u0633\u062a\u0648\u0648\u06cc \u0698\u06ce\u0631\u06cc", "name:ar": "\u062e\u0627\u0633\u062a\u0648\u0648\u06cc \u0698\u06ce\u0631\u06cc", "name:de": "Khastu Upper", "name:en": "Khastu Upper", "name:fr": "Khastu Upper", "place": "village"}}, {"type": "node", "id": 2482501241, "lat": 37.0123047, "lon": 43.8060185, "tags": {"int_name": "Sarki, Sark\u012b, S\u0101rk\u012b, \u0633\u0627\u0631\u0643\u064a, \u0633\u0631\u0643\u064a, Sarki, Sarki, Sarki, \u0633\u0627\u0631\u0643\u064a, \u0633\u0631\u0643\u064a", "name": "\u0633\u0627\u0631\u06a9\u06ce", "name:ar": "\u0633\u0627\u0631\u0643\u064a", "name:ckb": "Sark\u00ea", "name:de": "Sarki", "name:en": "Sarki", "place": "village"}}, {"type": "node", "id": 2482506148, "lat": 36.9639968, "lon": 43.967862, "tags": {"alt_name": "\u0628\u0627\u0632\u064a", "int_name": "B\u0101z\u0113, B\u0101z\u012b, Bazy, \u0628\u0627\u0632\u064a, Baze, Bazi, Bazy, \u0628\u0627\u0632\u064a", "is_in": "Iraq , \u062c\u0645\u0647\u0648\u0631\u064a\u0629 \u0627\u0644\u0639\u0631\u0627\u0642", "name": "\u0628\u0627\u0632\u06ce", "name:ar": "\u0628\u0627\u0632\u064a", "name:de": "Baze", "name:en": "Baze", "name:fr": "Baze", "name:ku": "Baz\u00ea", "place": "village", "wikipedia": "ckb: \u0628\u0627\u0632\u06ce"}}, {"type": "node", "id": 2488236845, "lat": 37.0485529, "lon": 43.4863407, "tags": {"alt_name": "\u0628\u0627\u0646\u064a\u0646\u0628\u0644\u0629", "int_name": "\u0628\u0627\u0646\u06cc\u06ce", "is_in": "Iraq , \u062c\u0645\u0647\u0648\u0631\u064a\u0629 \u0627\u0644\u0639\u0631\u0627\u0642", "name": "\u0628\u0627\u0646\u06cc\u06ce", "name:ar": "\u0628\u0627\u0646\u064a\u06ce", "name:ar1": "\u0628\u0627\u0646\u064a\u0646\u0628\u0644\u0629", "name:de": "Baninbilah", "name:en": "Baniye", "name:fr": "Baninbilah", "name:ku": "\u0628\u0627\u0646\u064a\u06ce", "place": "village"}}, {"type": "node", "id": 2488236851, "lat": 37.0722054, "lon": 43.4753189, "tags": {"alt_name": "\u0625\u0628\u0631\u0627\u0647\u064a\u0645 \u0632\u0644\u0629", "int_name": "Barmizl\u0101, Braimazla, Braimazla, Buraymzillah, Ibr\u0101h\u012bm Zilah, \u0627\u0628\u0631\u0627\u0647\u064a\u0645 \u0632\u0644\u0647, Barmizla, Braimazla, Braimazla, Buraymzillah, Ibrahim Zilah, \u0627\u0628\u0631\u0627\u0647\u064a\u0645 \u0632\u0644\u0647", "name": "\u0626\u06cc\u0628\u0631\u0627\u0647\u06cc\u0645 \u0632\u0644\u0627", "name:ar": "\u0625\u0628\u0631\u0627\u0647\u064a\u0645 \u0632\u0644\u0629", "name:ckb": "\u0628\u0631\u0627\u0647\u064a\u0645 \u0632\u0644\u0627", "name:de": "Barmizla", "name:en": "Barmizla", "name:fr": "Barmizla", "name:ku": "Birah\u00eem Zila", "place": "village"}}, {"type": "node", "id": 2488236967, "lat": 36.997818, "lon": 43.514159, "tags": {"alt_name": "\u062c\u0648\u0632\u064a", "int_name": "G\u016bz\u012b, Jori, J\u016bz\u012b, \u062c\u0648\u0632\u064a, Guzi, Jori, Juzi, \u062c\u0648\u0632\u064a", "is_in": "Iraq , \u062c\u0645\u0647\u0648\u0631\u064a\u0629 \u0627\u0644\u0639\u0631\u0627\u0642", "name": "\u062c\u0648\u0632\u064a", "name:ar": "\u062c\u0648\u0632\u064a", "name:ar1": "\u062c\u0648\u0632\u064a", "name:de": "Guzi", "name:en": "\u06a9\u06cc\u0632\u06ce", "name:fr": "Guzi", "place": "village"}}, {"type": "node", "id": 2488237026, "lat": 36.9855904, "lon": 43.5711943, "tags": {"alt_name": "\u0633\u0631\u0643\u064a", "int_name": "Sark\u012b, Sirk\u012b, Srky, \u0633\u0631\u0643\u064a, Sarki, Sirki, Srky, \u0633\u0631\u0643\u064a", "is_in": "Iraq , \u062c\u0645\u0647\u0648\u0631\u064a\u0629 \u0627\u0644\u0639\u0631\u0627\u0642", "name": "\u0633\u0631\u0643\u064a", "name:ar": "\u0633\u0631\u0643\u064a", "name:ar1": "\u0633\u0631\u0643\u064a", "name:de": "Sarki", "name:en": "Sarki", "name:fr": "Sarki", "place": "village"}}, {"type": "node", "id": 2488237486, "lat": 37.087416, "lon": 43.5924327, "tags": {"int_name": "Bal\u0101fah, Bil\u0101vah, Blava, \u0628\u0644\u0627\u0641\u0629, \u0628\u0644\u0627\u06a4\u0647, Balafah, Bilavah, Blava, \u0628\u0644\u0627\u0641\u0629, \u0628\u0644\u0627\u06a4\u0647", "name": "\u0628\u0644\u0627\u06a4\u06d5", "name:ar": "\u0628\u0644\u0627\u0641\u0629", "name:de": "Balafah", "name:en": "Balafah", "name:fr": "Balafah", "place": "village"}}, {"type": "node", "id": 2488237494, "lat": 37.245959, "lon": 43.5274329, "tags": {"alt_name": "\u062f\u0634\u062a\u0627\u0646", "int_name": "Dashtan, Dasht\u0101n, \u062f\u0634\u062a\u0627\u0646, Dashtan, Dashtan, \u062f\u0634\u062a\u0627\u0646", "is_in": "Iraq , \u062c\u0645\u0647\u0648\u0631\u064a\u0629 \u0627\u0644\u0639\u0631\u0627\u0642", "name": "\u062f\u0634\u062a\u0627\u0646", "name:ar": "\u062f\u0634\u062a\u0627\u0646", "name:ar1": "\u062f\u0634\u062a\u0627\u0646", "name:de": "Dashtan", "name:en": "Dashtan", "name:fr": "Dashtan", "place": "village"}}, {"type": "node", "id": 2488237537, "lat": 37.105, "lon": 43.483333, "tags": {"alt_name": "\u0633\u0648\u0644\u0648", "alt_name:ar": "\u0633\u0648\u0644\u0648", "int_name": "Solav, \u0633\u06c6\u0644\u0627\u06a4", "name": "\u0633\u06c6\u0644\u0627\u06a4", "name:ar": "S\u00fblav", "name:ckb": "\u0633\u06c6\u0644\u0627\u06a4", "name:de": "Solav", "name:en": "S\u00fblav - Solav", "name:fr": "Solav", "name:ku": "S\u00fblav", "place": "village"}}, {"type": "node", "id": 2488237546, "lat": 37.203145, "lon": 43.494745, "tags": {"alt_name": "\u062a\u0631\u0648\u0627\u0646\u064a\u0634", "int_name": "Tirwanish, T\u012brw\u0101n\u012bsh, \u062a\u0631\u0648\u0627\u0646\u064a\u0634, Tirwanish, Tirwanish, \u062a\u0631\u0648\u0627\u0646\u064a\u0634", "is_in": "Iraq , \u062c\u0645\u0647\u0648\u0631\u064a\u0629 \u0627\u0644\u0639\u0631\u0627\u0642", "name": "\u062a\u0631\u0648\u0627\u0646\u064a\u0634", "name:ar": "\u062a\u0631\u0648\u0627\u0646\u064a\u0634", "name:ar1": "\u062a\u0631\u0648\u0627\u0646\u064a\u0634", "name:de": "Tirwanish", "name:en": "Tirwanish", "name:fr": "Tirwanish", "name:ku": "\u062a\u0631\u0648\u0627\u0646\u0634", "place": "village"}}, {"type": "node", "id": 2488246735, "lat": 37.20211, "lon": 43.468108, "tags": {"int_name": "Bat N\u016brah;B\u0113t\u0101n\u016br;Bt Nura;\u0628\u062a \u0646\u0648\u0631\u0647;Bat Nurah;Betanur;Bt Nura;\u0628\u062a \u0646\u0648\u0631\u0647;\u0628\u064a\u062a \u0646\u0648\u0631\u0647;\u0628\u064a\u062a \u0646\u0648\u0631\u0629", "name": "\u0628\u062a \u0646\u0648\u0631\u0647", "name:ar": "\u0628\u062a \u0646\u0648\u0631\u0647", "name:arc": "\u0712\u071d\u072c \u072c\u0722\u0718\u072a\u0710", "name:de": "Bat Nurah", "name:en": "Betanure", "name:fr": "Bat Nurah", "name:he": "\u05d1\u05d9\u05ea \u05ea\u05e0\u05d5\u05e8\u05d0", "name:syc": "\u0712\u071d\u072c \u072c\u0722\u0718\u072a\u0710", "place": "village", "wikidata": "Q4897358"}}, {"type": "node", "id": 2488246747, "lat": 37.0996259, "lon": 43.4534876, "tags": {"int_name": "B\u0113b\u0101d\u012b, B\u012bb\u0101d\u012b, Bibaldi, Bibldy, \u0628\u064a\u0628\u0627\u062f\u064a, Bebadi, Bibadi, Bibaldi, Bibldy, \u0628\u064a\u0628\u0627\u062f\u064a", "name": "\u0628\u06ce\u0628\u0627\u062f\u06cc", "name:ar": "\u0628\u064a\u0628\u0627\u062f\u064a", "name:de": "Bebadi", "name:en": "Bebadi", "name:fr": "Bebadi", "name:ku": "B\u00eabad\u00ee", "place": "village"}}, {"type": "node", "id": 2488247032, "lat": 37.0985389, "lon": 43.4653478, "tags": {"int_name": "Muz\u016brkah, Muzurkah", "name": "\u0645\u0632\u0648\u0631\u0643\u0629", "name:ar": "\u0645\u0632\u0648\u0631\u0643\u0629", "name:de": "Muzurkah", "name:en": "Muzurkah", "name:fr": "Muzurkah", "place": "village"}}, {"type": "node", "id": 2488247374, "lat": 37.109934, "lon": 43.451742, "tags": {"int_name": "Sharifa, Shar\u012bfa, Shar\u012bfah, \u0634\u0631\u064a\u0641\u0647, Sharifa, Sharifa, Sharifah, \u0634\u0631\u064a\u0641\u0647", "name": "\u0634\u0631\u06cc\u0641\u0627", "name:ar": "\u0634\u0631\u064a\u0641\u0629", "name:de": "Sharifa", "name:en": "Sharifa", "name:fr": "Sharifa", "name:ku": "\u015eir\u00eefa", "place": "village"}}, {"type": "node", "id": 2488248108, "lat": 36.9961621, "lon": 43.8494936, "tags": {"int_name": "Hal\u016brah, H\u0101r\u016bnah, Hawra, \u0647\u0644\u0648\u0631\u0629, \u0647\u0644\u0648\u0631\u0647, Halurah, Harunah, Hawra, \u0647\u0644\u0648\u0631\u0629, \u0647\u0644\u0648\u0631\u0647", "name": "\u0647\u0644\u0648\u0631\u0629", "name:ar": "\u0647\u0644\u0648\u0631\u0629", "name:de": "Halurah", "name:en": "Halurah", "name:fr": "Halurah", "place": "village"}}, {"type": "node", "id": 2488248147, "lat": 37.017953, "lon": 43.814387, "tags": {"alt_name": "\u0633\u0648\u0631\u064a", "int_name": "Siriye, Siriye, Siriye, \u0633\u0648\u0631\u064a, Sory, Suri, Suriya, \u0633\u0648\u0631\u064a", "is_in": "Iraq , \u062c\u0645\u0647\u0648\u0631\u064a\u0629 \u0627\u0644\u0639\u0631\u0627\u0642", "name": "\u0633\u06cc\u0631\u06cc\u06ce", "name:ar": "\u0633\u064a\u0631\u064a\u064a", "name:ar1": "\u0633\u0648\u0631\u064a", "name:ckb": "S\u00eer\u00eey\u00ea", "name:de": "Siriye", "name:en": "Siriye", "name:fr": "Siriye", "place": "town"}}, {"type": "node", "id": 2488260194, "lat": 36.9902159, "lon": 43.9064943, "tags": {"alt_name": "\u0633\u0641\u0631\u0629", "int_name": "Safra, Safrah, Savr\u0101, \u0633\u0641\u0631\u0629, Safra, Safrah, Savra, \u0633\u0641\u0631\u0629", "is_in": "Iraq , \u062c\u0645\u0647\u0648\u0631\u064a\u0629 \u0627\u0644\u0639\u0631\u0627\u0642", "name": "\u0633\u06d5\u06a4\u0631\u06d5", "name:ar": "\u0633\u0641\u0631\u0629", "name:ckb": "\u0633\u06d5\u06a4\u0631\u06d5", "name:de": "Savra", "name:en": "Savra", "name:fr": "Savra", "name:ku": "Sevre", "place": "village", "wikipedia": "ckb:\u0633\u06d5\u06a4\u0631\u06d5"}}, {"type": "node", "id": 4430756673, "lat": 37.3398491, "lon": 43.6888509, "tags": {"name": "\u00c7eltik", "name:ku": "T\u00fbx\u00fbb", "place": "hamlet"}}, {"type": "node", "id": 4730701772, "lat": 37.0039785, "lon": 43.5342489}, {"type": "node", "id": 4730701773, "lat": 37.0042879, "lon": 43.5345968}, {"type": "node", "id": 4730701774, "lat": 37.0045785, "lon": 43.5352691}, {"type": "node", "id": 4730701775, "lat": 37.0044648, "lon": 43.5355696}, {"type": "node", "id": 4730701776, "lat": 37.00377, "lon": 43.5354905}, {"type": "node", "id": 4730701777, "lat": 37.0032774, "lon": 43.5352058}, {"type": "node", "id": 4730701778, "lat": 37.0028941, "lon": 43.5348243}, {"type": "node", "id": 4730701779, "lat": 37.0021469, "lon": 43.5342805}, {"type": "node", "id": 4730701780, "lat": 37.0022227, "lon": 43.5338455}, {"type": "node", "id": 4731362037, "lat": 37.1015927, "lon": 43.497613}, {"type": "node", "id": 4731362038, "lat": 37.1022477, "lon": 43.497789}, {"type": "node", "id": 4731362039, "lat": 37.1024366, "lon": 43.4978315}, {"type": "node", "id": 4731362728, "lat": 37.1021708, "lon": 43.4959499}, {"type": "node", "id": 4731362729, "lat": 37.1019874, "lon": 43.4961755}, {"type": "node", "id": 4731362733, "lat": 37.1019886, "lon": 43.4962211}, {"type": "node", "id": 4731362734, "lat": 37.1019791, "lon": 43.4962827}, {"type": "node", "id": 4731362735, "lat": 37.1019593, "lon": 43.496387}, {"type": "node", "id": 4731362736, "lat": 37.101943, "lon": 43.4965167}, {"type": "node", "id": 5016633207, "lat": 37.1025205, "lon": 43.495245}, {"type": "node", "id": 5016633208, "lat": 37.1024397, "lon": 43.4953636}, {"type": "node", "id": 5016633209, "lat": 37.1025583, "lon": 43.4953556}, {"type": "node", "id": 5016633210, "lat": 37.1025795, "lon": 43.4958312}, {"type": "node", "id": 5016633211, "lat": 37.1024786, "lon": 43.4958263}, {"type": "node", "id": 5016633212, "lat": 37.1020555, "lon": 43.4960918}, {"type": "node", "id": 5016633214, "lat": 37.1021545, "lon": 43.4970579}, {"type": "node", "id": 5016633215, "lat": 37.1020681, "lon": 43.4973549}, {"type": "node", "id": 5016633216, "lat": 37.1017793, "lon": 43.4970337}, {"type": "node", "id": 5016633217, "lat": 37.1017905, "lon": 43.4966881}, {"type": "node", "id": 5016633218, "lat": 37.1014224, "lon": 43.4965694}, {"type": "node", "id": 5016633219, "lat": 37.1015984, "lon": 43.4973144}, {"type": "node", "id": 5016633220, "lat": 37.1019698, "lon": 43.4977143}, {"type": "node", "id": 5016633923, "lat": 37.1023666, "lon": 43.4982665}, {"type": "node", "id": 5016633924, "lat": 37.1012151, "lon": 43.4985428}, {"type": "node", "id": 5016633925, "lat": 37.1010273, "lon": 43.4981785}, {"type": "node", "id": 5016633926, "lat": 37.1010273, "lon": 43.497521}, {"type": "node", "id": 5016633927, "lat": 37.100791, "lon": 43.4974536}, {"type": "node", "id": 5016633928, "lat": 37.1007178, "lon": 43.4977715}, {"type": "node", "id": 5016633929, "lat": 37.1001628, "lon": 43.4975427}, {"type": "node", "id": 5016633930, "lat": 37.1000623, "lon": 43.4977575}, {"type": "node", "id": 5016633931, "lat": 37.0993828, "lon": 43.4973829}, {"type": "node", "id": 5016633932, "lat": 37.0992447, "lon": 43.4963601}, {"type": "node", "id": 5016633933, "lat": 37.1002288, "lon": 43.4968139}, {"type": "node", "id": 5016633934, "lat": 37.1002859, "lon": 43.4963896}, {"type": "node", "id": 5016633935, "lat": 37.0993679, "lon": 43.4949682}, {"type": "node", "id": 5016739498, "lat": 37.0723988, "lon": 43.4745755}, {"type": "node", "id": 5016739499, "lat": 37.0722388, "lon": 43.474446}, {"type": "node", "id": 5016739500, "lat": 37.0721254, "lon": 43.4743477}, {"type": "node", "id": 5016739653, "lat": 37.0729537, "lon": 43.4754966}, {"type": "node", "id": 5016739654, "lat": 37.0728107, "lon": 43.4756022}, {"type": "node", "id": 5016739655, "lat": 37.0726519, "lon": 43.4756686}, {"type": "node", "id": 5016739656, "lat": 37.0722289, "lon": 43.4755894}, {"type": "node", "id": 5016739657, "lat": 37.0721383, "lon": 43.4757615}, {"type": "node", "id": 5016739658, "lat": 37.0718197, "lon": 43.4756376}, {"type": "node", "id": 5016739659, "lat": 37.0716958, "lon": 43.4755931}, {"type": "node", "id": 5016739660, "lat": 37.0715225, "lon": 43.4754739}, {"type": "node", "id": 5016739664, "lat": 37.0710616, "lon": 43.4747116}, {"type": "node", "id": 5016739665, "lat": 37.0709792, "lon": 43.4742675}, {"type": "node", "id": 5016739666, "lat": 37.0709929, "lon": 43.4739026}, {"type": "node", "id": 5016739667, "lat": 37.071111, "lon": 43.4738131}, {"type": "node", "id": 5016739668, "lat": 37.0712676, "lon": 43.4740782}, {"type": "node", "id": 5016739669, "lat": 37.0714324, "lon": 43.4742882}, {"type": "node", "id": 5016739670, "lat": 37.0715642, "lon": 43.4743674}, {"type": "node", "id": 5016739671, "lat": 37.0718169, "lon": 43.474691}, {"type": "node", "id": 5016739672, "lat": 37.0719378, "lon": 43.4747873}, {"type": "node", "id": 5016739675, "lat": 37.0724989, "lon": 43.4746612}, {"type": "node", "id": 5016739676, "lat": 37.072538, "lon": 43.4745995}, {"type": "node", "id": 5016739677, "lat": 37.0726037, "lon": 43.4743429}, {"type": "node", "id": 5016739678, "lat": 37.0729356, "lon": 43.4744693}, {"type": "node", "id": 5016739679, "lat": 37.0731486, "lon": 43.475004}, {"type": "node", "id": 5016739682, "lat": 37.0735513, "lon": 43.4748018}, {"type": "node", "id": 5016739683, "lat": 37.0735792, "lon": 43.4752314}, {"type": "node", "id": 5016739684, "lat": 37.0737937, "lon": 43.4752976}, {"type": "node", "id": 5016739685, "lat": 37.0738763, "lon": 43.4748405}, {"type": "node", "id": 5016739686, "lat": 37.0741443, "lon": 43.4748907}, {"type": "node", "id": 5016739687, "lat": 37.0741105, "lon": 43.4753646}, {"type": "node", "id": 5016739688, "lat": 37.0739879, "lon": 43.4757843}, {"type": "node", "id": 5016739689, "lat": 37.0739652, "lon": 43.4760526}, {"type": "node", "id": 5016739690, "lat": 37.0737674, "lon": 43.4761095}, {"type": "node", "id": 5016739691, "lat": 37.0736214, "lon": 43.4761502}, {"type": "node", "id": 5016739692, "lat": 37.0734981, "lon": 43.4759591}, {"type": "node", "id": 5016739693, "lat": 37.0733424, "lon": 43.4759022}, {"type": "node", "id": 5016739694, "lat": 37.0732272, "lon": 43.4757617}, {"type": "node", "id": 5016739695, "lat": 37.0731086, "lon": 43.4755238}, {"type": "node", "id": 5018203265, "lat": 37.0182487, "lon": 43.8029391}, {"type": "node", "id": 5018203266, "lat": 37.0181806, "lon": 43.8030651}, {"type": "node", "id": 5018203278, "lat": 37.0165176, "lon": 43.8058303}, {"type": "node", "id": 5018203294, "lat": 37.0180018, "lon": 43.8029525}, {"type": "node", "id": 5018203305, "lat": 37.0194558, "lon": 43.8035238}, {"type": "node", "id": 5018203444, "lat": 37.018555, "lon": 43.8025421}, {"type": "node", "id": 5018203445, "lat": 37.0184992, "lon": 43.8025071}, {"type": "node", "id": 5018203446, "lat": 37.0184573, "lon": 43.8024459}, {"type": "node", "id": 5018203505, "lat": 37.0201368, "lon": 43.8010183}, {"type": "node", "id": 5018203506, "lat": 37.0200892, "lon": 43.8011827}, {"type": "node", "id": 5018203507, "lat": 37.0199828, "lon": 43.8013131}, {"type": "node", "id": 5018203508, "lat": 37.0198651, "lon": 43.8014577}, {"type": "node", "id": 5018203509, "lat": 37.0197406, "lon": 43.8015314}, {"type": "node", "id": 5018203510, "lat": 37.0196161, "lon": 43.8020956}, {"type": "node", "id": 5018203511, "lat": 37.0198267, "lon": 43.802141}, {"type": "node", "id": 5018203512, "lat": 37.0198174, "lon": 43.802577}, {"type": "node", "id": 5018203513, "lat": 37.0200657, "lon": 43.8026683}, {"type": "node", "id": 5018203514, "lat": 37.0200011, "lon": 43.8023496}, {"type": "node", "id": 5018203516, "lat": 37.0202701, "lon": 43.8021781}, {"type": "node", "id": 5018203517, "lat": 37.0203385, "lon": 43.8023293}, {"type": "node", "id": 5018203518, "lat": 37.0203796, "lon": 43.8025147}, {"type": "node", "id": 5018203519, "lat": 37.0203122, "lon": 43.8027012}, {"type": "node", "id": 5018203520, "lat": 37.0201256, "lon": 43.8029012}, {"type": "node", "id": 5018203521, "lat": 37.0200689, "lon": 43.8032864}, {"type": "node", "id": 5018203522, "lat": 37.0200125, "lon": 43.803454}, {"type": "node", "id": 5018203524, "lat": 37.0195172, "lon": 43.8033382}, {"type": "node", "id": 5018203526, "lat": 37.0190111, "lon": 43.8047345}, {"type": "node", "id": 5018203530, "lat": 37.0187954, "lon": 43.804629}, {"type": "node", "id": 5018203531, "lat": 37.0188374, "lon": 43.8044913}, {"type": "node", "id": 5018203532, "lat": 37.0186812, "lon": 43.8044148}, {"type": "node", "id": 5018203533, "lat": 37.0183589, "lon": 43.805429}, {"type": "node", "id": 5018203534, "lat": 37.0187622, "lon": 43.8055851}, {"type": "node", "id": 5018203535, "lat": 37.0186038, "lon": 43.806265}, {"type": "node", "id": 5018203540, "lat": 37.0186254, "lon": 43.806447}, {"type": "node", "id": 5018203541, "lat": 37.0185456, "lon": 43.806834}, {"type": "node", "id": 5018203542, "lat": 37.0182523, "lon": 43.8069275}, {"type": "node", "id": 5018203544, "lat": 37.0175091, "lon": 43.8067722}, {"type": "node", "id": 5018203555, "lat": 37.0161594, "lon": 43.8073557}, {"type": "node", "id": 5018203556, "lat": 37.0160348, "lon": 43.8078755}, {"type": "node", "id": 5018203557, "lat": 37.0157347, "lon": 43.8072052}, {"type": "node", "id": 5018203560, "lat": 37.01587, "lon": 43.8068925}, {"type": "node", "id": 5018203561, "lat": 37.0157577, "lon": 43.8066983}, {"type": "node", "id": 5018203562, "lat": 37.0157008, "lon": 43.8064521}, {"type": "node", "id": 5018203563, "lat": 37.016185, "lon": 43.8059715}, {"type": "node", "id": 5018203564, "lat": 37.016125, "lon": 43.8059796}, {"type": "node", "id": 5018203565, "lat": 37.0160276, "lon": 43.8059756}, {"type": "node", "id": 5018203567, "lat": 37.0158718, "lon": 43.8060325}, {"type": "node", "id": 5018203568, "lat": 37.0157955, "lon": 43.8060935}, {"type": "node", "id": 5018203569, "lat": 37.0157403, "lon": 43.8061667}, {"type": "node", "id": 5018203570, "lat": 37.0156835, "lon": 43.8063029}, {"type": "node", "id": 5018203576, "lat": 37.0165859, "lon": 43.8057662}, {"type": "node", "id": 5018203580, "lat": 37.016723, "lon": 43.805344}, {"type": "node", "id": 5018203581, "lat": 37.017162, "lon": 43.8043664}, {"type": "node", "id": 5018203585, "lat": 37.0172002, "lon": 43.8037588}, {"type": "node", "id": 5018203587, "lat": 37.0175125, "lon": 43.8028141}, {"type": "node", "id": 5018203588, "lat": 37.0177232, "lon": 43.8027489}, {"type": "node", "id": 5018203593, "lat": 37.0182095, "lon": 43.8024611}, {"type": "node", "id": 5018203598, "lat": 37.018744, "lon": 43.8023255}, {"type": "node", "id": 5018203600, "lat": 37.0187095, "lon": 43.8018741}, {"type": "node", "id": 5018203601, "lat": 37.0183357, "lon": 43.8017517}, {"type": "node", "id": 5018203602, "lat": 37.0184373, "lon": 43.8014516}, {"type": "node", "id": 5018203603, "lat": 37.0183261, "lon": 43.8013868}, {"type": "node", "id": 5018203604, "lat": 37.0185216, "lon": 43.8010027}, {"type": "node", "id": 5018203605, "lat": 37.0186967, "lon": 43.80115}, {"type": "node", "id": 5018203608, "lat": 37.0189299, "lon": 43.8009163}, {"type": "node", "id": 5018203610, "lat": 37.0191791, "lon": 43.8007674}, {"type": "node", "id": 5018203611, "lat": 37.0192864, "lon": 43.8007554}, {"type": "node", "id": 5018203612, "lat": 37.0195298, "lon": 43.8008419}, {"type": "node", "id": 5018203613, "lat": 37.0195739, "lon": 43.8006546}, {"type": "node", "id": 5018203614, "lat": 37.0197215, "lon": 43.8006858}, {"type": "node", "id": 5018203615, "lat": 37.0196985, "lon": 43.8008587}, {"type": "node", "id": 5018203616, "lat": 37.020053, "lon": 43.8009312}, {"type": "node", "id": 5018324475, "lat": 37.0387336, "lon": 43.7229237}, {"type": "node", "id": 5018324477, "lat": 37.0384478, "lon": 43.7230097}, {"type": "node", "id": 5018324478, "lat": 37.0382802, "lon": 43.7230958}, {"type": "node", "id": 5018324479, "lat": 37.0382423, "lon": 43.7232486}, {"type": "node", "id": 5018324480, "lat": 37.0381211, "lon": 43.723473}, {"type": "node", "id": 5018324481, "lat": 37.0380127, "lon": 43.7236084}, {"type": "node", "id": 5018344575, "lat": 37.03929, "lon": 43.7281096}, {"type": "node", "id": 5018344577, "lat": 37.0392958, "lon": 43.7268031}, {"type": "node", "id": 5018344578, "lat": 37.0390589, "lon": 43.7264534}, {"type": "node", "id": 5018344582, "lat": 37.0397656, "lon": 43.7259072}, {"type": "node", "id": 5018344584, "lat": 37.0400315, "lon": 43.7238896}, {"type": "node", "id": 5018344585, "lat": 37.037928, "lon": 43.7240394}, {"type": "node", "id": 5018344587, "lat": 37.0372198, "lon": 43.7238162}, {"type": "node", "id": 5018344588, "lat": 37.0364462, "lon": 43.723862}, {"type": "node", "id": 5018344589, "lat": 37.0364243, "lon": 43.7243348}, {"type": "node", "id": 5018344590, "lat": 37.0360021, "lon": 43.7248965}, {"type": "node", "id": 5018344591, "lat": 37.0361107, "lon": 43.7253548}, {"type": "node", "id": 5018344592, "lat": 37.0359861, "lon": 43.725411}, {"type": "node", "id": 5018344593, "lat": 37.0357885, "lon": 43.7249673}, {"type": "node", "id": 5018344594, "lat": 37.0352778, "lon": 43.725369}, {"type": "node", "id": 5018344595, "lat": 37.0355425, "lon": 43.7261535}, {"type": "node", "id": 5018344596, "lat": 37.0351883, "lon": 43.7261582}, {"type": "node", "id": 5018344597, "lat": 37.0351697, "lon": 43.7260881}, {"type": "node", "id": 5018344598, "lat": 37.0345436, "lon": 43.7259725}, {"type": "node", "id": 5018344601, "lat": 37.0347623, "lon": 43.7274238}, {"type": "node", "id": 5018344604, "lat": 37.0351808, "lon": 43.7274251}, {"type": "node", "id": 5018344605, "lat": 37.0351865, "lon": 43.7277576}, {"type": "node", "id": 5018344606, "lat": 37.0356766, "lon": 43.7277193}, {"type": "node", "id": 5018344607, "lat": 37.0356768, "lon": 43.7274184}, {"type": "node", "id": 5018344608, "lat": 37.0361832, "lon": 43.7274375}, {"type": "node", "id": 5018344609, "lat": 37.0362461, "lon": 43.7287972}, {"type": "node", "id": 5018344610, "lat": 37.0362994, "lon": 43.7297586}, {"type": "node", "id": 5018344611, "lat": 37.0358177, "lon": 43.7298184}, {"type": "node", "id": 5018344612, "lat": 37.0359938, "lon": 43.7304842}, {"type": "node", "id": 5018344613, "lat": 37.0362926, "lon": 43.7304784}, {"type": "node", "id": 5018344614, "lat": 37.0355829, "lon": 43.731223}, {"type": "node", "id": 5018344615, "lat": 37.0360639, "lon": 43.7311739}, {"type": "node", "id": 5018344619, "lat": 37.0361836, "lon": 43.7325387}, {"type": "node", "id": 5018344620, "lat": 37.0366794, "lon": 43.7329777}, {"type": "node", "id": 5018344621, "lat": 37.0367949, "lon": 43.7327909}, {"type": "node", "id": 5018344622, "lat": 37.0371214, "lon": 43.7331132}, {"type": "node", "id": 5018344624, "lat": 37.0376114, "lon": 43.7327522}, {"type": "node", "id": 5018344625, "lat": 37.0377865, "lon": 43.7324733}, {"type": "node", "id": 5018344626, "lat": 37.0375108, "lon": 43.7320657}, {"type": "node", "id": 5018344627, "lat": 37.0376411, "lon": 43.7318475}, {"type": "node", "id": 5018344628, "lat": 37.0379282, "lon": 43.7320951}, {"type": "node", "id": 5018344629, "lat": 37.0381034, "lon": 43.7318008}, {"type": "node", "id": 5018344630, "lat": 37.0383345, "lon": 43.7314926}, {"type": "node", "id": 5018344631, "lat": 37.0385693, "lon": 43.7313525}, {"type": "node", "id": 5018344632, "lat": 37.0387445, "lon": 43.7313012}, {"type": "node", "id": 5018344634, "lat": 37.0393638, "lon": 43.7314468}, {"type": "node", "id": 5018790726, "lat": 37.0732905, "lon": 43.6018828}, {"type": "node", "id": 5018790730, "lat": 37.0714867, "lon": 43.6053527}, {"type": "node", "id": 5018790732, "lat": 37.0711892, "lon": 43.6061765}, {"type": "node", "id": 5018790733, "lat": 37.0709602, "lon": 43.6068302}, {"type": "node", "id": 5018790734, "lat": 37.0707591, "lon": 43.6076067}, {"type": "node", "id": 5018790735, "lat": 37.0705125, "lon": 43.608436}, {"type": "node", "id": 5018790736, "lat": 37.0703535, "lon": 43.6090891}, {"type": "node", "id": 5018790737, "lat": 37.0702544, "lon": 43.6094754}, {"type": "node", "id": 5018790738, "lat": 37.0704037, "lon": 43.6096662}, {"type": "node", "id": 5018790739, "lat": 37.0704991, "lon": 43.6097649}, {"type": "node", "id": 5018790741, "lat": 37.0709861, "lon": 43.6098717}, {"type": "node", "id": 5018790742, "lat": 37.0712589, "lon": 43.6099443}, {"type": "node", "id": 5018790743, "lat": 37.0719955, "lon": 43.6092761}, {"type": "node", "id": 5018790749, "lat": 37.0726424, "lon": 43.6074934}, {"type": "node", "id": 5018790751, "lat": 37.0734622, "lon": 43.6071412}, {"type": "node", "id": 5018790752, "lat": 37.0737533, "lon": 43.6074063}, {"type": "node", "id": 5018790753, "lat": 37.0741822, "lon": 43.6066325}, {"type": "node", "id": 5018790757, "lat": 37.074364, "lon": 43.6056186}, {"type": "node", "id": 5018790758, "lat": 37.0740139, "lon": 43.6050139}, {"type": "node", "id": 5018790765, "lat": 37.0737632, "lon": 43.6048137}, {"type": "node", "id": 5018790766, "lat": 37.0741202, "lon": 43.6046448}, {"type": "node", "id": 5018790767, "lat": 37.0747265, "lon": 43.6048614}, {"type": "node", "id": 5018790768, "lat": 37.0743135, "lon": 43.6041121}, {"type": "node", "id": 5018790770, "lat": 37.0740251, "lon": 43.6032034}, {"type": "node", "id": 5018790771, "lat": 37.0741929, "lon": 43.6028439}, {"type": "node", "id": 5018790772, "lat": 37.0737786, "lon": 43.6025234}, {"type": "node", "id": 5018790773, "lat": 37.0737511, "lon": 43.6021516}, {"type": "node", "id": 5019933540, "lat": 37.0865244, "lon": 43.5276033}, {"type": "node", "id": 5019933541, "lat": 37.0870377, "lon": 43.5271508}, {"type": "node", "id": 5019933542, "lat": 37.0875174, "lon": 43.526504}, {"type": "node", "id": 5019933543, "lat": 37.0875224, "lon": 43.5259879}, {"type": "node", "id": 5019933544, "lat": 37.0873041, "lon": 43.5258391}, {"type": "node", "id": 5019933545, "lat": 37.08753, "lon": 43.525527}, {"type": "node", "id": 5019933546, "lat": 37.0876641, "lon": 43.5250469}, {"type": "node", "id": 5019933547, "lat": 37.087341, "lon": 43.5248466}, {"type": "node", "id": 5019933549, "lat": 37.0874964, "lon": 43.524292}, {"type": "node", "id": 5019933550, "lat": 37.0877218, "lon": 43.524454}, {"type": "node", "id": 5019933551, "lat": 37.0878899, "lon": 43.524279}, {"type": "node", "id": 5019933552, "lat": 37.0875367, "lon": 43.5237226}, {"type": "node", "id": 5019933553, "lat": 37.0871737, "lon": 43.5240938}, {"type": "node", "id": 5019933554, "lat": 37.086833, "lon": 43.524081}, {"type": "node", "id": 5019933555, "lat": 37.0868113, "lon": 43.5236973}, {"type": "node", "id": 5019933556, "lat": 37.0866298, "lon": 43.5236943}, {"type": "node", "id": 5019933563, "lat": 37.0866626, "lon": 43.5239799}, {"type": "node", "id": 5019933565, "lat": 37.0865902, "lon": 43.5239234}, {"type": "node", "id": 5019933566, "lat": 37.0865191, "lon": 43.5237814}, {"type": "node", "id": 5019933567, "lat": 37.0864525, "lon": 43.5235545}, {"type": "node", "id": 5019933568, "lat": 37.0863147, "lon": 43.5233806}, {"type": "node", "id": 5019933569, "lat": 37.0862688, "lon": 43.523276}, {"type": "node", "id": 5019933570, "lat": 37.0864319, "lon": 43.5231229}, {"type": "node", "id": 5019933571, "lat": 37.0865362, "lon": 43.5230884}, {"type": "node", "id": 5019933572, "lat": 37.0867284, "lon": 43.5230919}, {"type": "node", "id": 5019933573, "lat": 37.0869509, "lon": 43.5231091}, {"type": "node", "id": 5019933574, "lat": 37.0869921, "lon": 43.5228647}, {"type": "node", "id": 5019933575, "lat": 37.0869344, "lon": 43.5225342}, {"type": "node", "id": 5019933576, "lat": 37.0867916, "lon": 43.5221969}, {"type": "node", "id": 5019933577, "lat": 37.0865609, "lon": 43.5218182}, {"type": "node", "id": 5019933578, "lat": 37.0863028, "lon": 43.5215841}, {"type": "node", "id": 5019933579, "lat": 37.0859843, "lon": 43.5215015}, {"type": "node", "id": 5019933580, "lat": 37.0858579, "lon": 43.521529}, {"type": "node", "id": 5019933581, "lat": 37.0857096, "lon": 43.5219111}, {"type": "node", "id": 5019933582, "lat": 37.0856108, "lon": 43.5217252}, {"type": "node", "id": 5019933583, "lat": 37.0853252, "lon": 43.5214017}, {"type": "node", "id": 5019933584, "lat": 37.0854131, "lon": 43.5213087}, {"type": "node", "id": 5019933585, "lat": 37.0855778, "lon": 43.52135}, {"type": "node", "id": 5019933586, "lat": 37.0856218, "lon": 43.5211951}, {"type": "node", "id": 5019933587, "lat": 37.0852255, "lon": 43.5208947}, {"type": "node", "id": 5019933588, "lat": 37.0847705, "lon": 43.5208819}, {"type": "node", "id": 5019933589, "lat": 37.0844739, "lon": 43.5209507}, {"type": "node", "id": 5019933590, "lat": 37.0844492, "lon": 43.5213225}, {"type": "node", "id": 5019933591, "lat": 37.0842181, "lon": 43.5212745}, {"type": "node", "id": 5019933592, "lat": 37.0841362, "lon": 43.5219075}, {"type": "node", "id": 5019933593, "lat": 37.0846912, "lon": 43.5220136}, {"type": "node", "id": 5019933596, "lat": 37.0845181, "lon": 43.5227483}, {"type": "node", "id": 5019933597, "lat": 37.0843503, "lon": 43.522789}, {"type": "node", "id": 5019933598, "lat": 37.0841169, "lon": 43.5226444}, {"type": "node", "id": 5019933599, "lat": 37.0838834, "lon": 43.5228234}, {"type": "node", "id": 5019933600, "lat": 37.0837736, "lon": 43.522634}, {"type": "node", "id": 5019933601, "lat": 37.0836845, "lon": 43.5224186}, {"type": "node", "id": 5019933602, "lat": 37.0832153, "lon": 43.5223614}, {"type": "node", "id": 5019933603, "lat": 37.0829358, "lon": 43.5223881}, {"type": "node", "id": 5019933604, "lat": 37.0825721, "lon": 43.5225178}, {"type": "node", "id": 5019933605, "lat": 37.0824938, "lon": 43.5222519}, {"type": "node", "id": 5019933610, "lat": 37.0823404, "lon": 43.5221654}, {"type": "node", "id": 5019933611, "lat": 37.0820823, "lon": 43.5222383}, {"type": "node", "id": 5019933612, "lat": 37.0817614, "lon": 43.5225327}, {"type": "node", "id": 5019933613, "lat": 37.0816103, "lon": 43.522591}, {"type": "node", "id": 5019933614, "lat": 37.0815196, "lon": 43.5221975}, {"type": "node", "id": 5019933615, "lat": 37.0814149, "lon": 43.522215}, {"type": "node", "id": 5019933616, "lat": 37.0813289, "lon": 43.5223374}, {"type": "node", "id": 5019933617, "lat": 37.0809071, "lon": 43.5227405}, {"type": "node", "id": 5019933618, "lat": 37.0808312, "lon": 43.5229392}, {"type": "node", "id": 5019933619, "lat": 37.0807556, "lon": 43.5235066}, {"type": "node", "id": 5019933620, "lat": 37.0806105, "lon": 43.5236387}, {"type": "node", "id": 5019933621, "lat": 37.0806585, "lon": 43.5238214}, {"type": "node", "id": 5019933622, "lat": 37.0804792, "lon": 43.5240879}, {"type": "node", "id": 5019933623, "lat": 37.0805725, "lon": 43.5241986}, {"type": "node", "id": 5019933624, "lat": 37.0807476, "lon": 43.5240858}, {"type": "node", "id": 5019933625, "lat": 37.0808009, "lon": 43.5242425}, {"type": "node", "id": 5019933626, "lat": 37.0810052, "lon": 43.5241555}, {"type": "node", "id": 5019933627, "lat": 37.0808959, "lon": 43.5238553}, {"type": "node", "id": 5019933628, "lat": 37.0810773, "lon": 43.5237066}, {"type": "node", "id": 5019933629, "lat": 37.0812308, "lon": 43.5235959}, {"type": "node", "id": 5019933630, "lat": 37.0813703, "lon": 43.5235871}, {"type": "node", "id": 5019933631, "lat": 37.0814029, "lon": 43.5237504}, {"type": "node", "id": 5019933632, "lat": 37.0815075, "lon": 43.5238203}, {"type": "node", "id": 5019933633, "lat": 37.0815447, "lon": 43.5240302}, {"type": "node", "id": 5019933634, "lat": 37.0814843, "lon": 43.5240273}, {"type": "node", "id": 5019933636, "lat": 37.0812314, "lon": 43.5242514}, {"type": "node", "id": 5019933637, "lat": 37.081212, "lon": 43.5247254}, {"type": "node", "id": 5019933638, "lat": 37.0814226, "lon": 43.5247974}, {"type": "node", "id": 5019933639, "lat": 37.0815222, "lon": 43.5243701}, {"type": "node", "id": 5019933640, "lat": 37.0816142, "lon": 43.5243077}, {"type": "node", "id": 5019933641, "lat": 37.0817827, "lon": 43.5243701}, {"type": "node", "id": 5019933642, "lat": 37.0818402, "lon": 43.5244997}, {"type": "node", "id": 5019933643, "lat": 37.082047, "lon": 43.524687}, {"type": "node", "id": 5019933644, "lat": 37.0822002, "lon": 43.5244565}, {"type": "node", "id": 5019933645, "lat": 37.0821159, "lon": 43.5243413}, {"type": "node", "id": 5019933646, "lat": 37.0822921, "lon": 43.5240964}, {"type": "node", "id": 5019933647, "lat": 37.0825044, "lon": 43.5234272}, {"type": "node", "id": 5019933648, "lat": 37.0827081, "lon": 43.5235519}, {"type": "node", "id": 5019933649, "lat": 37.0826338, "lon": 43.5238189}, {"type": "node", "id": 5019933650, "lat": 37.0827556, "lon": 43.5238881}, {"type": "node", "id": 5019933651, "lat": 37.0827173, "lon": 43.5240935}, {"type": "node", "id": 5019933652, "lat": 37.0828268, "lon": 43.5241425}, {"type": "node", "id": 5019933653, "lat": 37.0828743, "lon": 43.5239649}, {"type": "node", "id": 5019933654, "lat": 37.0830077, "lon": 43.5240455}, {"type": "node", "id": 5019933655, "lat": 37.082928, "lon": 43.5243653}, {"type": "node", "id": 5019933656, "lat": 37.0828552, "lon": 43.5246678}, {"type": "node", "id": 5019933657, "lat": 37.0828917, "lon": 43.5251854}, {"type": "node", "id": 5019933660, "lat": 37.0825202, "lon": 43.5254692}, {"type": "node", "id": 5019933661, "lat": 37.0823826, "lon": 43.5255378}, {"type": "node", "id": 5019933662, "lat": 37.08247, "lon": 43.5259375}, {"type": "node", "id": 5019933663, "lat": 37.0829533, "lon": 43.5263481}, {"type": "node", "id": 5019933664, "lat": 37.0830927, "lon": 43.5261733}, {"type": "node", "id": 5019933665, "lat": 37.0830396, "lon": 43.5260474}, {"type": "node", "id": 5019933666, "lat": 37.0831979, "lon": 43.5257781}, {"type": "node", "id": 5019933667, "lat": 37.0834384, "lon": 43.5259392}, {"type": "node", "id": 5019933668, "lat": 37.0835452, "lon": 43.5257355}, {"type": "node", "id": 5019933669, "lat": 37.083276, "lon": 43.5253968}, {"type": "node", "id": 5019933670, "lat": 37.0834817, "lon": 43.5252697}, {"type": "node", "id": 5019933672, "lat": 37.0836026, "lon": 43.5255813}, {"type": "node", "id": 5019933673, "lat": 37.0840006, "lon": 43.5256984}, {"type": "node", "id": 5019933674, "lat": 37.0839406, "lon": 43.5261832}, {"type": "node", "id": 5019933675, "lat": 37.0850469, "lon": 43.5263511}, {"type": "node", "id": 5019933676, "lat": 37.0850958, "lon": 43.52622}, {"type": "node", "id": 5019933677, "lat": 37.0851518, "lon": 43.5254973}, {"type": "node", "id": 5019933682, "lat": 37.0856087, "lon": 43.5256407}, {"type": "node", "id": 5019933683, "lat": 37.0855775, "lon": 43.5260045}, {"type": "node", "id": 5019933684, "lat": 37.085433, "lon": 43.5259525}, {"type": "node", "id": 5019933689, "lat": 37.0853218, "lon": 43.5268836}, {"type": "node", "id": 5019933690, "lat": 37.0859233, "lon": 43.5270942}, {"type": "node", "id": 5036719538, "lat": 37.1968412, "lon": 43.5363958}, {"type": "node", "id": 5036719539, "lat": 37.1967479, "lon": 43.536354}, {"type": "node", "id": 5036720005, "lat": 37.1966026, "lon": 43.5364085}, {"type": "node", "id": 5036720006, "lat": 37.1963124, "lon": 43.5366267}, {"type": "node", "id": 5036720007, "lat": 37.1963819, "lon": 43.5377025}, {"type": "node", "id": 5036720010, "lat": 37.1968136, "lon": 43.5376755}, {"type": "node", "id": 5036720011, "lat": 37.1968011, "lon": 43.5382685}, {"type": "node", "id": 5036720013, "lat": 37.197178, "lon": 43.5382672}, {"type": "node", "id": 5036720014, "lat": 37.1972133, "lon": 43.5376677}, {"type": "node", "id": 5036720015, "lat": 37.1973114, "lon": 43.5375225}, {"type": "node", "id": 5036720016, "lat": 37.1972426, "lon": 43.5365683}, {"type": "node", "id": 5533783896, "lat": 37.0354743, "lon": 43.76109, "tags": {"alt_name": "Taxe Cheya", "designation": "Taxe Cheya", "ele": "620", "image": "<a href=\"https://www.file-upload.net/download-14667887/1527295842815.jpg.html\">1527295842815.jpg</a>", "int_name": "Taxe Cheya", "name": "Gir\u00ea Hus\u00ean Melhem", "name:ar": "\u06af\u0631\u0626 \u062d\u0633\u06cc\u0646 \u0645\u06d5\u0644\u062d\u06d5\u0645", "name:ckb": "\u06af\u0631\u06ce \u062d\u0633\u06ce\u0646 \u0645\u06d5\u0644\u062d\u06d5\u0645", "name:en": "Gire Husin Malham", "name:tr": "Tax\u00ea \u00c7\u00eaya", "note": "\u06af\u0631\u06ce \u062d\u0633\u06ce\u0646 \u0645\u06d5\u0644\u062d\u06d5\u0645 \u062f\u06a9\u06d5\u06a4\u06cc\u062a\u06d5 \u0631\u0648\u0698\u0627\u06a4\u0627\u06cc\u06ce \u0646\u0627\u062d\u06cc\u0627 \u0634\u06ce\u0644\u0627\u062f\u0632\u06ce", "old_name": "Taxe Cheya", "place": "village", "population": "600", "ref": "79", "source": "gps;local knowledge;aerial imagery;streetlevel imagery;survey;osm notes;Sheladize", "wikidata": "Q189541", "wikipedia": "ar:\u0645\u062d\u0627\u0641\u0638\u0629 \u062f\u0647\u0648\u0643"}}, {"type": "node", "id": 5691475503, "lat": 37.2305237, "lon": 43.433235}, {"type": "node", "id": 5691475504, "lat": 37.2300001, "lon": 43.4330097}, {"type": "node", "id": 5691475505, "lat": 37.2287842, "lon": 43.43392}, {"type": "node", "id": 5691475506, "lat": 37.228086, "lon": 43.435402}, {"type": "node", "id": 5691475513, "lat": 37.2273972, "lon": 43.4382967}, {"type": "node", "id": 5691538194, "lat": 37.2317354, "lon": 43.4376493}, {"type": "node", "id": 5691538195, "lat": 37.2351236, "lon": 43.4275838}, {"type": "node", "id": 5691538198, "lat": 37.2292414, "lon": 43.4313706}, {"type": "node", "id": 5691538199, "lat": 37.2309719, "lon": 43.428012}, {"type": "node", "id": 5691538200, "lat": 37.2320504, "lon": 43.428373}, {"type": "node", "id": 5691538201, "lat": 37.2355722, "lon": 43.4302952}, {"type": "node", "id": 5691538202, "lat": 37.2340445, "lon": 43.4279851}, {"type": "node", "id": 5691538203, "lat": 37.236365, "lon": 43.4337153}, {"type": "node", "id": 5691538204, "lat": 37.2346127, "lon": 43.4332991}, {"type": "node", "id": 5691538205, "lat": 37.2341073, "lon": 43.4330058}, {"type": "node", "id": 5691538207, "lat": 37.230297, "lon": 43.4281173}, {"type": "node", "id": 5691538208, "lat": 37.2292752, "lon": 43.4305335}, {"type": "node", "id": 5691538209, "lat": 37.2302433, "lon": 43.4302526}, {"type": "node", "id": 5789924464, "lat": 37.0131676, "lon": 43.8061698}, {"type": "node", "id": 5789924465, "lat": 37.0129963, "lon": 43.8066289}, {"type": "node", "id": 5789925186, "lat": 37.0126376, "lon": 43.8072558}, {"type": "node", "id": 5789925187, "lat": 37.0130818, "lon": 43.8078636}, {"type": "node", "id": 5789925188, "lat": 37.0126832, "lon": 43.8083574}, {"type": "node", "id": 5789925189, "lat": 37.0123141, "lon": 43.8081803}, {"type": "node", "id": 5789925190, "lat": 37.0120408, "lon": 43.8081196}, {"type": "node", "id": 5789925191, "lat": 37.0119342, "lon": 43.8079336}, {"type": "node", "id": 5789925192, "lat": 37.0120941, "lon": 43.8077998}, {"type": "node", "id": 5789925193, "lat": 37.0118761, "lon": 43.8074154}, {"type": "node", "id": 5789925194, "lat": 37.0109539, "lon": 43.8062158}, {"type": "node", "id": 5789925198, "lat": 37.0109185, "lon": 43.8056205}, {"type": "node", "id": 5789925199, "lat": 37.011295, "lon": 43.8054034}, {"type": "node", "id": 5789925200, "lat": 37.0115842, "lon": 43.8049218}, {"type": "node", "id": 5789925201, "lat": 37.0117853, "lon": 43.8048997}, {"type": "node", "id": 5789925202, "lat": 37.0119511, "lon": 43.8051427}, {"type": "node", "id": 5789925203, "lat": 37.012378, "lon": 43.8045286}, {"type": "node", "id": 5789925204, "lat": 37.0127343, "lon": 43.8043828}, {"type": "node", "id": 5789925205, "lat": 37.0133399, "lon": 43.8050476}, {"type": "node", "id": 5789925206, "lat": 37.0130173, "lon": 43.805683}, {"type": "node", "id": 5789925207, "lat": 37.0132919, "lon": 43.8059286}, {"type": "node", "id": 5789925208, "lat": 37.0128894, "lon": 43.8068812}, {"type": "node", "id": 5789925227, "lat": 37.0119597, "lon": 43.8076965}, {"type": "node", "id": 5789925228, "lat": 37.0118757, "lon": 43.8075846}, {"type": "node", "id": 5789925229, "lat": 37.0118635, "lon": 43.8075139}, {"type": "node", "id": 5902861351, "lat": 37.095435, "lon": 43.4903558}, {"type": "node", "id": 5902861352, "lat": 37.0928613, "lon": 43.489898}, {"type": "node", "id": 5902861353, "lat": 37.0902831, "lon": 43.489814}, {"type": "node", "id": 5902861354, "lat": 37.0907937, "lon": 43.4898553}, {"type": "node", "id": 5902861355, "lat": 37.0893973, "lon": 43.4889208}, {"type": "node", "id": 5902861356, "lat": 37.0880707, "lon": 43.4877192}, {"type": "node", "id": 5902861357, "lat": 37.0875936, "lon": 43.4874442}, {"type": "node", "id": 6046701255, "lat": 37.0898982, "lon": 43.440411}, {"type": "node", "id": 6046701256, "lat": 37.0897371, "lon": 43.4403458}, {"type": "node", "id": 6046701258, "lat": 37.0894712, "lon": 43.4402248}, {"type": "node", "id": 6046701259, "lat": 37.0892101, "lon": 43.4401247}, {"type": "node", "id": 6046701260, "lat": 37.0891097, "lon": 43.4401222}, {"type": "node", "id": 6046701261, "lat": 37.0889989, "lon": 43.440179}, {"type": "node", "id": 6046701262, "lat": 37.0887277, "lon": 43.4403321}, {"type": "node", "id": 6046701265, "lat": 37.0884638, "lon": 43.4404178}, {"type": "node", "id": 6046701266, "lat": 37.0882034, "lon": 43.4405428}, {"type": "node", "id": 6046701267, "lat": 37.0880079, "lon": 43.4406089}, {"type": "node", "id": 6046701550, "lat": 37.0907316, "lon": 43.4396528}, {"type": "node", "id": 6046701551, "lat": 37.0906458, "lon": 43.4410794}, {"type": "node", "id": 6046701552, "lat": 37.0908196, "lon": 43.441081}, {"type": "node", "id": 6046701553, "lat": 37.0908258, "lon": 43.4414988}, {"type": "node", "id": 6046701554, "lat": 37.0905939, "lon": 43.4414867}, {"type": "node", "id": 6046701555, "lat": 37.0906158, "lon": 43.4418387}, {"type": "node", "id": 6046701556, "lat": 37.0900636, "lon": 43.4421228}, {"type": "node", "id": 6046701557, "lat": 37.0899475, "lon": 43.4418083}, {"type": "node", "id": 6046701558, "lat": 37.0897621, "lon": 43.4419383}, {"type": "node", "id": 6046701559, "lat": 37.0898191, "lon": 43.4421918}, {"type": "node", "id": 6046701563, "lat": 37.0895073, "lon": 43.4423192}, {"type": "node", "id": 6046701564, "lat": 37.0894268, "lon": 43.4425988}, {"type": "node", "id": 6046701565, "lat": 37.0892171, "lon": 43.442567}, {"type": "node", "id": 6046701566, "lat": 37.0892618, "lon": 43.442016}, {"type": "node", "id": 6046701567, "lat": 37.0890653, "lon": 43.4418246}, {"type": "node", "id": 6046701568, "lat": 37.0892258, "lon": 43.4409088}, {"type": "node", "id": 6046701569, "lat": 37.0898932, "lon": 43.4411946}, {"type": "node", "id": 6046701570, "lat": 37.0900366, "lon": 43.4414369}, {"type": "node", "id": 6046701571, "lat": 37.0901037, "lon": 43.4414042}, {"type": "node", "id": 6046701572, "lat": 37.0899736, "lon": 43.4410259}, {"type": "node", "id": 6046701573, "lat": 37.0899652, "lon": 43.4400382}, {"type": "node", "id": 7689097754, "lat": 37.1878377, "lon": 43.9328323}, {"type": "node", "id": 7689097778, "lat": 37.1882169, "lon": 43.9323542}, {"type": "node", "id": 7689097779, "lat": 37.1882292, "lon": 43.9319547}, {"type": "node", "id": 7689097780, "lat": 37.1881453, "lon": 43.9317504}, {"type": "node", "id": 7689097781, "lat": 37.1879628, "lon": 43.9317411}, {"type": "node", "id": 7689097782, "lat": 37.1878444, "lon": 43.9321034}, {"type": "node", "id": 7689097783, "lat": 37.1877556, "lon": 43.9324161}, {"type": "node", "id": 7689097785, "lat": 37.1879529, "lon": 43.9328992}, {"type": "node", "id": 7689097786, "lat": 37.1881256, "lon": 43.9327908}, {"type": "node", "id": 7755437366, "lat": 37.2238099, "lon": 43.4648696}, {"type": "node", "id": 7757371936, "lat": 37.2086918, "lon": 43.4600573}, {"type": "node", "id": 7757371937, "lat": 37.2080057, "lon": 43.4616039}, {"type": "node", "id": 7757371938, "lat": 37.2076047, "lon": 43.4616765}, {"type": "node", "id": 7757371939, "lat": 37.2073154, "lon": 43.4597771}, {"type": "node", "id": 7757371940, "lat": 37.2081049, "lon": 43.4594449}, {"type": "node", "id": 7757371968, "lat": 37.2074782, "lon": 43.4608458}, {"type": "node", "id": 7757371969, "lat": 37.2073477, "lon": 43.4599894}, {"type": "node", "id": 7844267876, "lat": 37.0359258, "lon": 43.5698307}, {"type": "node", "id": 7844267882, "lat": 37.0360193, "lon": 43.5729603}, {"type": "node", "id": 7845992726, "lat": 37.0440724, "lon": 43.7028588}, {"type": "node", "id": 7845992801, "lat": 37.0489415, "lon": 43.7010088}, {"type": "node", "id": 7845992802, "lat": 37.0493145, "lon": 43.7013351}, {"type": "node", "id": 7845992803, "lat": 37.0493779, "lon": 43.7020318}, {"type": "node", "id": 7845992804, "lat": 37.0487902, "lon": 43.7021949}, {"type": "node", "id": 7845992805, "lat": 37.0482975, "lon": 43.7022302}, {"type": "node", "id": 7845992806, "lat": 37.0478224, "lon": 43.7020274}, {"type": "node", "id": 7845992807, "lat": 37.0476992, "lon": 43.7017452}, {"type": "node", "id": 7845992808, "lat": 37.0478611, "lon": 43.7010926}, {"type": "node", "id": 7845992809, "lat": 37.0481849, "lon": 43.7006252}, {"type": "node", "id": 7845992865, "lat": 37.0446693, "lon": 43.700922}, {"type": "node", "id": 7845992866, "lat": 37.0446628, "lon": 43.7021531}, {"type": "node", "id": 7845992868, "lat": 37.0433863, "lon": 43.7025469}, {"type": "node", "id": 7845992869, "lat": 37.0425684, "lon": 43.7019977}, {"type": "node", "id": 7845992870, "lat": 37.042687, "lon": 43.7003921}, {"type": "node", "id": 7845992871, "lat": 37.0429399, "lon": 43.7003064}, {"type": "node", "id": 7847229007, "lat": 37.0936195, "lon": 43.4900255}, {"type": "node", "id": 7847229008, "lat": 37.0930358, "lon": 43.4899162}, {"type": "node", "id": 7853156797, "lat": 37.2359057, "lon": 43.4283683}, {"type": "node", "id": 7853156798, "lat": 37.2355883, "lon": 43.4296514}, {"type": "node", "id": 7853156803, "lat": 37.2361741, "lon": 43.4337834}, {"type": "node", "id": 7853156804, "lat": 37.2348719, "lon": 43.4329663}, {"type": "node", "id": 7853156805, "lat": 37.234358, "lon": 43.432953}, {"type": "node", "id": 7853800618, "lat": 37.2258019, "lon": 43.4388036}, {"type": "node", "id": 7853842563, "lat": 37.2284544, "lon": 43.4343395}, {"type": "node", "id": 7853986264, "lat": 37.2282309, "lon": 43.4352511}, {"type": "node", "id": 7853986265, "lat": 37.2311405, "lon": 43.4328155}, {"type": "node", "id": 7853986266, "lat": 37.230525, "lon": 43.4314271}, {"type": "node", "id": 7854015079, "lat": 37.2304915, "lon": 43.435137}, {"type": "node", "id": 7854015080, "lat": 37.2306474, "lon": 43.4350515}, {"type": "node", "id": 7854015081, "lat": 37.2308142, "lon": 43.4351177}, {"type": "node", "id": 7854015082, "lat": 37.2309042, "lon": 43.4355671}, {"type": "node", "id": 7854015083, "lat": 37.2310461, "lon": 43.4356638}, {"type": "node", "id": 7854015084, "lat": 37.2312681, "lon": 43.4359542}, {"type": "node", "id": 7854015085, "lat": 37.2314925, "lon": 43.4366617}, {"type": "node", "id": 7854015086, "lat": 37.2313762, "lon": 43.436681}, {"type": "node", "id": 7854015087, "lat": 37.2311237, "lon": 43.4366341}, {"type": "node", "id": 7854015088, "lat": 37.2309591, "lon": 43.4365018}, {"type": "node", "id": 7854015089, "lat": 37.2308384, "lon": 43.4363611}, {"type": "node", "id": 7854015090, "lat": 37.2307001, "lon": 43.436193}, {"type": "node", "id": 7854015091, "lat": 37.2305991, "lon": 43.436}, {"type": "node", "id": 7854015092, "lat": 37.2305245, "lon": 43.4358704}, {"type": "node", "id": 7854015093, "lat": 37.2304191, "lon": 43.435796}, {"type": "node", "id": 7854015094, "lat": 37.2301645, "lon": 43.4356167}, {"type": "node", "id": 7854015095, "lat": 37.2302149, "lon": 43.4354238}, {"type": "node", "id": 7854015096, "lat": 37.2302654, "lon": 43.435308}, {"type": "node", "id": 7854015097, "lat": 37.2314069, "lon": 43.4362357}, {"type": "node", "id": 7854015098, "lat": 37.2315792, "lon": 43.436377}, {"type": "node", "id": 7854015099, "lat": 37.231571, "lon": 43.4365111}, {"type": "node", "id": 7963887219, "lat": 37.0763966, "lon": 43.5822984}, {"type": "node", "id": 7963887221, "lat": 37.0779634, "lon": 43.5959266}, {"type": "node", "id": 7963887231, "lat": 37.0790564, "lon": 43.5965886}, {"type": "node", "id": 7963887233, "lat": 37.0752288, "lon": 43.6042942}, {"type": "node", "id": 8022943044, "lat": 37.2357112, "lon": 43.4281732}, {"type": "node", "id": 8022943055, "lat": 37.2357863, "lon": 43.4311998}, {"type": "node", "id": 8022943056, "lat": 37.235911, "lon": 43.4321178}, {"type": "node", "id": 8022943059, "lat": 37.2361758, "lon": 43.4330619}, {"type": "node", "id": 8022987418, "lat": 37.2325925, "lon": 43.4326489}, {"type": "node", "id": 8022987419, "lat": 37.2323832, "lon": 43.4327293}, {"type": "node", "id": 8022987420, "lat": 37.2318835, "lon": 43.4329922}, {"type": "node", "id": 8022987424, "lat": 37.2318821, "lon": 43.4340499}, {"type": "node", "id": 8022987425, "lat": 37.2312982, "lon": 43.4340986}, {"type": "node", "id": 8023011794, "lat": 37.2313645, "lon": 43.4409615}, {"type": "node", "id": 8023011796, "lat": 37.2314306, "lon": 43.4412917}, {"type": "node", "id": 8023011797, "lat": 37.2313923, "lon": 43.4418327}, {"type": "node", "id": 8023011798, "lat": 37.2313752, "lon": 43.4424926}, {"type": "node", "id": 8023011799, "lat": 37.2313555, "lon": 43.4424971}, {"type": "node", "id": 8023011800, "lat": 37.2309097, "lon": 43.4425999}, {"type": "node", "id": 8023011801, "lat": 37.2298939, "lon": 43.4425682}, {"type": "node", "id": 8048199527, "lat": 37.0928387, "lon": 43.4901612}, {"type": "node", "id": 8048199528, "lat": 37.0918344, "lon": 43.4900631}, {"type": "node", "id": 8048199529, "lat": 37.0913732, "lon": 43.4899228}, {"type": "node", "id": 8048199530, "lat": 37.091356, "lon": 43.4900692}, {"type": "node", "id": 8048977040, "lat": 37.0899145, "lon": 43.9301655}, {"type": "node", "id": 8048977047, "lat": 37.0890249, "lon": 43.9289049}, {"type": "node", "id": 8063777573, "lat": 37.002475, "lon": 43.5347297}, {"type": "node", "id": 8063777574, "lat": 37.0023123, "lon": 43.5345047}, {"type": "node", "id": 8064393942, "lat": 37.0990096, "lon": 43.4940218}, {"type": "node", "id": 8064393943, "lat": 37.0981544, "lon": 43.4945506}, {"type": "node", "id": 8064393944, "lat": 37.0984204, "lon": 43.4938949}, {"type": "node", "id": 8064393945, "lat": 37.0979388, "lon": 43.4941813}, {"type": "node", "id": 8064393965, "lat": 37.1014572, "lon": 43.4985118}, {"type": "node", "id": 8064393966, "lat": 37.1017686, "lon": 43.4981713}, {"type": "node", "id": 8070448024, "lat": 37.0373191, "lon": 43.4579283}, {"type": "node", "id": 8070448025, "lat": 37.0370834, "lon": 43.4585791}, {"type": "node", "id": 8070448026, "lat": 37.0365507, "lon": 43.4584752}, {"type": "node", "id": 8070448028, "lat": 37.0345105, "lon": 43.4591013}, {"type": "node", "id": 8070448029, "lat": 37.0345992, "lon": 43.4572637}, {"type": "node", "id": 8070448030, "lat": 37.0352628, "lon": 43.4567633}, {"type": "node", "id": 8070448031, "lat": 37.0357037, "lon": 43.4574032}, {"type": "node", "id": 8070448032, "lat": 37.0363979, "lon": 43.4573868}, {"type": "node", "id": 8070448033, "lat": 37.0367472, "lon": 43.4572228}, {"type": "node", "id": 8070562100, "lat": 37.0359429, "lon": 43.458711}, {"type": "node", "id": 8070562101, "lat": 37.0372289, "lon": 43.4581773}, {"type": "node", "id": 8070562140, "lat": 37.0453465, "lon": 43.4902867}, {"type": "node", "id": 8070562141, "lat": 37.045658, "lon": 43.4919688}, {"type": "node", "id": 8070562142, "lat": 37.0456209, "lon": 43.4926565}, {"type": "node", "id": 8070562143, "lat": 37.0458583, "lon": 43.492861}, {"type": "node", "id": 8070562144, "lat": 37.04571, "lon": 43.4935766}, {"type": "node", "id": 8070562145, "lat": 37.0451314, "lon": 43.4940784}, {"type": "node", "id": 8070562146, "lat": 37.0443451, "lon": 43.4941156}, {"type": "node", "id": 8070562147, "lat": 37.0443229, "lon": 43.4945803}, {"type": "node", "id": 8070562148, "lat": 37.0452649, "lon": 43.4951751}, {"type": "node", "id": 8070562149, "lat": 37.0450739, "lon": 43.4957436}, {"type": "node", "id": 8070562150, "lat": 37.0443154, "lon": 43.4953981}, {"type": "node", "id": 8070562151, "lat": 37.0437739, "lon": 43.4951658}, {"type": "node", "id": 8070562152, "lat": 37.0431434, "lon": 43.4934744}, {"type": "node", "id": 8070562153, "lat": 37.0429061, "lon": 43.4923963}, {"type": "node", "id": 8070562154, "lat": 37.0431583, "lon": 43.4911138}, {"type": "node", "id": 8070562155, "lat": 37.0435885, "lon": 43.490296}, {"type": "node", "id": 8070562156, "lat": 37.0441671, "lon": 43.4902496}, {"type": "node", "id": 8070562157, "lat": 37.0441597, "lon": 43.4898778}, {"type": "node", "id": 8070562158, "lat": 37.0449904, "lon": 43.4897663}, {"type": "node", "id": 8070562159, "lat": 37.0450662, "lon": 43.4902018}, {"type": "node", "id": 8070562192, "lat": 37.0454824, "lon": 43.4910203}, {"type": "node", "id": 8070562226, "lat": 37.0445902, "lon": 43.4911071}, {"type": "node", "id": 8070562227, "lat": 37.0449911, "lon": 43.4912551}, {"type": "node", "id": 8070562228, "lat": 37.0451061, "lon": 43.4914653}, {"type": "node", "id": 8070562229, "lat": 37.0450937, "lon": 43.491773}, {"type": "node", "id": 8070562230, "lat": 37.0450004, "lon": 43.4920806}, {"type": "node", "id": 8070562231, "lat": 37.0447331, "lon": 43.492065}, {"type": "node", "id": 8070562232, "lat": 37.0446958, "lon": 43.4922948}, {"type": "node", "id": 8070562233, "lat": 37.0446679, "lon": 43.4924583}, {"type": "node", "id": 8070562234, "lat": 37.0444503, "lon": 43.4924038}, {"type": "node", "id": 8070562235, "lat": 37.0441146, "lon": 43.4921546}, {"type": "node", "id": 8070562236, "lat": 37.0439748, "lon": 43.4923259}, {"type": "node", "id": 8070562237, "lat": 37.0439126, "lon": 43.4925635}, {"type": "node", "id": 8070562238, "lat": 37.0437976, "lon": 43.4924583}, {"type": "node", "id": 8070562239, "lat": 37.0436702, "lon": 43.4922091}, {"type": "node", "id": 8070562240, "lat": 37.0437106, "lon": 43.4917846}, {"type": "node", "id": 8070562241, "lat": 37.0437417, "lon": 43.4913563}, {"type": "node", "id": 8070562242, "lat": 37.0438131, "lon": 43.4911266}, {"type": "node", "id": 8070562243, "lat": 37.0438908, "lon": 43.4910175}, {"type": "node", "id": 8070562244, "lat": 37.0440711, "lon": 43.4910097}, {"type": "node", "id": 8070562245, "lat": 37.0442638, "lon": 43.491072}, {"type": "node", "id": 8072469032, "lat": 37.0448251, "lon": 43.5674001}, {"type": "node", "id": 8072469033, "lat": 37.0435442, "lon": 43.5669816}, {"type": "node", "id": 8072469034, "lat": 37.0435149, "lon": 43.5673128}, {"type": "node", "id": 8072469035, "lat": 37.0426491, "lon": 43.5672107}, {"type": "node", "id": 8072469036, "lat": 37.0426585, "lon": 43.5637559}, {"type": "node", "id": 8072469037, "lat": 37.0434062, "lon": 43.5619944}, {"type": "node", "id": 8072469038, "lat": 37.0440974, "lon": 43.5636215}, {"type": "node", "id": 8072469039, "lat": 37.0437233, "lon": 43.5654616}, {"type": "node", "id": 8072469040, "lat": 37.0449724, "lon": 43.5664281}, {"type": "node", "id": 8072469101, "lat": 37.0370092, "lon": 43.5712401}, {"type": "node", "id": 8072469102, "lat": 37.0370132, "lon": 43.5724435}, {"type": "node", "id": 8072469103, "lat": 37.0361496, "lon": 43.5726061}, {"type": "node", "id": 8072469105, "lat": 37.0345736, "lon": 43.5722539}, {"type": "node", "id": 8072469106, "lat": 37.0350912, "lon": 43.571597}, {"type": "node", "id": 8072469107, "lat": 37.0349959, "lon": 43.5694385}, {"type": "node", "id": 8072469108, "lat": 37.0358759, "lon": 43.5694981}, {"type": "node", "id": 8072484226, "lat": 37.0487742, "lon": 43.4857044}, {"type": "node", "id": 8072484227, "lat": 37.0489099, "lon": 43.4861375}, {"type": "node", "id": 8072484228, "lat": 37.0489681, "lon": 43.486522}, {"type": "node", "id": 8072484229, "lat": 37.0495044, "lon": 43.4866677}, {"type": "node", "id": 8072484230, "lat": 37.0495044, "lon": 43.4870118}, {"type": "node", "id": 8072484231, "lat": 37.048154, "lon": 43.4868013}, {"type": "node", "id": 8072484232, "lat": 37.0480409, "lon": 43.4858298}, {"type": "node", "id": 8082575594, "lat": 37.1026323, "lon": 43.4949181}, {"type": "node", "id": 8082575595, "lat": 37.1024721, "lon": 43.4947874}, {"type": "node", "id": 8082575596, "lat": 37.1020932, "lon": 43.494909}, {"type": "node", "id": 8082575597, "lat": 37.101053, "lon": 43.4940712}, {"type": "node", "id": 8082575598, "lat": 37.1010664, "lon": 43.4942281}, {"type": "node", "id": 8082575611, "lat": 37.0992014, "lon": 43.4930634}, {"type": "node", "id": 8082575612, "lat": 37.1010636, "lon": 43.4935656}, {"type": "node", "id": 8082575614, "lat": 37.0997684, "lon": 43.4932499}, {"type": "node", "id": 8082575615, "lat": 37.100041, "lon": 43.4936194}, {"type": "node", "id": 8082575616, "lat": 37.1007061, "lon": 43.4935487}, {"type": "node", "id": 8082584233, "lat": 37.098723, "lon": 43.4934802}, {"type": "node", "id": 8082584234, "lat": 37.0983017, "lon": 43.4934877}, {"type": "node", "id": 8082584235, "lat": 37.0991215, "lon": 43.4933055}, {"type": "node", "id": 8082584236, "lat": 37.0985123, "lon": 43.4932919}, {"type": "node", "id": 8082584277, "lat": 37.0903943, "lon": 43.4838004}, {"type": "node", "id": 8082584278, "lat": 37.0917979, "lon": 43.4844227}, {"type": "node", "id": 8082584279, "lat": 37.0934557, "lon": 43.4857143}, {"type": "node", "id": 8082584280, "lat": 37.0951265, "lon": 43.4864057}, {"type": "node", "id": 8082584286, "lat": 37.0953237, "lon": 43.4865899}, {"type": "node", "id": 8082584287, "lat": 37.0961966, "lon": 43.4888859}, {"type": "node", "id": 8082584289, "lat": 37.0960554, "lon": 43.4898569}, {"type": "node", "id": 8082584290, "lat": 37.0961624, "lon": 43.4894653}, {"type": "node", "id": 8082584303, "lat": 37.0956189, "lon": 43.4902513}, {"type": "node", "id": 8082584333, "lat": 37.0959355, "lon": 43.4887571}, {"type": "node", "id": 8082584334, "lat": 37.0927828, "lon": 43.4855797}, {"type": "node", "id": 8082584335, "lat": 37.0920546, "lon": 43.4846587}, {"type": "node", "id": 8082584336, "lat": 37.0921915, "lon": 43.4851952}, {"type": "node", "id": 8082584337, "lat": 37.0913647, "lon": 43.4845052}, {"type": "node", "id": 8082584338, "lat": 37.0907565, "lon": 43.4843733}, {"type": "node", "id": 8082584342, "lat": 37.0900445, "lon": 43.4836525}, {"type": "node", "id": 8083188060, "lat": 37.0732005, "lon": 43.4755879}, {"type": "node", "id": 8083188061, "lat": 37.0732766, "lon": 43.4758753}, {"type": "node", "id": 8083188067, "lat": 37.0709881, "lon": 43.4740296}, {"type": "node", "id": 8083188071, "lat": 37.0712052, "lon": 43.4750946}, {"type": "node", "id": 8083188075, "lat": 37.071323, "lon": 43.4751197}, {"type": "node", "id": 8083188076, "lat": 37.0715065, "lon": 43.4751347}, {"type": "node", "id": 8083188078, "lat": 37.0715619, "lon": 43.4753049}, {"type": "node", "id": 8083188099, "lat": 37.0732047, "lon": 43.4747439}, {"type": "node", "id": 8083188101, "lat": 37.0728692, "lon": 43.474832}, {"type": "node", "id": 8083188171, "lat": 37.0741333, "lon": 43.4751118}, {"type": "node", "id": 8120267343, "lat": 37.0710393, "lon": 43.5842914}, {"type": "node", "id": 8120267346, "lat": 37.0736087, "lon": 43.5844667}, {"type": "node", "id": 8120271899, "lat": 37.0717297, "lon": 43.5817717}, {"type": "node", "id": 8120271900, "lat": 37.0710858, "lon": 43.5809665}, {"type": "node", "id": 8120271901, "lat": 37.0715698, "lon": 43.58066}, {"type": "node", "id": 8120271902, "lat": 37.0723787, "lon": 43.5816078}, {"type": "node", "id": 8120271911, "lat": 37.072927, "lon": 43.5806293}, {"type": "node", "id": 8120302956, "lat": 37.0708435, "lon": 43.5825963}, {"type": "node", "id": 8120302957, "lat": 37.0699525, "lon": 43.5830165}, {"type": "node", "id": 8120302958, "lat": 37.0702954, "lon": 43.5825339}, {"type": "node", "id": 8120302959, "lat": 37.0697767, "lon": 43.5832295}, {"type": "node", "id": 8120302960, "lat": 37.0709052, "lon": 43.5833804}, {"type": "node", "id": 8120302961, "lat": 37.0700369, "lon": 43.5834397}, {"type": "node", "id": 8120302962, "lat": 37.0702078, "lon": 43.583019}, {"type": "node", "id": 8120302963, "lat": 37.0698577, "lon": 43.5831537}, {"type": "node", "id": 8120302964, "lat": 37.0696416, "lon": 43.5836842}, {"type": "node", "id": 8120302965, "lat": 37.069324, "lon": 43.583154}, {"type": "node", "id": 8120302966, "lat": 37.0695661, "lon": 43.5828913}, {"type": "node", "id": 8120302987, "lat": 37.0708412, "lon": 43.5848785}, {"type": "node", "id": 8120302988, "lat": 37.0748235, "lon": 43.5868696}, {"type": "node", "id": 8120302989, "lat": 37.0756941, "lon": 43.5844394}, {"type": "node", "id": 8120302990, "lat": 37.0750842, "lon": 43.5850219}, {"type": "node", "id": 8120302991, "lat": 37.0750313, "lon": 43.5854994}, {"type": "node", "id": 8120302992, "lat": 37.075076, "lon": 43.5859052}, {"type": "node", "id": 8120302993, "lat": 37.0740201, "lon": 43.5865273}, {"type": "node", "id": 8120303003, "lat": 37.0724453, "lon": 43.6021258}, {"type": "node", "id": 8120303004, "lat": 37.0730957, "lon": 43.6015308}, {"type": "node", "id": 8120312658, "lat": 37.0717801, "lon": 43.6025206}, {"type": "node", "id": 8120312673, "lat": 37.0714354, "lon": 43.6052228}, {"type": "node", "id": 8167654350, "lat": 37.1948851, "lon": 43.8283017, "tags": {"alt_name": "\u0628\u064a\u0631\u062c\u064a\u0644\u0629", "int_name": "B\u012brj\u012blah, Birjla, \u0628\u064a\u0631\u062c\u064a\u0644\u0647, Birjilah, Birjla, \u0628\u064a\u0631\u062c\u064a\u0644\u0647", "is_in": "Iraq , \u062c\u0645\u0647\u0648\u0631\u064a\u0629 \u0627\u0644\u0639\u0631\u0627\u0642", "name": "\u0628\u064a\u0631\u062c\u064a\u0644\u0629", "name:ar": "\u0628\u064a\u0631\u062c\u064a\u0644\u0629", "name:ar1": "\u0628\u064a\u0631\u062c\u064a\u0644\u0629", "name:de": "Birjilah", "name:en": "Birjilah", "name:fr": "Birjilah", "place": "village"}}, {"type": "node", "id": 8202797454, "lat": 37.0429408, "lon": 43.4915421}, {"type": "node", "id": 8226137315, "lat": 37.0948725, "lon": 43.4862451}, {"type": "node", "id": 8226212229, "lat": 37.0881494, "lon": 43.4864438}, {"type": "node", "id": 8226212230, "lat": 37.0883353, "lon": 43.4860113}, {"type": "node", "id": 8226212231, "lat": 37.0878704, "lon": 43.4867413}, {"type": "node", "id": 8226212248, "lat": 37.0897835, "lon": 43.4837419}, {"type": "node", "id": 8227900178, "lat": 37.0755459, "lon": 43.5961323}, {"type": "node", "id": 8227900179, "lat": 37.0755269, "lon": 43.5954499}, {"type": "node", "id": 8227900180, "lat": 37.0759538, "lon": 43.5952618}, {"type": "node", "id": 8227900181, "lat": 37.0759752, "lon": 43.5950091}, {"type": "node", "id": 8227900182, "lat": 37.0766448, "lon": 43.5947133}, {"type": "node", "id": 8227900183, "lat": 37.0774943, "lon": 43.5980627}, {"type": "node", "id": 8227900184, "lat": 37.0787929, "lon": 43.5960559}, {"type": "node", "id": 8227900215, "lat": 37.0772706, "lon": 43.5975835}, {"type": "node", "id": 8227942417, "lat": 37.0782225, "lon": 43.5965094}, {"type": "node", "id": 8227942418, "lat": 37.0764115, "lon": 43.5948164}, {"type": "node", "id": 8227942565, "lat": 37.07481, "lon": 43.6033668}, {"type": "node", "id": 8227942567, "lat": 37.0748459, "lon": 43.5987403}, {"type": "node", "id": 8227942568, "lat": 37.0745563, "lon": 43.598593}, {"type": "node", "id": 8227942569, "lat": 37.0743412, "lon": 43.6014443}, {"type": "node", "id": 8227942570, "lat": 37.0739322, "lon": 43.6007626}, {"type": "node", "id": 8227942571, "lat": 37.0753709, "lon": 43.6033791}, {"type": "node", "id": 8227942572, "lat": 37.0750006, "lon": 43.6042135}, {"type": "node", "id": 8227942573, "lat": 37.0747517, "lon": 43.6037814}, {"type": "node", "id": 8227942578, "lat": 37.0739605, "lon": 43.6054635}, {"type": "node", "id": 8227942579, "lat": 37.0713094, "lon": 43.6095417}, {"type": "node", "id": 8227942617, "lat": 37.0732061, "lon": 43.6018005}, {"type": "node", "id": 8228860924, "lat": 37.0768345, "lon": 43.5956207}, {"type": "node", "id": 8228860925, "lat": 37.0775123, "lon": 43.5953935}, {"type": "node", "id": 8228860952, "lat": 37.0751137, "lon": 43.5853644}, {"type": "node", "id": 8228860953, "lat": 37.0750319, "lon": 43.5855053}, {"type": "node", "id": 8228860954, "lat": 37.0750515, "lon": 43.5856825}, {"type": "node", "id": 8228860955, "lat": 37.0755737, "lon": 43.5845902}, {"type": "node", "id": 8228860956, "lat": 37.0754121, "lon": 43.5845485}, {"type": "node", "id": 8228860957, "lat": 37.0752584, "lon": 43.5846805}, {"type": "node", "id": 8228860958, "lat": 37.0751792, "lon": 43.5847703}, {"type": "node", "id": 8228860959, "lat": 37.0751781, "lon": 43.585082}, {"type": "node", "id": 8228860960, "lat": 37.0754811, "lon": 43.5824737}, {"type": "node", "id": 8228860961, "lat": 37.0752807, "lon": 43.5827543}, {"type": "node", "id": 8228860962, "lat": 37.0751215, "lon": 43.5830684}, {"type": "node", "id": 8228860963, "lat": 37.0750662, "lon": 43.5834441}, {"type": "node", "id": 8228860964, "lat": 37.0751015, "lon": 43.5837231}, {"type": "node", "id": 8228860965, "lat": 37.0752985, "lon": 43.584063}, {"type": "node", "id": 8228860967, "lat": 37.0755286, "lon": 43.5822655}, {"type": "node", "id": 8228860969, "lat": 37.0757876, "lon": 43.5823478}, {"type": "node", "id": 8228860970, "lat": 37.0764238, "lon": 43.5815757}, {"type": "node", "id": 8228860971, "lat": 37.0743643, "lon": 43.5777494}, {"type": "node", "id": 8228860972, "lat": 37.0748031, "lon": 43.5770385}, {"type": "node", "id": 8228860973, "lat": 37.0751686, "lon": 43.57694}, {"type": "node", "id": 8228860974, "lat": 37.075996, "lon": 43.5758744}, {"type": "node", "id": 8228860975, "lat": 37.075559, "lon": 43.5757452}, {"type": "node", "id": 8228860976, "lat": 37.0754277, "lon": 43.5795575}, {"type": "node", "id": 8228860977, "lat": 37.0751738, "lon": 43.5795949}, {"type": "node", "id": 8228860978, "lat": 37.0758054, "lon": 43.5815989}, {"type": "node", "id": 8229901570, "lat": 37.0988751, "lon": 43.4970383}, {"type": "node", "id": 8229901571, "lat": 37.0986562, "lon": 43.4968472}, {"type": "node", "id": 8229901572, "lat": 37.098712, "lon": 43.4965613}, {"type": "node", "id": 8229901573, "lat": 37.0992254, "lon": 43.4968597}, {"type": "node", "id": 8229901574, "lat": 37.0992969, "lon": 43.4966125}, {"type": "node", "id": 8229901785, "lat": 37.0915137, "lon": 43.5069487}, {"type": "node", "id": 8229901786, "lat": 37.0916004, "lon": 43.5078194}, {"type": "node", "id": 8229901793, "lat": 37.0914159, "lon": 43.5066069}, {"type": "node", "id": 8229901794, "lat": 37.0909448, "lon": 43.5068339}, {"type": "node", "id": 8229901795, "lat": 37.0911855, "lon": 43.5076118}, {"type": "node", "id": 8229901797, "lat": 37.0903774, "lon": 43.5075556}, {"type": "node", "id": 8229901817, "lat": 37.0903322, "lon": 43.5080341}, {"type": "node", "id": 8229901818, "lat": 37.0893365, "lon": 43.5060814}, {"type": "node", "id": 8229901822, "lat": 37.0891664, "lon": 43.5078735}, {"type": "node", "id": 8231482842, "lat": 37.0756076, "lon": 43.5774761}, {"type": "node", "id": 8231482843, "lat": 37.0755652, "lon": 43.5780841}, {"type": "node", "id": 8231482844, "lat": 37.0754501, "lon": 43.5787068}, {"type": "node", "id": 8233491985, "lat": 37.0882053, "lon": 43.5049724}, {"type": "node", "id": 8233491986, "lat": 37.0886987, "lon": 43.5049393}, {"type": "node", "id": 8233491987, "lat": 37.0890071, "lon": 43.505922},