{"version": 0.6, "generator": "Overpass API 0.7.61.5 4133829e", "osm3s": {"timestamp_osm_base": "2024-03-05T15:06:00Z", "copyright": "The data included in this document is from www.openstreetmap.org. The data is made available under ODbL."}, "elements": [{"type": "node", "id": 61107019, "lat": 63.348376, "lon": 13.4636687, "tags": {"name": "J\u00e4rpen", "name:ru": "\u0415\u0440\u043f\u0435\u043d", "place": "town", "population": "1408", "ref:se:pts:postort": "J\u00c4RPEN", "ref:se:scb": "7884"}}, {"type": "node", "id": 246008181, "lat": 63.4010888, "lon": 13.0822241, "tags": {"name": "\u00c5re", "name:ru": "\u041e\u0440\u0435", "place": "village", "population": "1417", "ref:se:pts:postort": "\u00c5RE", "ref:se:scb": "8024", "wikidata": "Q271138", "wikipedia": "sv:\u00c5re"}}, {"type": "node", "id": 256156369, "lat": 63.3871982, "lon": 13.1541816, "tags": {"created_by": "JOSM", "name": "\u00c5re Bj\u00f6rnen", "place": "village"}}, {"type": "node", "id": 363740402, "lat": 63.2169944, "lon": 13.0565952, "tags": {"name": "Ottsj\u00f6", "place": "village"}}, {"type": "node", "id": 363740414, "lat": 63.3146864, "lon": 13.2420533, "tags": {"name": "Unders\u00e5ker", "name:sma": "S\u00e5ahka", "place": "village", "population": "438", "population:date": "2010", "ref:se:pts:postort": "UNDERS\u00c5KER", "ref:se:scb": "8000"}}, {"type": "node", "id": 367053733, "lat": 63.3941812, "lon": 12.9198927, "tags": {"name": "Duved", "place": "village", "ref:se:pts:postort": "DUVED", "ref:se:scb": "7820", "wikidata": "Q305066"}}, {"type": "node", "id": 603957368, "lat": 63.4003369, "lon": 12.9744396, "tags": {"name": "Tegefj\u00e4ll", "place": "hamlet"}}, {"type": "node", "id": 839240446, "lat": 63.344748, "lon": 13.2030655, "tags": {"name": "Brattland", "place": "hamlet"}}, {"type": "node", "id": 845061121, "lat": 63.3098504, "lon": 13.6573978, "tags": {"name": "M\u00f6rsil", "place": "village", "ref:se:pts:postort": "M\u00d6RSIL", "ref:se:scb": "7916"}}, {"type": "node", "id": 1344331498, "lat": 63.1485611, "lon": 12.9667787, "tags": {"name": "V\u00e5l\u00e5dalen", "name:sma": "Bijjie Sp\u00e4dtja", "name:sv": "V\u00e5l\u00e5dalen", "place": "hamlet", "ref:se:pts:postort": "V\u00c5L\u00c5DALEN"}}, {"type": "node", "id": 1344331530, "lat": 63.1572038, "lon": 13.0702446, "tags": {"name": "Vallbo", "name:sma": "Movvele", "name:sv": "Vallbo", "place": "hamlet"}}, {"type": "node", "id": 1348508667, "lat": 63.1838732, "lon": 13.1246978, "tags": {"name": "F\u00e5ng\u00e5mon", "place": "hamlet"}}, {"type": "node", "id": 1348508700, "lat": 63.2101875, "lon": 13.1571418, "tags": {"name": "Sj\u00f6\u00e4ndan", "place": "hamlet"}}, {"type": "node", "id": 1348508764, "lat": 63.1658458, "lon": 13.059066, "tags": {"name": "\u00d6stra V\u00e5l\u00e5dalen", "name:sma": "Vuelie Sp\u00e4dtja", "name:sv": "\u00d6stra V\u00e5l\u00e5dalen", "place": "hamlet"}}, {"type": "node", "id": 1389604605, "lat": 63.2828039, "lon": 13.7605063, "tags": {"name": "Ocke", "place": "village"}}, {"type": "node", "id": 1399967692, "lat": 63.265798, "lon": 13.1618488, "tags": {"name": "Trillevallen", "place": "hamlet", "wikidata": "Q10703774", "wikipedia": "sv:Trillevallen"}}, {"type": "node", "id": 1484974613, "lat": 63.2324491, "lon": 13.6806403, "tags": {"name": "S\u00e4llsj\u00f6", "place": "hamlet", "wikidata": "Q10688011", "wikipedia": "sv:S\u00e4llsj\u00f6"}}, {"type": "node", "id": 1484993255, "lat": 63.3343824, "lon": 13.7029644, "tags": {"name": "Semlan", "place": "hamlet"}}, {"type": "node", "id": 2086301338, "lat": 63.3919569, "lon": 13.1357689, "tags": {"alt_name": "V\u00e4stra Bj\u00f6rnen", "name": "\u00c5re Sadeln", "place": "hamlet"}}, {"type": "node", "id": 2089079512, "lat": 63.3281614, "lon": 13.2014278, "tags": {"name": "Kl\u00e4ppen", "place": "hamlet"}}, {"type": "node", "id": 2104071558, "lat": 63.314477, "lon": 13.0680695, "tags": {"name": "Eds\u00e5sdalen", "place": "village"}}, {"type": "node", "id": 2174681001, "lat": 63.0767313, "lon": 13.7572947, "tags": {"name": "H\u00f6glekardalen", "name:sma": "Liekerdaelie", "name:sv": "H\u00f6glekardalen", "place": "hamlet"}}, {"type": "node", "id": 2174681004, "lat": 63.0887377, "lon": 13.7705898, "tags": {"alt_name": "Hovdet", "name": "Hovde", "place": "hamlet"}}, {"type": "node", "id": 2260506817, "lat": 63.1631489, "lon": 13.7467417, "tags": {"name": "M\u00e5rdsundsbodarna", "place": "hamlet"}}, {"type": "node", "id": 2378391866, "lat": 63.4126771, "lon": 13.3700912, "tags": {"name": "Bon\u00e4set", "place": "hamlet"}}, {"type": "node", "id": 2396224649, "lat": 63.3124973, "lon": 13.3263429, "tags": {"name": "H\u00e5lland", "place": "village"}}, {"type": "node", "id": 2396224651, "lat": 63.3323259, "lon": 13.4050764, "tags": {"name": "H\u00e5rsta", "place": "hamlet"}}, {"type": "node", "id": 2600552924, "lat": 63.4371356, "lon": 13.2962871, "tags": {"name": "F\u00e4viken", "place": "hamlet"}}, {"type": "node", "id": 3968800860, "lat": 63.3109524, "lon": 13.2063985}, {"type": "node", "id": 3968800861, "lat": 63.3155203, "lon": 13.2064629}, {"type": "node", "id": 3968800862, "lat": 63.3172836, "lon": 13.1842327}, {"type": "node", "id": 3968800863, "lat": 63.3149999, "lon": 13.1644917}, {"type": "node", "id": 3968800864, "lat": 63.3134099, "lon": 13.1639123}, {"type": "node", "id": 3968800865, "lat": 63.311627, "lon": 13.1776023}, {"type": "node", "id": 3968800866, "lat": 63.3117041, "lon": 13.1985879}, {"type": "node", "id": 3968800867, "lat": 63.3107307, "lon": 13.2054758}, {"type": "node", "id": 3968800868, "lat": 63.3107789, "lon": 13.2059264}, {"type": "node", "id": 5791891538, "lat": 63.3949285, "lon": 12.8658056, "tags": {"name": "Duvedsbyn", "place": "hamlet"}}, {"type": "node", "id": 5799930446, "lat": 63.391219, "lon": 12.8550231, "tags": {"name": "Sundet", "place": "hamlet"}}, {"type": "node", "id": 5914644101, "lat": 63.4541152, "lon": 13.3692026, "tags": {"name": "Krok", "place": "hamlet"}}, {"type": "node", "id": 6344457767, "lat": 63.3929826, "lon": 13.3828497, "tags": {"name": "N\u00e4sesved", "place": "hamlet"}}, {"type": "node", "id": 6344457768, "lat": 63.3849473, "lon": 13.4187268, "tags": {"name": "J\u00e4rpbyn", "place": "hamlet"}}, {"type": "node", "id": 7455692070, "lat": 63.3828281, "lon": 13.4277479, "tags": {"name": "B\u00f6le", "place": "hamlet"}}, {"type": "node", "id": 7455715042, "lat": 63.3234555, "lon": 13.4092033, "tags": {"name": "Mo", "place": "hamlet"}}, {"type": "node", "id": 7455726473, "lat": 63.3702645, "lon": 13.4552958, "tags": {"name": "Hallen", "place": "hamlet"}}, {"type": "node", "id": 7455726654, "lat": 63.3882223, "lon": 13.4090806, "tags": {"name": "H\u00f6gen", "place": "hamlet"}}, {"type": "node", "id": 7455752766, "lat": 63.3117035, "lon": 13.67503, "tags": {"name": "Eggen", "place": "hamlet"}}, {"type": "node", "id": 7455757611, "lat": 63.3361154, "lon": 13.4231665, "tags": {"name": "Svensta", "place": "hamlet"}}, {"type": "node", "id": 7455766532, "lat": 63.3653255, "lon": 13.4494706, "tags": {"name": "Br\u00e4nnan", "place": "hamlet"}}, {"type": "node", "id": 7455773002, "lat": 63.3408471, "lon": 13.4486617, "tags": {"name": "Toss\u00f6n", "place": "hamlet"}}, {"type": "node", "id": 7455773813, "lat": 63.2986663, "lon": 13.697507, "tags": {"name": "Eggfors", "place": "hamlet"}}, {"type": "node", "id": 7455778585, "lat": 63.3291097, "lon": 13.5321359, "tags": {"name": "Strand", "place": "hamlet"}}, {"type": "node", "id": 7455783044, "lat": 63.3157798, "lon": 13.5872516, "tags": {"name": "H\u00f6gen", "place": "hamlet"}}, {"type": "node", "id": 7455792065, "lat": 63.2930238, "lon": 13.7181722, "tags": {"name": "Moarna", "place": "hamlet"}}, {"type": "node", "id": 7455792553, "lat": 63.3501237, "lon": 13.7184084, "tags": {"name": "Andersb\u00f6le", "place": "hamlet"}}, {"type": "node", "id": 7455807916, "lat": 63.2742003, "lon": 13.6445592, "tags": {"name": "Nybyn", "place": "hamlet"}}, {"type": "node", "id": 7455817895, "lat": 63.3293559, "lon": 13.7298172, "tags": {"name": "Ris", "place": "hamlet"}}, {"type": "way", "id": 393677003, "nodes": [3968800860, 3968800861, 3968800862, 3968800863, 3968800864, 3968800865, 3968800866, 3968800867, 3968800868, 3968800860], "tags": {"name": "Eds\u00e5sen", "place": "village", "wikidata": "Q10480012", "wikipedia": "sv:Eds\u00e5sen"}}]}