{"version": 0.6, "generator": "Overpass API 0.7.61.5 4133829e", "osm3s": {"timestamp_osm_base": "2024-03-06T11:42:15Z", "copyright": "The data included in this document is from www.openstreetmap.org. The data is made available under ODbL."}, "elements": [{"type": "node", "id": 45002628, "lat": 3.0987497, "lon": 39.2647705, "tags": {"is_in": "Marsabit,Kenya", "name": "Dobel", "place": "village"}}, {"type": "node", "id": 3695322672, "lat": 2.9729113, "lon": 39.2994573, "tags": {"name": "Lesayu", "place": "village"}}, {"type": "node", "id": 3695362757, "lat": 2.9380039, "lon": 39.4862862, "tags": {"name": "Beramu", "place": "village"}}, {"type": "node", "id": 3695362763, "lat": 2.9890289, "lon": 39.3156584, "tags": {"name": "Korendile", "place": "town"}}, {"type": "node", "id": 3695407069, "lat": 3.1661403, "lon": 39.3454561, "tags": {"name": "Hote", "place": "village"}}, {"type": "node", "id": 3696856320, "lat": 3.2942544, "lon": 39.6718893, "tags": {"name": "Balatul Amin", "place": "village"}}, {"type": "node", "id": 3696913090, "lat": 3.1600082, "lon": 39.6022594, "tags": {"name": "Garakilo", "place": "village"}}, {"type": "node", "id": 3697007913, "lat": 3.1956477, "lon": 39.448152, "tags": {"name": "Ogorji", "place": "village"}}, {"type": "node", "id": 6939401195, "lat": 3.254706, "lon": 39.3407837}, {"type": "node", "id": 6939401196, "lat": 3.2540026, "lon": 39.3414343}, {"type": "node", "id": 6939401197, "lat": 3.2540148, "lon": 39.3417311}, {"type": "node", "id": 6939401198, "lat": 3.2556871, "lon": 39.3415847}, {"type": "node", "id": 6939401199, "lat": 3.255683, "lon": 39.341288}, {"type": "node", "id": 6945339941, "lat": 3.021831, "lon": 39.4636789, "tags": {"place": "village"}}, {"type": "node", "id": 6945831217, "lat": 3.1516522, "lon": 39.2510504, "tags": {"name": "Dabel", "place": "village"}}, {"type": "node", "id": 6960209713, "lat": 2.9560638, "lon": 39.4889326, "tags": {"place": "village"}}, {"type": "node", "id": 7217966469, "lat": 3.2933276, "lon": 39.6671277, "tags": {"name": "Quarsa Bulla", "place": "village"}}, {"type": "node", "id": 11245942347, "lat": 3.2556898, "lon": 39.3408578}, {"type": "node", "id": 11245942348, "lat": 3.2308847, "lon": 39.341412}, {"type": "node", "id": 11245942349, "lat": 3.2308605, "lon": 39.3432327}, {"type": "node", "id": 11245942350, "lat": 3.2250918, "lon": 39.3435605}, {"type": "node", "id": 11245942351, "lat": 3.2247646, "lon": 39.3419825}, {"type": "node", "id": 11245942352, "lat": 3.2272975, "lon": 39.3416426}, {"type": "node", "id": 11245942353, "lat": 3.227552, "lon": 39.3421403}, {"type": "node", "id": 11245942354, "lat": 3.229079, "lon": 39.3421039}, {"type": "node", "id": 11245942355, "lat": 3.2290548, "lon": 39.3414606}, {"type": "way", "id": 741256282, "nodes": [6939401199, 6939401198, 6939401197, 6939401196, 6939401195, 11245942347, 6939401199], "tags": {"landuse": "residential", "name": "Kujure", "place": "hamlet", "residential": "rural"}}, {"type": "way", "id": 1213844071, "nodes": [11245942348, 11245942349, 11245942350, 11245942351, 11245942352, 11245942353, 11245942354, 11245942355, 11245942348], "tags": {"landuse": "residential", "place": "hamlet", "residential": "rural"}}]}