{"version": 0.6, "generator": "Overpass API 0.7.61.5 4133829e", "osm3s": {"timestamp_osm_base": "2024-03-05T15:08:00Z", "copyright": "The data included in this document is from www.openstreetmap.org. The data is made available under ODbL."}, "elements": [{"type": "node", "id": 97560095, "lat": 60.9656133, "lon": 16.451243, "tags": {"alt_name": "\u00c5motsbruk", "name": "\u00c5mot", "place": "village", "ref:se:pts:postort": "\u00c5MOTSBRUK", "ref:se:scb": "7372"}}, {"type": "node", "id": 97571310, "lat": 61.1111011, "lon": 16.019727, "tags": {"name": "Sj\u00f6sveden", "place": "hamlet"}}, {"type": "node", "id": 113709444, "lat": 60.8415079, "lon": 16.4676521, "tags": {"name": "J\u00e4dra\u00e5s", "place": "village", "ref:se:pts:postort": "J\u00c4DRA\u00c5S", "ref:se:scb": "7144"}}, {"type": "node", "id": 208522462, "lat": 61.1182215, "lon": 15.9626991, "tags": {"name": "H\u00e4sbo", "place": "hamlet"}}, {"type": "node", "id": 208530533, "lat": 61.0662724, "lon": 16.2892057, "tags": {"name": "Katrineberg", "place": "hamlet"}}, {"type": "node", "id": 278010027, "lat": 60.8411703, "lon": 15.6545714, "tags": {"name": "Marn\u00e4s", "place": "hamlet"}}, {"type": "node", "id": 281710361, "lat": 60.9408077, "lon": 16.5134561, "tags": {"name": "V\u00e4sterbo", "place": "hamlet"}}, {"type": "node", "id": 281710365, "lat": 60.9217916, "lon": 16.5174769, "tags": {"name": "G\u00e5sbo", "place": "hamlet"}}, {"type": "node", "id": 300534445, "lat": 61.0998014, "lon": 16.1624646, "tags": {"name": "Gruvberget", "place": "hamlet", "source": "Yahoo"}}, {"type": "node", "id": 321455418, "lat": 61.023909, "lon": 15.6489215, "tags": {"name": "Bingsj\u00f6", "place": "hamlet"}}, {"type": "node", "id": 470948759, "lat": 61.2475399, "lon": 16.1425631, "tags": {"name": "Annefors", "place": "hamlet", "wikidata": "Q10412416", "wikipedia": "sv:Annefors, Bolln\u00e4s kommun"}}, {"type": "node", "id": 544875758, "lat": 60.9133087, "lon": 16.1375428, "tags": {"name": "Svartn\u00e4s", "place": "hamlet", "source": "historical", "source_ref": "ekonomiska kartan", "wikidata": "Q2878134", "wikimedia_commons": "Category:Svartn\u00e4s", "wikipedia": "sv:Svartn\u00e4s"}}, {"type": "node", "id": 544875766, "lat": 60.9065594, "lon": 16.0382547, "tags": {"name": "V\u00e4stra Svartn\u00e4s", "place": "hamlet", "source": "historical", "source_ref": "ekonomisk kartan"}}, {"type": "node", "id": 544875780, "lat": 60.9197446, "lon": 16.1061038, "tags": {"name": "\u00d6stra Svartn\u00e4s", "place": "hamlet", "source": "historical", "source_ref": "ekonomisk kartan"}}, {"type": "node", "id": 544875833, "lat": 61.0708374, "lon": 16.0640468, "tags": {"name": "V\u00e5lsj\u00f6bo", "place": "hamlet", "source": "historical", "source_ref": "ekonomisk kartan"}}, {"type": "node", "id": 544875836, "lat": 60.9295048, "lon": 16.1068334, "tags": {"name": "Lars-Hindersg\u00e5rdarna", "place": "hamlet", "source": "historical", "source_ref": "ekonomisk kartan"}}, {"type": "node", "id": 544875844, "lat": 61.0871915, "lon": 16.0515584, "tags": {"name": "Gr\u00e5snerget", "place": "hamlet", "source": "historical", "source_ref": "ekonomisk kartan"}}, {"type": "node", "id": 544875923, "lat": 61.118921, "lon": 16.0957183, "tags": {"name": "Vitsj\u00f6bo", "place": "hamlet", "source": "historical", "source_ref": "ekonomisk kartan"}}, {"type": "node", "id": 544876004, "lat": 61.1303607, "lon": 16.091341, "tags": {"name": "M\u00f6d\u00e4ngsbo", "place": "hamlet", "source_ref": "ekonomisk kartan"}}, {"type": "node", "id": 544876030, "lat": 61.1197087, "lon": 16.1204376, "tags": {"name": "Vitsj\u00f6bo", "place": "hamlet"}}, {"type": "node", "id": 593877812, "lat": 60.9842301, "lon": 15.7055148, "tags": {"name": "Lamborn", "place": "hamlet", "source": "http://gavle.to/~openstreetmap/tiles/14f/!/!/!.png"}}, {"type": "node", "id": 1363932575, "lat": 61.0451852, "lon": 15.7899454, "tags": {"name": "Svabensverk", "place": "hamlet"}}, {"type": "node", "id": 1807954640, "lat": 61.0160499, "lon": 16.1020169, "tags": {"name": "H\u00e4llfors", "place": "hamlet"}}, {"type": "node", "id": 2074214450, "lat": 61.130259, "lon": 16.1738812, "tags": {"name": "Rimsbo", "place": "village"}}, {"type": "node", "id": 2325364825, "lat": 61.1223911, "lon": 15.6810543, "tags": {"name": "Getryggen", "place": "hamlet"}}, {"type": "node", "id": 2325364952, "lat": 61.0629223, "lon": 15.6953151, "tags": {"name": "Dalstuga", "place": "hamlet"}}, {"type": "node", "id": 2327916564, "lat": 60.9360408, "lon": 15.6958795, "tags": {"name": "Nyf\u00e4bodarna", "place": "hamlet"}}, {"type": "node", "id": 2330432530, "lat": 60.8651577, "lon": 15.7621855, "tags": {"name": "\u00d6vert\u00e4nger", "place": "hamlet"}}, {"type": "node", "id": 2334183347, "lat": 61.2548629, "lon": 15.7887246, "tags": {"name": "Gullberg", "place": "hamlet"}}, {"type": "node", "id": 2334183409, "lat": 61.235979, "lon": 15.8470766, "tags": {"name": "Bergs", "place": "hamlet"}}, {"type": "node", "id": 2334183425, "lat": 61.260668, "lon": 15.8592732, "tags": {"name": "M\u00e5l\u00e5ngsbo", "place": "hamlet"}}, {"type": "node", "id": 2334216595, "lat": 61.224276, "lon": 15.8757954, "tags": {"name": "Styggbo", "place": "hamlet"}}, {"type": "node", "id": 2334216599, "lat": 61.20498, "lon": 15.8710747, "tags": {"name": "Skr\u00e4ddrabo", "place": "hamlet"}}, {"type": "node", "id": 2616646780, "lat": 60.8386777, "lon": 16.4714033, "tags": {"name": "Skogsbyn", "place": "hamlet"}}, {"type": "node", "id": 2618468596, "lat": 61.2653645, "lon": 16.4810594, "tags": {"name": "Acktj\u00e4ra", "place": "hamlet"}}, {"type": "node", "id": 2633686455, "lat": 60.9025933, "lon": 16.2434687, "tags": {"name": "Norra Tr\u00e4t\u00e5sen", "place": "hamlet"}}, {"type": "node", "id": 2671723623, "lat": 60.9277949, "lon": 16.3493291, "tags": {"name": "R\u00f6nnbacken", "place": "hamlet"}}, {"type": "node", "id": 2671724058, "lat": 60.9273846, "lon": 16.3612263, "tags": {"name": "Mojsj\u00f6n", "place": "hamlet"}}, {"type": "node", "id": 2711467956, "lat": 60.9629567, "lon": 16.1491997, "tags": {"name": "R\u00e5backen", "place": "hamlet"}}, {"type": "node", "id": 2866944241, "lat": 60.8898203, "lon": 15.7517546, "tags": {"name": "Balungstrand", "place": "hamlet"}}, {"type": "node", "id": 2949018087, "lat": 61.1530524, "lon": 15.881777, "tags": {"name": "Sk\u00e5lsj\u00f6n", "place": "hamlet"}}, {"type": "node", "id": 4712039532, "lat": 61.1003377, "lon": 15.7694793, "tags": {"name": "Norra Fl\u00e4t", "place": "hamlet"}}, {"type": "node", "id": 4712039533, "lat": 61.0808792, "lon": 15.8005762, "tags": {"name": "S\u00f6dra Fl\u00e4t", "place": "hamlet"}}, {"type": "node", "id": 4712039566, "lat": 61.2553933, "lon": 15.883134, "tags": {"name": "M\u00e5ll\u00e5ngssta", "place": "hamlet"}}, {"type": "node", "id": 4712039569, "lat": 61.1756203, "lon": 15.8814674, "tags": {"name": "Ramfors", "place": "hamlet"}}, {"type": "node", "id": 7462154984, "lat": 60.8593634, "lon": 16.1870943, "tags": {"name": "Lilla Bj\u00f6rnmossen", "place": "hamlet"}}, {"type": "node", "id": 7465859869, "lat": 61.2208862, "lon": 16.1083181, "tags": {"name": "\u00d6stra \u00d6jungsbo", "place": "hamlet"}}, {"type": "node", "id": 7465910574, "lat": 60.8754809, "lon": 16.2580466, "tags": {"name": "Stora Bj\u00f6rnmossen", "place": "hamlet"}}, {"type": "node", "id": 7465996178, "lat": 60.8917808, "lon": 15.7527071, "tags": {"name": "H\u00e4lsingbacken", "place": "hamlet"}}, {"type": "node", "id": 7466013464, "lat": 60.8653092, "lon": 15.7135063, "tags": {"name": "Bortom sj\u00f6n", "place": "hamlet"}}, {"type": "node", "id": 7466013930, "lat": 60.9182085, "lon": 15.735372, "tags": {"name": "Hundsn\u00e4s", "place": "hamlet"}}, {"type": "node", "id": 7466025341, "lat": 60.9050558, "lon": 15.758557, "tags": {"name": "Gryt\u00e5n", "place": "hamlet"}}, {"type": "node", "id": 7466039694, "lat": 60.8416253, "lon": 15.7667412, "tags": {"name": "Yttert\u00e4nger", "place": "hamlet"}}, {"type": "node", "id": 7466051347, "lat": 60.8474251, "lon": 15.7625891, "tags": {"name": "Piparg\u00e5rdarna", "place": "hamlet"}}, {"type": "node", "id": 7466066319, "lat": 60.8772592, "lon": 16.0968781, "tags": {"name": "L\u00e5ngf\u00e4bodarna", "place": "hamlet"}}, {"type": "node", "id": 7466072841, "lat": 60.8919951, "lon": 15.9457865, "tags": {"name": "Hyn", "place": "hamlet"}}, {"type": "node", "id": 7466076573, "lat": 60.8469648, "lon": 15.9682341, "tags": {"name": "Gillerberget", "place": "hamlet"}}, {"type": "node", "id": 7466081296, "lat": 60.9004572, "lon": 15.8267857, "tags": {"name": "Kurberget", "place": "hamlet"}}, {"type": "node", "id": 7466081621, "lat": 60.9095089, "lon": 16.090993, "tags": {"name": "B\u00e5tpers", "place": "hamlet"}}, {"type": "node", "id": 7466083224, "lat": 60.8938692, "lon": 15.9134817, "tags": {"name": "Spj\u00e4rsbodarna", "place": "hamlet"}}, {"type": "node", "id": 7466086838, "lat": 61.0197436, "lon": 15.8292713, "tags": {"name": "G\u00e5rdviksbo", "place": "hamlet"}}, {"type": "node", "id": 7466119195, "lat": 61.0040665, "lon": 15.8395079, "tags": {"name": "Bj\u00f6rn\u00e5s", "place": "hamlet"}}, {"type": "node", "id": 7466126744, "lat": 60.9908949, "lon": 16.1057291, "tags": {"name": "Bast\u00e5sen", "place": "hamlet"}}, {"type": "node", "id": 7467794681, "lat": 60.9167473, "lon": 16.5237539, "tags": {"name": "Kuxbo", "place": "hamlet"}}, {"type": "node", "id": 7467818042, "lat": 60.9393793, "lon": 16.5001527, "tags": {"name": "Strand", "place": "hamlet"}}, {"type": "node", "id": 7467848166, "lat": 60.9549634, "lon": 16.4959524, "tags": {"name": "Gammel\u00e5sen", "place": "hamlet"}}, {"type": "node", "id": 7467922867, "lat": 61.0171742, "lon": 16.195086, "tags": {"name": "L\u00f6vtj\u00e4rn", "place": "hamlet"}}, {"type": "node", "id": 7467925768, "lat": 61.0744492, "lon": 16.3441939, "tags": {"name": "Jansbo", "place": "hamlet"}}, {"type": "node", "id": 7467939569, "lat": 61.0533214, "lon": 16.0181572, "tags": {"name": "Fredagsberget", "place": "hamlet"}}, {"type": "node", "id": 7467940131, "lat": 61.1002678, "lon": 15.832013, "tags": {"name": "L\u00e5ngtj\u00e4rnsberg", "place": "hamlet"}}, {"type": "node", "id": 7467949248, "lat": 61.0629212, "lon": 16.124248, "tags": {"name": "K\u00e4llbo", "place": "hamlet"}}, {"type": "node", "id": 7467956081, "lat": 60.9625429, "lon": 16.2694079, "tags": {"name": "K\u00e4llsj\u00f6n", "place": "hamlet"}}, {"type": "node", "id": 7467972025, "lat": 60.9615183, "lon": 16.466576, "tags": {"name": "Hagen", "place": "hamlet"}}, {"type": "node", "id": 7467995322, "lat": 60.957283, "lon": 16.4469309, "tags": {"name": "\u00c5kersta", "place": "hamlet"}}, {"type": "node", "id": 7468001851, "lat": 60.9651324, "lon": 16.4175981, "tags": {"name": "Svartandal", "place": "hamlet"}}, {"type": "node", "id": 7468014114, "lat": 60.9514553, "lon": 16.4596508, "tags": {"name": "Kvarn\u00e5sen", "place": "hamlet"}}, {"type": "node", "id": 7468047401, "lat": 61.0887914, "lon": 16.1233019, "tags": {"name": "Nybo", "place": "hamlet"}}, {"type": "node", "id": 7468050670, "lat": 61.231619, "lon": 16.2815761, "tags": {"name": "Bellsbo", "place": "hamlet"}}, {"type": "node", "id": 7468050689, "lat": 61.2012559, "lon": 16.1478269, "tags": {"name": "Svartbo", "place": "hamlet"}}, {"type": "node", "id": 7468059574, "lat": 61.2477107, "lon": 16.303098, "tags": {"name": "Sjulsbo", "place": "hamlet"}}, {"type": "node", "id": 7468066835, "lat": 61.2300907, "lon": 16.3099571, "tags": {"name": "Flugbo", "place": "hamlet"}}, {"type": "node", "id": 7468074228, "lat": 61.1145315, "lon": 16.4114843, "tags": {"name": "Stugubacken", "place": "hamlet"}}, {"type": "node", "id": 7468081795, "lat": 61.1702656, "lon": 16.324229, "tags": {"name": "Rickebo", "place": "hamlet"}}, {"type": "node", "id": 7468084315, "lat": 61.2602515, "lon": 16.4203967, "tags": {"name": "Herte", "place": "hamlet"}}, {"type": "node", "id": 7468085321, "lat": 61.2141226, "lon": 16.3858623, "tags": {"name": "\u00c5sveden", "place": "hamlet"}}, {"type": "node", "id": 7468085519, "lat": 61.2346414, "lon": 16.4174703, "tags": {"name": "H\u00e5", "place": "hamlet"}}, {"type": "node", "id": 7468092003, "lat": 61.2216259, "lon": 16.4124969, "tags": {"name": "Deglobacken", "place": "hamlet"}}, {"type": "node", "id": 7468101977, "lat": 61.2604935, "lon": 16.5320976, "tags": {"name": "Norrfly", "place": "hamlet"}}, {"type": "node", "id": 7468104315, "lat": 61.2200937, "lon": 16.4239323, "tags": {"name": "H\u00e4llbo", "place": "hamlet"}}, {"type": "node", "id": 7468109112, "lat": 61.2132346, "lon": 16.4401539, "tags": {"name": "Knisselbo", "place": "hamlet"}}, {"type": "node", "id": 7468121364, "lat": 61.2642947, "lon": 16.5291216, "tags": {"name": "Kvarnb\u00f6le", "place": "hamlet"}}, {"type": "node", "id": 7468140918, "lat": 61.2455886, "lon": 16.5018071, "tags": {"name": "Erik-Ols", "place": "hamlet"}}, {"type": "node", "id": 7468144473, "lat": 61.2557735, "lon": 16.5193774, "tags": {"name": "S\u00f6rfly", "place": "hamlet"}}, {"type": "node", "id": 7468155820, "lat": 61.2236832, "lon": 16.4895398, "tags": {"name": "Lotan", "place": "hamlet"}}, {"type": "node", "id": 7468161353, "lat": 61.2451698, "lon": 16.4505006, "tags": {"name": "\u00d6stansj\u00f6", "place": "hamlet"}}, {"type": "node", "id": 7468171048, "lat": 61.1829508, "lon": 16.5287736, "tags": {"name": "Varstub\u00e4cken", "place": "hamlet"}}, {"type": "node", "id": 7468171753, "lat": 61.2105113, "lon": 16.5168464, "tags": {"name": "V\u00e4sterberg", "place": "hamlet"}}, {"type": "node", "id": 7468174395, "lat": 61.2343957, "lon": 16.4738528, "tags": {"name": "Sva", "place": "hamlet"}}, {"type": "node", "id": 7468176117, "lat": 61.2069271, "lon": 16.5362067, "tags": {"name": "L\u00f6ten", "place": "hamlet"}}, {"type": "node", "id": 7468177535, "lat": 61.2104769, "lon": 16.5234511, "tags": {"name": "Bofara", "place": "hamlet"}}, {"type": "node", "id": 7468179389, "lat": 61.2335092, "lon": 16.5486932, "tags": {"name": "Berge", "place": "hamlet"}}, {"type": "node", "id": 7468182734, "lat": 61.2099192, "lon": 16.4853161, "tags": {"name": "V\u00e4stansj\u00f6", "place": "hamlet"}}, {"type": "node", "id": 7468193711, "lat": 61.2440371, "lon": 16.5409964, "tags": {"name": "Kyrkbybacken", "place": "hamlet"}}, {"type": "node", "id": 7468194147, "lat": 61.1129055, "lon": 16.1020941, "tags": {"name": "Vittsj\u00f6n", "place": "hamlet"}}, {"type": "node", "id": 7468197607, "lat": 61.2270219, "lon": 16.5442668, "tags": {"name": "Hammaren", "place": "hamlet"}}, {"type": "node", "id": 7468230963, "lat": 61.1794029, "lon": 16.053016, "tags": {"name": "Grann\u00e4s", "place": "hamlet"}}, {"type": "node", "id": 7469363713, "lat": 61.26416, "lon": 16.1385708, "tags": {"name": "S\u00e5sarv", "place": "hamlet"}}]}