{"version": 0.6, "generator": "Overpass API 0.7.61.5 4133829e", "osm3s": {"timestamp_osm_base": "2024-03-05T13:42:59Z", "copyright": "The data included in this document is from www.openstreetmap.org. The data is made available under ODbL."}, "elements": [{"type": "node", "id": 4413371358, "lat": 32.93376, "lon": 67.520948, "tags": {"alt_name": "Aghele Mola;Aghel-e Molla", "name": "\u0622\u063a\u06d0\u0644 \u0645\u0644\u0627", "name:en": "Aghel-e Mulla", "name:ps": "\u0622\u063a\u06d0\u0644 \u0645\u0644\u0627", "name:ru": "Ageli-Mulla", "place": "village", "source:name": "GNS"}}, {"type": "node", "id": 4413371359, "lat": 32.936409, "lon": 67.53756, "tags": {"name": "\u0627\u0644\u063a\u0632\u0627\u0631", "name:en": "Alaghzar", "name:ps": "\u0627\u0644\u063a\u0632\u0627\u0631", "name:ru": "Alagzar", "place": "village", "source:name": "GNS"}}, {"type": "node", "id": 7810227387, "lat": 32.9571597, "lon": 67.7810001, "tags": {"name": "\u0634\u0628\u0646\u0645", "name:en": "Shabnam", "name:ru": "\u0428\u0430\u0431\u043d\u0430\u043c", "place": "hamlet"}}, {"type": "node", "id": 7810227388, "lat": 32.9898415, "lon": 67.7993779, "tags": {"name": "\u0633\u0646\u06af\u0627\u0633\u06cc", "name:en": "Singasi", "name:ru": "\u0421\u0438\u043d\u0433\u0430\u0437\u0438", "place": "hamlet"}}, {"type": "node", "id": 7810247094, "lat": 32.9760685, "lon": 67.7786213, "tags": {"name": "\u0637\u0627\u0626\u0628 \u062e\u06d0\u0644", "place": "hamlet"}}, {"type": "node", "id": 7810247095, "lat": 32.9733907, "lon": 67.7668766, "tags": {"name": "\u06a9\u0627\u0631\u06d0\u0632\u06af\u06cc", "place": "hamlet"}}, {"type": "node", "id": 7810247096, "lat": 33.0133849, "lon": 67.8123055, "tags": {"name": "\u0646\u064a\u0644\u06cc", "name:en": "Nilay", "name:ru": "\u041d\u0438\u043b\u0430\u0439", "place": "hamlet"}}, {"type": "node", "id": 8862233886, "lat": 32.9404433, "lon": 67.5335288, "tags": {"name": "\u0628\u0627\u0632\u0627\u0631 \u0627\u0646\u06af\u0648\u0631\u06cc", "place": "hamlet"}}, {"type": "node", "id": 10597904124, "lat": 33.1221022, "lon": 67.7005547, "tags": {"name": "Nawdi Worqa", "name:fa": "\u0646\u0627\u0648\u062f\u0647 \u0648\u0631\u0642\u0647", "place": "village"}}, {"type": "node", "id": 10597931041, "lat": 33.1523671, "lon": 67.7103193, "tags": {"name": "\u0646\u0627\u0644\u0647 \u06a9\u0644\u0627\u0646", "name:en": "Nali Kalan", "place": "village"}}, {"type": "node", "id": 10597942879, "lat": 33.1390996, "lon": 67.7471737, "tags": {"name": "\u0642\u0648\u0644", "place": "village"}}, {"type": "node", "id": 10597946355, "lat": 33.1271039, "lon": 67.7588561, "tags": {"name": "\u062f\u0647\u0646 \u0628\u0648\u0645 \u062a\u0627\u0642\u0686\u06cc\u0646", "place": "village"}}, {"type": "node", "id": 10597948991, "lat": 33.1233539, "lon": 67.7739512, "tags": {"name": "\u062a\u0627\u0642\u0686\u06cc\u0646", "name:en": "Taqchin", "place": "village"}}, {"type": "node", "id": 10597967599, "lat": 33.1783143, "lon": 67.7692004, "tags": {"name": "\u062e\u0627\u0646\u0647 \u0645\u06cc\u0627\u0646\u0647", "name:en": "Khani Miyana", "place": "village"}}, {"type": "node", "id": 10597972689, "lat": 33.1712832, "lon": 67.7576935, "tags": {"name": "\u062f\u0647 \u0631\u0627\u0632\u06cc", "place": "village"}}, {"type": "node", "id": 10597975713, "lat": 33.1631173, "lon": 67.7294271, "tags": {"name": "\u0631\u06cc\u0632\u0647 \u0646\u0627\u0644\u0647", "name:en": "Riza Nala", "place": "village"}}, {"type": "node", "id": 10613487865, "lat": 33.1741725, "lon": 67.7483413, "tags": {"name": "\u06a9\u0648\u062a \u062e\u06cc\u0646\u0647", "name:en": "Kot khina", "place": "village"}}, {"type": "node", "id": 10613562201, "lat": 33.1916272, "lon": 67.7200001, "tags": {"name": "\u06af\u0631\u062f\u0648\u0646 \u0632\u0627\u0648\u0644\u06cc", "name:en": "Gardon Zawli", "place": "village"}}, {"type": "node", "id": 10613570109, "lat": 33.1804612, "lon": 67.7614163, "tags": {"name": "\u0648\u0648\u0632\u06cc\u0631\u0627", "name:en": "Wozira", "place": "village"}}, {"type": "node", "id": 10613575205, "lat": 33.1848661, "lon": 67.7444603, "tags": {"name": "\u0628\u06cc\u0644\u06cc\u0646\u0642\u0627\u0634", "name:en": "bilinqash", "place": "village"}}, {"type": "node", "id": 10666014569, "lat": 33.1889988, "lon": 67.7708352, "tags": {"name": "Saksadeh (Kasi)", "name:fa": "\u06a9\u0627\u0633\u06cc_\u0633\u0627\u06a9\u0633\u0647 \u062f\u0647", "place": "village"}}, {"type": "node", "id": 10691140167, "lat": 33.1886789, "lon": 67.7658634, "tags": {"name": "\u062f\u0647 \u0628\u06cc\u0648", "place": "village"}}, {"type": "node", "id": 10691161130, "lat": 33.1894135, "lon": 67.7667916, "tags": {"name": "\u0645\u0633\u062c\u062f \u0646\u0648", "place": "village"}}, {"type": "node", "id": 11147495831, "lat": 32.9170064, "lon": 67.522335, "tags": {"name": "\u062d\u0648\u062a\u0642\u0648\u0644", "name:en": "Hotqol", "place": "village"}}, {"type": "node", "id": 11149483910, "lat": 32.9054788, "lon": 67.516644, "tags": {"name": "\u06af\u0631\u062f\u0646\u0647 \u062d\u0648\u062a\u0642\u0648\u0644", "place": "village"}}, {"type": "node", "id": 11152224619, "lat": 32.9645689, "lon": 67.3787242, "tags": {"name": "ballah deh", "place": "village"}}, {"type": "node", "id": 11152726111, "lat": 33.139791, "lon": 67.4408486, "tags": {"name": "\u0633\u0646\u06ab\u0647 \u0645\u0627\u0634\u0647", "name:fa": "(\u0645\u0631\u06a9\u0632 \u0648\u0644\u0627\u06cc\u062a \u062c\u0627\u063a\u0648\u0631\u06cc)\u0633\u0646\u06af \u0645\u0627\u0634\u0647", "place": "city"}}, {"type": "node", "id": 11155271274, "lat": 33.1738733, "lon": 67.7623952, "tags": {"name": "Kohna deh", "name:fa": "\u06a9\u0647\u0646\u0647 \u062f\u0647", "place": "hamlet"}}, {"type": "node", "id": 11195185924, "lat": 33.0167166, "lon": 67.4943237, "tags": {"name": "Tabqos", "name:fa": "\u062a\u0628\u0642\u0648\u0633", "place": "village"}}, {"type": "node", "id": 11195229622, "lat": 33.0885934, "lon": 67.4327692, "tags": {"name": "Aowburda", "name:fa": "\u0622\u0648\u0628\u0648\u0631\u062f\u0647", "place": "hamlet"}}, {"type": "node", "id": 11195229623, "lat": 33.0346125, "lon": 67.4935908, "tags": {"name": "\u0633\u0646\u06af \u0634\u0627\u0646\u062f\u0647", "name:en": "Sang Shanda", "place": "village"}}, {"type": "node", "id": 11195231357, "lat": 33.0460889, "lon": 67.4652586, "tags": {"name": "Dumjoy", "name:fa": "\u062f\u0645 \u062c\u0648\u06cc", "place": "hamlet"}}, {"type": "node", "id": 11195233299, "lat": 33.0761828, "lon": 67.4361761, "tags": {"name": "\u0642\u0627\u062f\u06cc", "name:en": "Qadi", "place": "hamlet"}}, {"type": "node", "id": 11195243082, "lat": 33.0561412, "lon": 67.4517539, "tags": {"name": "Safar Qol", "name:fa": "\u0635\u0641\u0631\u0642\u0648\u0644", "place": "hamlet"}}, {"type": "node", "id": 11195265979, "lat": 33.0370247, "lon": 67.4953203, "tags": {"name": "Azizullah Kakai", "place": "hamlet"}}, {"type": "node", "id": 11204112129, "lat": 33.0454094, "lon": 67.5194514, "tags": {"name": "\u0686\u0627\u06a9\u0647", "place": "village"}}, {"type": "node", "id": 11204152948, "lat": 33.0290971, "lon": 67.5486931, "tags": {"name": "\u0686\u0648\u0628 \u0645\u0633\u06a9\u0647", "name:en": "Chob Maska", "place": "village"}}, {"type": "node", "id": 11204153566, "lat": 33.018615, "lon": 67.5298444, "tags": {"name": "\u062e\u0631\u062a\u06cc\u0632\u06a9", "name:en": "Khartizak", "place": "village"}}, {"type": "node", "id": 11204154989, "lat": 33.0096063, "lon": 67.5397792, "tags": {"name": "\u0628\u0627\u06cc\u0648\u0644", "place": "village"}}, {"type": "node", "id": 11228453708, "lat": 33.1193511, "lon": 67.8167876, "tags": {"description": "frontier between Hazara and Pashton just for now, not from the past", "gns:dsg": "ADM2: second-order administrative division", "name": "\u062f\u0634\u062a \u0647\u0641\u062a\u0627\u062f \u0645\u062f\u06cc\u0648", "name:en": "Haftad Madyoo Desert", "name:ps": "\u062f\u0634\u062a \u0647\u0641\u062a\u0627\u062f \u0645\u062f\u06cc\u0648", "place": "hamlet", "population": "0", "source:name": "GNS"}}, {"type": "node", "id": 11235250397, "lat": 33.1271233, "lon": 67.6679237, "tags": {"name": "\u0633\u0631\u0644\u0648\u0645\u0627\u0646", "name:en": "Sar loman", "place": "village"}}, {"type": "node", "id": 11235289658, "lat": 33.1311395, "lon": 67.6417812, "tags": {"name": "\u0644\u0648\u0645\u0627\u0646", "name:en": "loman", "place": "village"}}, {"type": "node", "id": 11235290585, "lat": 33.1254426, "lon": 67.5987691, "tags": {"name": "\u067e\u0627\u06cc \u062c\u0648\u0644\u06af\u0647", "name:en": "Payjolga", "place": "village"}}, {"type": "node", "id": 11235297844, "lat": 33.1277618, "lon": 67.6284931, "tags": {"name": "Choqa", "name:fa": "\u0686\u0648\u0642\u0627", "place": "village"}}, {"type": "node", "id": 11235297846, "lat": 33.1404958, "lon": 67.598824, "tags": {"name": "Dalkhak", "name:fa": "\u062f\u0644\u062e\u06a9", "place": "village"}}, {"type": "node", "id": 11235309420, "lat": 33.1278944, "lon": 67.5574539, "tags": {"name": "Busid(Muhajirin)", "name:fa": "\u0628\u0648\u0635\u06cc\u062f (\u0645\u0647\u0627\u062c\u0631\u06cc\u0646)", "place": "village"}}, {"type": "node", "id": 11235311592, "lat": 33.1679025, "lon": 67.5366581, "tags": {"name": "Sepaya", "name:fa": "\u0633\u067e\u0627\u06cc\u0647", "place": "village"}}, {"type": "node", "id": 11235377450, "lat": 33.2801189, "lon": 67.7724741, "tags": {"name": "\u0646\u06cc \u0642\u0644\u0639\u0647", "name:en": "Nai Qala", "place": "village"}}, {"type": "node", "id": 11235465207, "lat": 33.099035, "lon": 67.61206, "tags": {"name": "Kohnadeh", "name:fa": "\u06a9\u0647\u0646\u0647 \u062f\u0647", "place": "village"}}, {"type": "node", "id": 11235476662, "lat": 33.0989716, "lon": 67.5717114, "tags": {"name": "\u0642\u0648\u063a\u0630\u0627\u0631", "name:en": "Qawghozar", "place": "village"}}, {"type": "node", "id": 11235481129, "lat": 33.1059437, "lon": 67.5676116, "tags": {"name": "Shahrak Ghazibin", "name:fa": "\u0634\u0647\u0631\u06a9 \u063a\u0627\u0635\u0628\u06cc\u0646", "place": "village"}}, {"type": "node", "id": 11235482031, "lat": 33.0136055, "lon": 67.5721704, "tags": {"name": "\u0627\u0634\u06a9\u0647", "name:en": "Ashka", "place": "village"}}, {"type": "node", "id": 11235486215, "lat": 33.1015537, "lon": 67.5247088, "tags": {"name": "Sabzsang Haidar", "name:fa": "\u0633\u0628\u0632 \u0633\u0646\u06af \u062d\u06cc\u062f\u0631", "place": "village"}}, {"type": "node", "id": 11235501996, "lat": 33.0965917, "lon": 67.6141823, "tags": {"name": "\u062a\u0645\u0642\u0648\u0644", "name:en": "Tamqol", "place": "village"}}, {"type": "node", "id": 11235507648, "lat": 33.0980114, "lon": 67.6409324, "tags": {"name": "\u0633\u0631\u0642\u0648\u0644", "name:en": "Sarqol", "place": "village"}}, {"type": "node", "id": 11237445620, "lat": 33.0673466, "lon": 67.5759346, "tags": {"name": "\u0645\u062c\u0631\u06cc", "name:en": "Majiri", "place": "village"}}, {"type": "node", "id": 11237563305, "lat": 33.0468068, "lon": 67.6363182, "tags": {"name": "\u0632\u06cc\u0631\u06a9", "name:en": "Zirak", "place": "village"}}, {"type": "node", "id": 11240507032, "lat": 33.0934542, "lon": 67.3751475, "tags": {"name": "\u0633\u0646\u06af \u0633\u0648\u0631\u0627\u062e", "name:en": "Sang Sorakh", "place": "village"}}, {"type": "node", "id": 11240508615, "lat": 33.0760741, "lon": 67.3423523, "tags": {"name": "\u067e\u06cc\u062f\u06af\u0647", "name:en": "Pidgah", "place": "village"}}, {"type": "node", "id": 11240517350, "lat": 33.2201303, "lon": 67.5354429, "tags": {"name": "\u0642\u0631\u0647 \u0642\u0648\u0644", "name:en": "Qarah qol", "place": "village"}}, {"type": "node", "id": 11240524263, "lat": 33.0742401, "lon": 67.3782608, "tags": {"name": "\u062e\u0631\u06a9\u0648\u0634", "name:en": "Kharkosh", "place": "village"}}, {"type": "node", "id": 11240524264, "lat": 33.0555585, "lon": 67.376637, "tags": {"name": "\u062e\u0631\u062a\u06cc\u0632\u06a9", "name:en": "Khartizak", "place": "village"}}, {"type": "node", "id": 11245388616, "lat": 33.0110518, "lon": 67.3956188, "tags": {"name": "Qifak", "name:fa": "\u0642\u06cc\u0641\u06a9", "place": "village"}}, {"type": "node", "id": 11245414974, "lat": 33.0155041, "lon": 67.4145985, "tags": {"name": "\u0628\u0648\u062f\u0644\u06cc", "name:en": "Budli", "place": "village"}}, {"type": "node", "id": 11245414975, "lat": 33.0212796, "lon": 67.4560539, "tags": {"name": "\u0635\u0648\u0628\u0647", "name:en": "Suba", "place": "village"}}, {"type": "node", "id": 11245468841, "lat": 33.0434098, "lon": 67.4410124, "tags": {"name": "\u062a\u0646\u06af\u06cc", "name:en": "Tangi", "place": "village"}}, {"type": "node", "id": 11247350312, "lat": 33.178107, "lon": 67.466832, "tags": {"name": "Chachar", "place": "village"}}, {"type": "node", "id": 11247466007, "lat": 33.2001674, "lon": 67.4587038, "tags": {"name": "\u062a\u0628\u0631\u063a\u0646\u06af", "name:en": "Tabarghang", "place": "village"}}, {"type": "node", "id": 11247563081, "lat": 33.2515154, "lon": 67.3835564, "tags": {"name": "\u0631\u06cc\u06af\u062c\u0648\u06cc", "name:en": "Regjoy", "place": "village"}}, {"type": "node", "id": 11247563149, "lat": 33.2344384, "lon": 67.3736472, "tags": {"name": "\u0627\u0644\u0645\u06cc\u062a\u0648", "name:en": "Almito", "place": "village"}}]}