{"version": 0.6, "generator": "Overpass API 0.7.61.5 4133829e", "osm3s": {"timestamp_osm_base": "2024-03-05T14:44:30Z", "copyright": "The data included in this document is from www.openstreetmap.org. The data is made available under ODbL."}, "elements": [{"type": "node", "id": 2626409388, "lat": 57.6662096, "lon": 14.9721303, "tags": {"amenity": "bank", "brand": "Swedbank", "brand:wikidata": "Q1145493", "brand:wikipedia": "sv:Swedbank", "name": "Swedbank"}}, {"type": "node", "id": 3194810666, "lat": 57.4256341, "lon": 15.0875538}, {"type": "node", "id": 3194810667, "lat": 57.4254873, "lon": 15.0876909}, {"type": "node", "id": 3194887536, "lat": 57.4253825, "lon": 15.087575}, {"type": "node", "id": 3194887537, "lat": 57.4254286, "lon": 15.0877457}, {"type": "node", "id": 3211775373, "lat": 57.4255879, "lon": 15.0873832}, {"type": "node", "id": 5055739403, "lat": 57.6164794, "lon": 15.5722645, "tags": {"amenity": "bank", "atm": "yes", "brand": "Swedbank", "brand:wikidata": "Q1145493", "brand:wikipedia": "sv:Swedbank", "name": "Swedbank"}}, {"type": "node", "id": 5838598618, "lat": 57.4271605, "lon": 15.0835953, "tags": {"addr:city": "Vetlanda", "addr:country": "SE", "addr:housenumber": "1B", "addr:postcode": "57432", "addr:street": "Stationsgatan", "amenity": "bank", "atm": "no", "bic": "NDEASESS", "branch": "Nordea Bank AB", "brand": "Nordea", "brand:wikidata": "Q1123823", "brand:wikipedia": "sv:Nordea", "name": "Nordea", "source": "local knowledge", "wheelchair": "yes"}}, {"type": "way", "id": 313493327, "nodes": [3194810667, 3194810666, 3211775373, 3194887536, 3194887537, 3194810667], "tags": {"amenity": "bank", "atm": "yes", "brand": "SEB", "brand:wikidata": "Q975655", "brand:wikipedia": "sv:Skandinaviska Enskilda Banken", "building": "yes", "building:levels": "3", "building:material": "plaster", "colour": "yellow", "name": "SEB", "operator": "SEB", "roof:colour": "green", "roof:levels": "1", "roof:material": "copper", "roof:shape": "saltbox"}}]}