{"version": 0.6, "generator": "Overpass API 0.7.61.5 4133829e", "osm3s": {"timestamp_osm_base": "2024-03-06T11:08:30Z", "copyright": "The data included in this document is from www.openstreetmap.org. The data is made available under ODbL."}, "elements": [{"type": "node", "id": 711491839, "lat": -0.2739067, "lon": 37.0103589}, {"type": "node", "id": 4578361846, "lat": -0.4680131, "lon": 36.9985716, "tags": {"amenity": "college", "name": "Kagumo Teachers Training College"}}, {"type": "node", "id": 4578468258, "lat": -0.4391873, "lon": 36.8859851, "tags": {"amenity": "college", "name": "Kinunga Youth Polytechnique"}}, {"type": "node", "id": 4581768354, "lat": -0.3918518, "lon": 36.9585083, "tags": {"addr:city": "Nyeri", "addr:street": "Nyeri-Nyahururu Highway", "amenity": "university", "name": "Kimathi University", "wikidata": "Q5249724", "wikipedia": "en:Dedan Kimathi University of Technology"}}, {"type": "node", "id": 6244083327, "lat": -0.3903902, "lon": 36.9572524}, {"type": "node", "id": 6244083328, "lat": -0.3902314, "lon": 36.9595948}, {"type": "node", "id": 6244083329, "lat": -0.3921211, "lon": 36.9611352}, {"type": "node", "id": 6244083330, "lat": -0.3929787, "lon": 36.9598012}, {"type": "node", "id": 6244083331, "lat": -0.3929945, "lon": 36.958904}, {"type": "node", "id": 6244083332, "lat": -0.3929866, "lon": 36.9573}, {"type": "node", "id": 6244083333, "lat": -0.3929072, "lon": 36.9572206}, {"type": "node", "id": 6244083339, "lat": -0.4171483, "lon": 36.9608652, "tags": {"addr:city": "Nyeri", "addr:street": "Nyeri-Nyahururu Road", "amenity": "college", "name": "Kenya Medical Training College"}}, {"type": "node", "id": 7467373084, "lat": -0.2736722, "lon": 37.0115678}, {"type": "node", "id": 7467387185, "lat": -0.2743262, "lon": 37.0116941}, {"type": "node", "id": 7467387186, "lat": -0.2747931, "lon": 37.0104198}, {"type": "node", "id": 7467387187, "lat": -0.2744141, "lon": 37.0103774}, {"type": "way", "id": 666885656, "nodes": [6244083327, 6244083328, 6244083329, 6244083330, 6244083331, 6244083332, 6244083333, 6244083327], "tags": {"amenity": "university", "name": "Dedan Kimathi"}}, {"type": "way", "id": 798390087, "nodes": [711491839, 7467373084, 7467387185, 7467387186, 7467387187, 711491839], "tags": {"amenity": "university", "name": "Kings Medical College"}}]}