{"version": 0.6, "generator": "Overpass API 0.7.61.5 4133829e", "osm3s": {"timestamp_osm_base": "2024-03-05T15:10:59Z", "copyright": "The data included in this document is from www.openstreetmap.org. The data is made available under ODbL."}, "elements": [{"type": "node", "id": 25274027, "lat": 55.7248173, "lon": 12.4377222, "tags": {"name": "Herlev", "name:de": "Herlev", "name:ka": "\u10f0\u10d4\u10e0\u10da\u10d4\u10d5\u10d8", "place": "town", "population": "26890", "wikidata": "Q3646715", "wikipedia": "da:Herlev"}}, {"type": "node", "id": 26559045, "lat": 55.8403369, "lon": 12.4287796, "tags": {"name": "Birker\u00f8d", "name:de": "Birker\u00f6d", "name:ru": "\u0411\u0438\u0440\u043a\u0435\u0440\u0451\u0434", "place": "town", "population": "20539", "population:date": "2018-01-01", "source:population": "http://www.statistikbanken.dk/BY1", "wikidata": "Q865630", "wikipedia": "da:Birker\u00f8d"}}, {"type": "node", "id": 26559063, "lat": 55.9740003, "lon": 12.4050622, "tags": {"name": "Fredensborg", "place": "town", "population": "8611", "population:date": "2018-01-01", "source:population": "http://www.statistikbanken.dk/BY1", "wikidata": "Q565436", "wikipedia": "da:Fredensborg"}}, {"type": "node", "id": 26559081, "lat": 55.783333, "lon": 12.383333, "tags": {"name": "V\u00e6rl\u00f8se", "name:de": "V\u00e6rl\u00f8se Kommune", "name:pl": "Gmina V\u00e6rl\u00f8se", "place": "town", "population": "13070", "population:date": "2018-01-01", "source:population": "http://www.statistikbanken.dk/BY1", "wikidata": "Q3171395", "wikipedia": "da:V\u00e6rl\u00f8se"}}, {"type": "node", "id": 26559157, "lat": 55.8162433, "lon": 12.3944118, "tags": {"name": "Stavnsholt", "place": "village", "population": "5658", "source": "geonames.org", "wikidata": "Q12336957", "wikipedia": "da:Stavnsholt"}}, {"type": "node", "id": 26559262, "lat": 55.8101232, "lon": 12.3702505, "tags": {"name": "Farum", "name:de": "Farum", "name:el": "\u03a6\u03ac\u03c1\u03bf\u03c5\u03bc", "name:lt": "Farumas", "name:ru": "\u0424\u0430\u0440\u0443\u043c", "name:zh": "\u6cd5\u9c81\u59c6", "place": "town", "population": "20302", "population:date": "2018-01-01", "source:population": "http://www.statistikbanken.dk/BY1", "wikidata": "Q3554742", "wikipedia": "da:Farum"}}, {"type": "node", "id": 26559288, "lat": 55.9285735, "lon": 12.3063909, "tags": {"alt_name": "Frederiksborg", "name": "Hiller\u00f8d", "name:ar": "\u0647\u064a\u0644\u064a\u0631\u0648\u062f", "name:de": "Hiller\u00f6d", "name:he": "\u05d4\u05d9\u05dc\u05e8\u05d5\u05d3", "name:id": "Munisipalitas Hiller\u00f8d", "name:ja": "\u30d2\u30ec\u30ec\u30ba", "name:ka": "\u10f0\u10d8\u10da\u10d4\u10e0\u10d4\u10d3\u10d8", "name:ko": "\ud790\ub808\ub8b0\ub4dc", "name:lt": "Hileriodas", "name:mk": "\u0425\u0438\u043b\u0435\u0440\u0435\u0434", "name:nl": "Hiller\u00f8d", "name:ru": "\u0425\u0438\u043b\u043b\u0435\u0440\u0451\u0434", "name:sq": "Hillerod", "name:sr": "\u0425\u0438\u043b\u0435\u0440\u0435\u0434", "name:zh": "\u5e0c\u52d2\u52d2", "place": "town", "population": "32698", "population:date": "2018-01-01", "source:population": "http://www.statistikbanken.dk/BY1", "wikidata": "Q27425", "wikipedia": "da:Hiller\u00f8d"}}, {"type": "node", "id": 247933209, "lat": 55.7584388, "lon": 12.4063822, "tags": {"name": "Hareskovby", "place": "village", "wikidata": "Q5656925", "wikipedia": "da:Hareskovby"}}, {"type": "node", "id": 1566292714, "lat": 55.995072, "lon": 12.4373914, "tags": {"name": "Danstrup", "place": "hamlet", "population": "41"}}, {"type": "node", "id": 2603357576, "lat": 55.9177848, "lon": 12.4048049, "tags": {"census": "2013", "name": "Karlebo", "place": "village", "population": "227", "wikidata": "Q12321405", "wikipedia": "da:Karlebo"}}, {"type": "node", "id": 2603507785, "lat": 55.8707776, "lon": 12.3556762, "tags": {"loc_name": "Aller\u00f8d", "name": "Liller\u00f8d", "place": "town", "population": "16878", "population:date": "2018-01-01", "source:population": "http://www.statistikbanken.dk/BY1", "wikidata": "Q656234", "wikipedia": "da:Liller\u00f8d"}}, {"type": "node", "id": 2760113733, "lat": 55.9080096, "lon": 12.4470137, "tags": {"name": "Fredtofte", "place": "hamlet", "population": "26"}}, {"type": "node", "id": 2760115587, "lat": 55.9016419, "lon": 12.4241608, "tags": {"name": "Gunder\u00f8d", "place": "hamlet", "population": "50"}}, {"type": "node", "id": 2760116296, "lat": 55.9180541, "lon": 12.4355579, "tags": {"name": "Avder\u00f8d", "place": "hamlet", "population": "107"}}, {"type": "node", "id": 2930772811, "lat": 55.8465697, "lon": 12.3834429, "tags": {"name": "S\u00f8nderskov", "place": "hamlet", "population": "40"}}, {"type": "node", "id": 2930772812, "lat": 55.8451783, "lon": 12.3783548, "tags": {"name": "Tivoli", "place": "hamlet", "population": "8"}}, {"type": "node", "id": 2937715417, "lat": 55.8911469, "lon": 12.3292726, "tags": {"name": "B\u00f8rstinger\u00f8d", "place": "hamlet", "population": "24"}}, {"type": "node", "id": 2937715420, "lat": 55.8959184, "lon": 12.3292136, "tags": {"name": "Hammersholt", "place": "hamlet", "population": "112"}}, {"type": "node", "id": 2937715421, "lat": 55.9000321, "lon": 12.3352057, "tags": {"name": "Teglv\u00e6rkshuse", "place": "hamlet", "population": "13"}}, {"type": "node", "id": 2937717754, "lat": 55.8968605, "lon": 12.3500946, "tags": {"name": "Buskehuse", "place": "hamlet", "population": "11"}}, {"type": "node", "id": 2937724052, "lat": 55.9005065, "lon": 12.3814523, "tags": {"name": "Kirkelte", "place": "hamlet", "population": "182"}}, {"type": "node", "id": 2937728158, "lat": 55.893102, "lon": 12.4188869, "tags": {"name": "Donse", "place": "hamlet", "population": "15"}}, {"type": "node", "id": 2937731832, "lat": 55.9102171, "lon": 12.4179733, "tags": {"name": "Lille Gunder\u00f8d", "place": "hamlet", "population": "20"}}, {"type": "node", "id": 2937733432, "lat": 55.9303636, "lon": 12.4385566, "tags": {"name": "Hesselr\u00f8d", "place": "hamlet", "population": "49"}}, {"type": "node", "id": 2937733560, "lat": 55.896644, "lon": 12.4520293, "tags": {"name": "Sk\u00f8rb\u00e6k", "place": "hamlet", "population": "8"}}, {"type": "node", "id": 2937734107, "lat": 55.9490384, "lon": 12.4065176, "tags": {"name": "Trehuse", "place": "hamlet", "population": "15"}}, {"type": "node", "id": 2937734551, "lat": 55.9270638, "lon": 12.4643755, "tags": {"name": "Vejenbr\u00f8d", "place": "hamlet", "population": "174"}}, {"type": "node", "id": 2937735958, "lat": 55.9451344, "lon": 12.3856422, "tags": {"name": "Gr\u00f8nholt", "place": "hamlet", "population": "94"}}, {"type": "node", "id": 2937737979, "lat": 55.9492847, "lon": 12.4216828, "tags": {"name": "Sk\u00e6rem\u00f8lle", "place": "hamlet", "population": "25"}}, {"type": "node", "id": 2937738464, "lat": 55.9577435, "lon": 12.4394029, "tags": {"name": "Roland", "place": "hamlet", "population": "9"}}, {"type": "node", "id": 2937741404, "lat": 55.9672996, "lon": 12.464413, "tags": {"name": "S\u00f8holm", "place": "hamlet", "population": "36"}}, {"type": "node", "id": 2937758893, "lat": 55.9848441, "lon": 12.4569326, "tags": {"name": "Langer\u00f8d", "place": "hamlet", "population": "61"}}, {"type": "node", "id": 2937764667, "lat": 55.9842529, "lon": 12.4271646, "tags": {"name": "Veksebo", "place": "hamlet", "population": "160"}}, {"type": "node", "id": 2937796639, "lat": 55.8535812, "lon": 12.4620627, "tags": {"name": "Birkehave", "place": "hamlet", "population": "10"}}, {"type": "node", "id": 2937800257, "lat": 55.8814744, "lon": 12.4629378, "tags": {"name": "Gr\u00f8nnegade", "place": "hamlet", "population": "86"}}, {"type": "node", "id": 2940205351, "lat": 55.8555904, "lon": 12.3760477, "tags": {"name": "Teglv\u00e6rkshuse", "place": "hamlet", "population": "11"}}, {"type": "node", "id": 2940205484, "lat": 55.8334243, "lon": 12.3701978, "tags": {"name": "Bregner\u00f8d", "place": "hamlet", "population": "134"}}, {"type": "node", "id": 2940207240, "lat": 55.8501575, "lon": 12.3641521, "tags": {"name": "Ravnsholt", "place": "hamlet", "population": "12"}}, {"type": "node", "id": 2940207402, "lat": 55.8460269, "lon": 12.3650262, "tags": {"name": "Rolighed", "place": "hamlet", "population": "7"}}, {"type": "node", "id": 2940207674, "lat": 55.8532207, "lon": 12.3675129, "tags": {"name": "Kattehale", "place": "hamlet", "population": "16"}}, {"type": "node", "id": 2940208901, "lat": 55.8507786, "lon": 12.3855883, "tags": {"name": "Mosehusene", "place": "hamlet", "population": "17"}}, {"type": "node", "id": 2940277083, "lat": 55.9523806, "lon": 12.3607993, "tags": {"name": "Hjortelund", "place": "hamlet", "population": "18"}}, {"type": "node", "id": 2940282556, "lat": 55.9641583, "lon": 12.3516262, "tags": {"name": "Stenholtsvang", "place": "hamlet", "population": "6"}}, {"type": "node", "id": 2940288876, "lat": 55.8362094, "lon": 12.4507767, "tags": {"name": "Skovr\u00f8d Huse", "place": "hamlet", "population": "51"}}, {"type": "node", "id": 2940288881, "lat": 55.7801979, "lon": 12.4047285, "tags": {"name": "Kollekolle", "place": "hamlet", "population": "9"}}, {"type": "node", "id": 2940290804, "lat": 55.7816948, "lon": 12.4481758, "tags": {"name": "Frederiksdal", "place": "hamlet", "population": "44"}}, {"type": "node", "id": 2940292019, "lat": 55.7753865, "lon": 12.4609289, "tags": {"name": "Ny Frederiksdal", "place": "hamlet", "population": "22"}}, {"type": "node", "id": 3208649543, "lat": 55.8729424, "lon": 12.428745, "tags": {"name": "Sj\u00e6lsmark", "place": "hamlet", "population": "31"}}, {"type": "node", "id": 4059354661, "lat": 55.82623, "lon": 12.4597723, "tags": {"name": "Rudeg\u00e5rd", "place": "village"}}, {"type": "node", "id": 8270226194, "lat": 55.9919967, "lon": 12.2713047, "tags": {"name": "Allikebakke", "place": "hamlet"}}, {"type": "node", "id": 9348214657, "lat": 55.8678298, "lon": 12.3869272, "tags": {"name": "Blovstr\u00f8d", "place": "village", "population": "2195", "wikidata": "Q3054896", "wikipedia": "da:Blovstr\u00f8d"}}, {"type": "node", "id": 9758760632, "lat": 55.8531513, "lon": 12.3926047, "tags": {"name": "H\u00f8velte", "place": "hamlet"}}, {"type": "node", "id": 10292867721, "lat": 55.9648187, "lon": 12.2831994, "tags": {"census": "2013", "name": "Gadevang", "place": "village", "population": "1100", "wikidata": "Q2251710", "wikipedia": "da:Gadevang"}}, {"type": "node", "id": 10292867723, "lat": 55.9795052, "lon": 12.34605, "tags": {"census": "2013", "name": "N\u00f8debo", "place": "village", "population": "1985", "wikidata": "Q1946281", "wikipedia": "da:N\u00f8debo"}}, {"type": "node", "id": 10292867725, "lat": 55.9069173, "lon": 12.332857, "tags": {"census": "2013", "name": "Ny Hammersholt", "place": "village", "population": "1349", "wikidata": "Q3117143", "wikipedia": "da:Ny Hammersholt"}}, {"type": "node", "id": 10292944244, "lat": 55.9446386, "lon": 12.4232574, "tags": {"name": "L\u00f8nholt", "place": "hamlet", "population": "115"}}, {"type": "node", "id": 10292944245, "lat": 55.9711585, "lon": 12.3732735, "tags": {"census": "2013", "name": "S\u00f8rup", "place": "village", "population": "562", "wikidata": "Q2441798", "wikipedia": "da:S\u00f8rup (Fredensborg Kommune)"}}, {"type": "node", "id": 10310406176, "lat": 55.8465726, "lon": 12.463242, "tags": {"name": "Ebber\u00f8d", "place": "hamlet", "wikidata": "Q12309319", "wikipedia": "da:Ebber\u00f8d"}}, {"type": "node", "id": 10310406177, "lat": 55.8614119, "lon": 12.4573927, "tags": {"name": "Ravnsn\u00e6s", "place": "village", "population": "615", "wikidata": "Q7296818", "wikipedia": "da:Ravnsn\u00e6s"}}, {"type": "node", "id": 11298628664, "lat": 55.8791099, "lon": 12.412692, "tags": {"name": "Kettinge", "place": "hamlet"}}]}