{"version": 0.6, "generator": "Overpass API 0.7.61.5 4133829e", "osm3s": {"timestamp_osm_base": "2024-03-06T11:46:14Z", "copyright": "The data included in this document is from www.openstreetmap.org. The data is made available under ODbL."}, "elements": [{"type": "node", "id": 1815646872, "lat": 3.613111, "lon": 34.5968997, "tags": {"name": "Kaboladi", "place": "hamlet"}}, {"type": "node", "id": 3289936000, "lat": 3.5297087, "lon": 34.6363786, "tags": {"name": "Loreng", "place": "hamlet"}}, {"type": "node", "id": 10201140743, "lat": 3.5235368, "lon": 34.4140095, "tags": {"is_in:country_code": "UG", "name": "Special Area", "place": "village", "source": "Ubos 2014"}}, {"type": "node", "id": 10201140746, "lat": 3.5879802, "lon": 34.3656283, "tags": {"is_in:country_code": "UG", "name": "Kanaro", "place": "village", "source": "Ubos 2014"}}, {"type": "node", "id": 10201152546, "lat": 3.6618601, "lon": 34.3839813, "tags": {"is_in:country_code": "UG", "name": "Kaikoba", "place": "village", "source": "Ubos 2014"}}, {"type": "node", "id": 10201152547, "lat": 3.6448321, "lon": 34.4137584, "tags": {"is_in:country_code": "UG", "name": "Kanaro", "place": "village", "source": "Ubos 2014"}}, {"type": "node", "id": 10201152548, "lat": 3.670343, "lon": 34.3769615, "tags": {"is_in:country_code": "UG", "name": "Lokitoe", "place": "village", "source": "Ubos 2014"}}, {"type": "node", "id": 10201152549, "lat": 3.6982354, "lon": 34.3580349, "tags": {"is_in:country_code": "UG", "name": "Lopokok", "place": "village", "source": "Ubos 2014"}}, {"type": "node", "id": 10867682368, "lat": 3.7433527, "lon": 34.7537977, "tags": {"name": "Kalobeyei Camp 3", "place": "village"}}]}