{"version": 0.6, "generator": "Overpass API 0.7.61.5 4133829e", "osm3s": {"timestamp_osm_base": "2024-03-05T13:42:00Z", "copyright": "The data included in this document is from www.openstreetmap.org. The data is made available under ODbL."}, "elements": [{"type": "node", "id": 7557522326, "lat": 30.7771048, "lon": 67.3079383, "tags": {"place": "village"}}, {"type": "node", "id": 7557522376, "lat": 30.7972404, "lon": 67.2885654, "tags": {"place": "village"}}, {"type": "node", "id": 7557534819, "lat": 30.8188712, "lon": 67.2733087, "tags": {"place": "village"}}, {"type": "node", "id": 7557538470, "lat": 30.8155071, "lon": 67.2887096, "tags": {"name": "\u0628\u0631\u0634\u0648\u0631", "name:bal": "\u0628\u0631\u0634\u06cf\u0631", "name:en": "Barshore", "name:ps": "\u0628\u0631\u069a\u0648\u0631", "name:ur": "\u0628\u0631\u0634\u0648\u0631", "place": "village"}}, {"type": "node", "id": 7557545111, "lat": 30.8249303, "lon": 67.2502343, "tags": {"place": "village"}}, {"type": "node", "id": 7557550000, "lat": 30.8508812, "lon": 67.2232029, "tags": {"place": "village"}}, {"type": "node", "id": 7557556254, "lat": 30.8259341, "lon": 67.315773, "tags": {"name": "Pagman", "place": "village"}}, {"type": "node", "id": 7557556255, "lat": 30.9060659, "lon": 67.3611335, "tags": {"name": "Ziaba", "place": "village"}}]}