{"version": 0.6, "generator": "Overpass API 0.7.61.5 4133829e", "osm3s": {"timestamp_osm_base": "2024-03-05T15:11:59Z", "copyright": "The data included in this document is from www.openstreetmap.org. The data is made available under ODbL."}, "elements": [{"type": "node", "id": 27537743, "lat": 59.1245738, "lon": 11.3877319, "tags": {"name": "Halden", "name:ru": "\u0425\u0430\u043b\u0434\u0435\u043d", "place": "town", "population": "26126", "population:date": "2023-01-01", "ref:ssb_tettsted": "0001", "source:population": "SSB - befolkning i tettstedet", "ssr:stedsnr": "245734", "wikidata": "Q11494262", "wikipedia": "sv:Halden"}}, {"type": "node", "id": 31264088, "lat": 59.2133614, "lon": 10.9361604, "tags": {"name": "Fredrikstad", "name:ru": "\u0424\u0440\u0435\u0434\u0440\u0438\u043a\u0441\u0442\u0430\u0434", "place": "city", "population": "70700", "population:date": "2023-01-01", "ref:ssb_tettsted": "0022-3004", "source:population": "SSB - befolkning i tettstedet", "ssr:stedsnr": "365324", "wikidata": "Q107135", "wikipedia": "en:Fredrikstad"}}, {"type": "node", "id": 31264130, "lat": 59.2838792, "lon": 11.1096115, "tags": {"name": "Sarpsborg", "name:ru": "\u0421\u0430\u0440\u043f\u0441\u0431\u043e\u0440\u0433", "place": "city", "population": "49632", "population:date": "2023-01-01", "ref:ssb_tettsted": "0022-3003", "source:population": "SSB - befolkning i tettstedet", "ssr:stedsnr": "487975", "wikidata": "Q10661956", "wikipedia": "nn:Sarpsborg"}}, {"type": "node", "id": 31775454, "lat": 59.2118594, "lon": 11.1904753, "tags": {"name": "Skjeberg", "place": "village", "population": "1579", "population:date": "2023-01-01", "ref:ssb_tettsted": "0071", "source:population": "SSB - befolkning i tettstedet", "ssr:stedsnr": "730888", "wikidata": "Q1988168"}}, {"type": "node", "id": 31802357, "lat": 59.0747983, "lon": 10.8915807, "tags": {"created_by": "JOSM", "name": "Kjelvika", "place": "hamlet"}}, {"type": "node", "id": 31802373, "lat": 59.0772671, "lon": 10.8892253, "tags": {"created_by": "JOSM", "name": "Sauevika", "place": "hamlet"}}, {"type": "node", "id": 31871846, "lat": 59.4335862, "lon": 11.1012009, "tags": {"created_by": "JOSM", "name": "Nordby", "place": "hamlet"}}, {"type": "node", "id": 31872088, "lat": 59.423722, "lon": 11.0165754, "tags": {"name": "Svinndal", "place": "village", "population": "588", "population:date": "2023-01-01", "ref:ssb_tettsted": "0213", "source:population": "SSB - befolkning i tettstedet", "ssr:stedsnr": "448847"}}, {"type": "node", "id": 32557367, "lat": 59.2659833, "lon": 11.0349667, "tags": {"name": "Gre\u00e5ker", "place": "village", "ssr:stedsnr": "913119", "wikidata": "Q5608525"}}, {"type": "node", "id": 32557371, "lat": 59.3135847, "lon": 11.0496499, "tags": {"name": "Kalnes", "place": "hamlet"}}, {"type": "node", "id": 32557995, "lat": 59.2910518, "lon": 11.0244547, "tags": {"name": "Vister", "place": "hamlet"}}, {"type": "node", "id": 32557997, "lat": 59.3093023, "lon": 11.0094027, "tags": {"name": "Eid", "place": "hamlet"}}, {"type": "node", "id": 252588891, "lat": 59.1145948, "lon": 11.308589, "tags": {"name": "Isebakke", "place": "village", "population": "865", "population:date": "2023-01-01", "ref:ssb_tettsted": "0003", "source:population": "SSB - befolkning i tettstedet", "ssr:stedsnr": "730869"}}, {"type": "node", "id": 253146570, "lat": 59.0925855, "lon": 11.2300504, "tags": {"alt_name": "Sponviken", "name": "Sponvika", "place": "village", "population": "525", "population:date": "2023-01-01", "ref:ssb_tettsted": "0002", "source:population": "SSB - befolkning i tettstedet", "ssr:stedsnr": "305201"}}, {"type": "node", "id": 254380968, "lat": 59.3517216, "lon": 10.8723765, "tags": {"name": "Karlshus", "old_name": "R\u00e5de", "place": "village", "population": "2987", "population:date": "2023-01-01", "ref:ssb_tettsted": "0193", "source:population": "SSB - befolkning i tettstedet", "ssr:stedsnr": "391341"}}, {"type": "node", "id": 256838359, "lat": 59.3275445, "lon": 10.9566279, "tags": {"created_by": "JOSM", "name": "Solli", "place": "hamlet"}}, {"type": "node", "id": 261737175, "lat": 59.3339486, "lon": 10.8078232, "tags": {"name": "Hauga", "place": "hamlet"}}, {"type": "node", "id": 262128814, "lat": 59.3497656, "lon": 10.8266137, "tags": {"created_by": "JOSM", "name": "Burum", "place": "hamlet"}}, {"type": "node", "id": 267000093, "lat": 59.1618556, "lon": 11.0940278, "tags": {"alt_name": "Thors\u00f8 herreg\u00e5rd;Thors\u00f8;Tose", "name": "Tors\u00f8 herreg\u00e5rd", "place": "hamlet", "ssr:stedsnr": "131966"}}, {"type": "node", "id": 267968017, "lat": 59.1045436, "lon": 10.8433904, "tags": {"name": "Papperhavn", "place": "hamlet"}}, {"type": "node", "id": 281329187, "lat": 59.2710902, "lon": 10.7461669, "tags": {"name": "Lervik", "place": "village", "population": "3357", "population:date": "2023-01-01", "ref:ssb_tettsted": "0185", "source:population": "SSB - befolkning i tettstedet", "ssr:stedsnr": "609102"}}, {"type": "node", "id": 281329188, "lat": 59.2904353, "lon": 10.7548338, "tags": {"name": "Saltnes", "place": "village", "ssr:stedsnr": "853401", "wikidata": "Q2275745"}}, {"type": "node", "id": 281329199, "lat": 59.2527167, "lon": 10.7381722, "tags": {"name": "Engelsviken", "place": "village", "ssr:stedsnr": "487529"}}, {"type": "node", "id": 281387408, "lat": 59.2974226, "lon": 10.7672543, "tags": {"name": "Spetalen", "place": "village", "population": "2333", "population:date": "2023-01-01", "ref:ssb_tettsted": "0191", "source:population": "SSB - befolkning i tettstedet", "ssr:stedsnr": "631201", "wikidata": "Q10674864"}}, {"type": "node", "id": 281387409, "lat": 59.319384, "lon": 10.8051479, "tags": {"alt_name": "Tom", "name": "Tomb", "place": "village", "population": "281", "population:date": "2023-01-01", "ref:ssb_tettsted": "0195", "source:population": "SSB - befolkning i tettstedet", "ssr:stedsnr": "913431"}}, {"type": "node", "id": 314969204, "lat": 59.3518806, "lon": 11.132075, "tags": {"name": "Kolstad", "place": "hamlet", "ssr:stedsnr": "3745"}}, {"type": "node", "id": 449362328, "lat": 59.2127167, "lon": 11.000875, "tags": {"name": "Begby", "place": "village", "ssr:stedsnr": "851283"}}, {"type": "node", "id": 449383834, "lat": 59.2296472, "lon": 10.9913833, "tags": {"loc_name": "Sellbakk;Selbak", "name": "Sellebakk", "place": "village", "ssr:stedsnr": "790260"}}, {"type": "node", "id": 449383837, "lat": 59.2436639, "lon": 11.0226417, "tags": {"name": "Torp", "place": "village", "ssr:stedsnr": "244529"}}, {"type": "node", "id": 449383842, "lat": 59.2182472, "lon": 10.9063889, "tags": {"name": "Gressvik", "place": "village", "ssr:stedsnr": "183268"}}, {"type": "node", "id": 451179609, "lat": 59.1793861, "lon": 11.0263861, "tags": {"name": "Nes", "place": "hamlet", "ssr:stedsnr": "790354"}}, {"type": "node", "id": 452214313, "lat": 59.2153331, "lon": 11.074137, "tags": {"alt_name": "Skivika;Skj\u00e6rviken", "name": "Skj\u00e6rvika", "old_name": "Skiviken", "place": "village", "population": "1064", "population:date": "2023-01-01", "ref:ssb_tettsted": "0051", "source:population": "SSB - befolkning i tettstedet", "ssr:stedsnr": "305322"}}, {"type": "node", "id": 688440386, "lat": 59.2201038, "lon": 10.7949319}, {"type": "node", "id": 688441542, "lat": 59.2203864, "lon": 10.7946683}, {"type": "node", "id": 695513884, "lat": 59.2164194, "lon": 10.8412861, "tags": {"name": "Solbrekke", "place": "hamlet", "ssr:stedsnr": "297834"}}, {"type": "node", "id": 759540180, "lat": 59.1028525, "lon": 10.8719676, "tags": {"alt_name": "Vester\u00f8y", "name": "Hauge", "place": "village", "population": "404", "population:date": "2023-01-01", "ref:ssb_tettsted": "0043", "source:population": "SSB - befolkning i tettstedet"}}, {"type": "node", "id": 759543646, "lat": 59.0742332, "lon": 10.9422182, "tags": {"name": "R\u00f8d", "place": "village", "population": "707", "population:date": "2023-01-01", "ref:ssb_tettsted": "0042", "source:population": "SSB - befolkning i tettstedet"}}, {"type": "node", "id": 822313998, "lat": 59.095683, "lon": 11.2705591, "tags": {"name": "Svinesund", "place": "hamlet"}}, {"type": "node", "id": 910418673, "lat": 59.1809914, "lon": 11.0963121}, {"type": "node", "id": 910418678, "lat": 59.194705, "lon": 11.0741776}, {"type": "node", "id": 910418679, "lat": 59.1543541, "lon": 11.1132176}, {"type": "node", "id": 910418691, "lat": 59.1833774, "lon": 11.0851025}, {"type": "node", "id": 910418694, "lat": 59.1998421, "lon": 11.0731751}, {"type": "node", "id": 910418696, "lat": 59.1974786, "lon": 11.07413}, {"type": "node", "id": 910418698, "lat": 59.1276452, "lon": 11.0269326}, {"type": "node", "id": 910418699, "lat": 59.1559173, "lon": 11.1622396}, {"type": "node", "id": 910418700, "lat": 59.188841, "lon": 11.0778695}, {"type": "node", "id": 910418701, "lat": 59.195549, "lon": 11.1439225}, {"type": "node", "id": 910418702, "lat": 59.209474, "lon": 11.0711316}, {"type": "node", "id": 910418703, "lat": 59.1888055, "lon": 11.1588657}, {"type": "node", "id": 910418714, "lat": 59.1802897, "lon": 10.999381}, {"type": "node", "id": 910418716, "lat": 59.1205361, "lon": 11.0804982}, {"type": "node", "id": 910418719, "lat": 59.1598754, "lon": 11.1161511}, {"type": "node", "id": 910418722, "lat": 59.1636714, "lon": 11.1692707}, {"type": "node", "id": 910418724, "lat": 59.2109061, "lon": 11.0422219}, {"type": "node", "id": 910418725, "lat": 59.1327902, "lon": 11.1101021}, {"type": "node", "id": 910418726, "lat": 59.153886, "lon": 11.1435465}, {"type": "node", "id": 910418727, "lat": 59.1616704, "lon": 11.1155782}, {"type": "node", "id": 910418728, "lat": 59.1472708, "lon": 11.1338323}, {"type": "node", "id": 910418745, "lat": 59.19125, "lon": 11.0778551}, {"type": "node", "id": 910418747, "lat": 59.1484835, "lon": 11.1180988}, {"type": "node", "id": 910418749, "lat": 59.1404044, "lon": 11.1182581}, {"type": "node", "id": 910418751, "lat": 59.1630554, "lon": 11.1099996}, {"type": "node", "id": 910418752, "lat": 59.193087, "lon": 11.0755087}, {"type": "node", "id": 910418753, "lat": 59.2115484, "lon": 11.1341278}, {"type": "node", "id": 1104463957, "lat": 59.2264408, "lon": 10.8038442}, {"type": "node", "id": 1104477840, "lat": 59.2256261, "lon": 10.8022371}, {"type": "node", "id": 1104477841, "lat": 59.2234466, "lon": 10.7947754}, {"type": "node", "id": 1104477842, "lat": 59.2265128, "lon": 10.7986363}, {"type": "node", "id": 1104477843, "lat": 59.214377, "lon": 10.7941553}, {"type": "node", "id": 1104477844, "lat": 59.2156096, "lon": 10.7913331}, {"type": "node", "id": 1104477845, "lat": 59.2118696, "lon": 10.7948023}, {"type": "node", "id": 1104477846, "lat": 59.222238, "lon": 10.7900149}, {"type": "node", "id": 1104477849, "lat": 59.2252883, "lon": 10.8018284}, {"type": "node", "id": 1104477852, "lat": 59.2159777, "lon": 10.792725}, {"type": "node", "id": 1104477853, "lat": 59.2258679, "lon": 10.8036108}, {"type": "node", "id": 1104477854, "lat": 59.2128816, "lon": 10.7937455}, {"type": "node", "id": 1104477855, "lat": 59.2225737, "lon": 10.7886612}, {"type": "node", "id": 1104477856, "lat": 59.2230585, "lon": 10.7965298}, {"type": "node", "id": 1104477858, "lat": 59.2274087, "lon": 10.8031556}, {"type": "node", "id": 1104477861, "lat": 59.2239881, "lon": 10.7989821}, {"type": "node", "id": 1104477868, "lat": 59.2191659, "lon": 10.785351}, {"type": "node", "id": 1104477869, "lat": 59.222744, "lon": 10.786836}, {"type": "node", "id": 1104477871, "lat": 59.2279496, "lon": 10.8027078}, {"type": "node", "id": 1104477873, "lat": 59.2238682, "lon": 10.7981125}, {"type": "node", "id": 1104477876, "lat": 59.2186728, "lon": 10.7889948}, {"type": "node", "id": 1104477879, "lat": 59.2234207, "lon": 10.7926357}, {"type": "node", "id": 1104477882, "lat": 59.2210485, "lon": 10.7848566}, {"type": "node", "id": 1104477890, "lat": 59.2237215, "lon": 10.7956511}, {"type": "node", "id": 1104477892, "lat": 59.2267037, "lon": 10.799678}, {"type": "node", "id": 1104477894, "lat": 59.2175566, "lon": 10.7913415}, {"type": "node", "id": 1104477895, "lat": 59.2224179, "lon": 10.7896328}, {"type": "node", "id": 1104477897, "lat": 59.2195443, "lon": 10.7940145}, {"type": "node", "id": 1104477902, "lat": 59.223127, "lon": 10.7931929}, {"type": "node", "id": 1104477904, "lat": 59.2261354, "lon": 10.7995611}, {"type": "node", "id": 1104477911, "lat": 59.2153813, "lon": 10.7926454}, {"type": "node", "id": 1104477912, "lat": 59.2261368, "lon": 10.8035686}, {"type": "node", "id": 1104477914, "lat": 59.2136391, "lon": 10.7936417}, {"type": "node", "id": 1104477916, "lat": 59.2220696, "lon": 10.7885716}, {"type": "node", "id": 1104477918, "lat": 59.2225488, "lon": 10.7960287}, {"type": "node", "id": 1104477919, "lat": 59.2268359, "lon": 10.8031183}, {"type": "node", "id": 1104477921, "lat": 59.2249351, "lon": 10.8009026}, {"type": "node", "id": 1104477931, "lat": 59.2172757, "lon": 10.7929354}, {"type": "node", "id": 1104477933, "lat": 59.2254376, "lon": 10.802449}, {"type": "node", "id": 1104477935, "lat": 59.2120784, "lon": 10.7950956}, {"type": "node", "id": 1104477937, "lat": 59.2223802, "lon": 10.7877158}, {"type": "node", "id": 1104477939, "lat": 59.2239679, "lon": 10.7979288}, {"type": "node", "id": 1104477941, "lat": 59.2275805, "lon": 10.8021854}, {"type": "node", "id": 1104477942, "lat": 59.2243412, "lon": 10.7985381}, {"type": "node", "id": 1104477944, "lat": 59.2189063, "lon": 10.7877303}, {"type": "node", "id": 1104477953, "lat": 59.2216036, "lon": 10.7856427}, {"type": "node", "id": 1104477955, "lat": 59.2237914, "lon": 10.7960264}, {"type": "node", "id": 1104477957, "lat": 59.2276914, "lon": 10.8005048}, {"type": "node", "id": 1104477959, "lat": 59.2175426, "lon": 10.7906687}, {"type": "node", "id": 1104477960, "lat": 59.2227333, "lon": 10.7901066}, {"type": "node", "id": 1104477962, "lat": 59.2186729, "lon": 10.7933973}, {"type": "node", "id": 1104477964, "lat": 59.2198177, "lon": 10.7844753}, {"type": "node", "id": 1104477965, "lat": 59.2254486, "lon": 10.8015883}, {"type": "node", "id": 1104477978, "lat": 59.2235586, "lon": 10.7942878}, {"type": "node", "id": 1104477979, "lat": 59.2262025, "lon": 10.7986829}, {"type": "node", "id": 1104477980, "lat": 59.2149265, "lon": 10.7935759}, {"type": "node", "id": 1104477982, "lat": 59.2152873, "lon": 10.7914897}, {"type": "node", "id": 1104477984, "lat": 59.2219372, "lon": 10.789089}, {"type": "node", "id": 1104477986, "lat": 59.2205954, "lon": 10.7937606}, {"type": "node", "id": 1104477988, "lat": 59.2265623, "lon": 10.8028819}, {"type": "node", "id": 1104478002, "lat": 59.225434, "lon": 10.7995592}, {"type": "node", "id": 1104478003, "lat": 59.2166155, "lon": 10.7925599}, {"type": "node", "id": 1104478004, "lat": 59.225652, "lon": 10.8033188}, {"type": "node", "id": 1104478006, "lat": 59.2129885, "lon": 10.7943874}, {"type": "node", "id": 1104478008, "lat": 59.2226552, "lon": 10.7880641}, {"type": "node", "id": 1104478009, "lat": 59.2232866, "lon": 10.797501}, {"type": "node", "id": 1104478012, "lat": 59.2278669, "lon": 10.8034168}, {"type": "node", "id": 1104478013, "lat": 59.2240593, "lon": 10.7987532}, {"type": "node", "id": 1104478029, "lat": 59.2191931, "lon": 10.7873992}, {"type": "node", "id": 1104478030, "lat": 59.2223379, "lon": 10.7849997}, {"type": "node", "id": 1104478031, "lat": 59.2236016, "lon": 10.7969642}, {"type": "node", "id": 1104478032, "lat": 59.227548, "lon": 10.8017751}, {"type": "node", "id": 1104478034, "lat": 59.2179403, "lon": 10.7892609}, {"type": "node", "id": 1104478036, "lat": 59.222775, "lon": 10.7906365}, {"type": "node", "id": 1104478038, "lat": 59.2182401, "lon": 10.7928375}, {"type": "node", "id": 1104478040, "lat": 59.2203029, "lon": 10.7843443}, {"type": "node", "id": 1104478788, "lat": 59.2176802, "lon": 10.7909844}, {"type": "node", "id": 1104478789, "lat": 59.2169787, "lon": 10.7911531}, {"type": "node", "id": 2639599776, "lat": 59.0566647, "lon": 10.9242695, "tags": {"name": "Brattest\u00f8", "place": "hamlet"}}, {"type": "node", "id": 2953746909, "lat": 59.3189972, "lon": 10.8728417, "tags": {"alt_name": "Hisingby", "name": "Hissingby", "place": "hamlet", "ssr:stedsnr": "245408"}}, {"type": "node", "id": 3701562212, "lat": 59.0452459, "lon": 11.1106769, "tags": {"name": "Mak\u00f8", "place": "hamlet"}}, {"type": "node", "id": 4339949832, "lat": 59.2778389, "lon": 10.9010611, "tags": {"name": "Fosse", "place": "hamlet", "ssr:stedsnr": "731092"}}, {"type": "node", "id": 4339951438, "lat": 59.2689605, "lon": 10.906047, "tags": {"name": "Ons\u00f8y stasjon", "place": "hamlet"}}, {"type": "node", "id": 4340757806, "lat": 59.2603167, "lon": 10.8933194, "tags": {"name": "Solg\u00e5rd", "place": "hamlet", "ssr:stedsnr": "64057"}}, {"type": "node", "id": 5422457869, "lat": 59.2932534, "lon": 10.9963394, "tags": {"name": "Rostadneset", "place": "hamlet", "population": "280", "population:date": "2023-01-01", "ref:ssb_tettsted": "0161", "source:population": "SSB - befolkning i tettstedet", "ssr:stedsnr": "270340"}}, {"type": "node", "id": 5422457872, "lat": 59.1463806, "lon": 10.9395639, "tags": {"name": "Trolldalen", "place": "village", "population": "454", "population:date": "2017-01-01", "ssr:stedsnr": "670625"}}, {"type": "node", "id": 5422457873, "lat": 59.1716572, "lon": 10.8506186, "tags": {"name": "\u00d8yenkilen", "place": "hamlet", "population": "478", "population:date": "2023-01-01", "ref:ssb_tettsted": "0181", "source:population": "SSB - befolkning i tettstedet", "ssr:stedsnr": "305697"}}, {"type": "node", "id": 5422457874, "lat": 59.1960668, "lon": 10.8251224, "tags": {"name": "Slevik", "place": "village", "population": "1110", "population:date": "2023-01-01", "ref:ssb_tettsted": "0182", "source:population": "SSB - befolkning i tettstedet", "ssr:stedsnr": "813160"}}, {"type": "node", "id": 5422457915, "lat": 59.3270234, "lon": 11.012887, "tags": {"name": "Stikka\u00e5sen", "place": "hamlet", "population": "209", "population:date": "2022-01-01", "ref:ssb_tettsted": "0013", "source:population": "SSB - befolkning i tettstedet", "wikidata": "Q1817139"}}, {"type": "node", "id": 5422457916, "lat": 59.3004709, "lon": 11.2203472, "tags": {"name": "Ise", "place": "village", "population": "734", "population:date": "2023-01-01", "ref:ssb_tettsted": "0061", "source:population": "SSB - befolkning i tettstedet", "ssr:stedsnr": "631400", "wikidata": "Q1772264"}}, {"type": "node", "id": 5422457917, "lat": 59.1916329, "lon": 11.1905161, "tags": {"name": "H\u00f8ysand", "place": "village", "population": "685", "population:date": "2023-01-01", "ref:ssb_tettsted": "0072", "source:population": "SSB - befolkning i tettstedet", "ssr:stedsnr": "486977"}}, {"type": "node", "id": 5422457918, "lat": 59.08357, "lon": 10.87749, "tags": {"name": "Bekkevika", "place": "hamlet"}}, {"type": "node", "id": 5422457919, "lat": 59.1063703, "lon": 10.9160788, "tags": {"name": "Norderhaug", "place": "hamlet", "population": "601", "population:date": "2023-01-01", "ref:ssb_tettsted": "0045", "source:population": "SSB - befolkning i tettstedet"}}, {"type": "node", "id": 5422624767, "lat": 59.1414217, "lon": 11.1864194, "tags": {"name": "Grims\u00f8y", "place": "hamlet"}}, {"type": "node", "id": 5422624771, "lat": 59.4279914, "lon": 11.3399373, "tags": {"name": "Rakkestad", "place": "town", "population": "4939", "population:date": "2023-01-01", "ref:ssb_tettsted": "0141", "source:population": "SSB - befolkning i tettstedet", "ssr:stedsnr": "305173"}}, {"type": "node", "id": 5422624773, "lat": 59.3759985, "lon": 11.1604975, "tags": {"name": "Jelsnes", "place": "village", "population": "337", "population:date": "2023-01-01", "ref:ssb_tettsted": "0151", "source:population": "SSB - befolkning i tettstedet", "wikidata": "Q2706704"}}, {"type": "node", "id": 5697268659, "lat": 59.2140704, "lon": 10.7929152, "tags": {"name": "Vikene", "place": "hamlet", "ssr:stedsnr": "237977", "ssr:type": "tettbebyggelse"}}, {"type": "node", "id": 5978737571, "lat": 59.3872417, "lon": 10.786584, "tags": {"name": "Fredskj\u00e6r", "place": "hamlet", "source": "Norgeskart"}}, {"type": "node", "id": 6079689489, "lat": 59.2538116, "lon": 11.1543867, "tags": {"name": "Klavestad", "place": "hamlet"}}, {"type": "node", "id": 6185317385, "lat": 59.1374902, "lon": 11.3266897, "tags": {"alt_name": "Berg i \u00d8stfold", "name": "Berg", "place": "village"}}, {"type": "node", "id": 6234312555, "lat": 59.1821455, "lon": 10.9237329, "tags": {"name": "Kr\u00e5ker\u00f8y", "place": "hamlet"}}, {"type": "node", "id": 6234312557, "lat": 59.3510008, "lon": 11.1903365, "tags": {"name": "Varteig", "place": "hamlet"}}, {"type": "node", "id": 6234312561, "lat": 59.4572294, "lon": 10.8030176, "tags": {"name": "Sperrebotn", "place": "hamlet"}}, {"type": "node", "id": 6235715640, "lat": 59.3071099, "lon": 10.8691263, "tags": {"name": "Kil", "place": "hamlet"}}, {"type": "node", "id": 6235715644, "lat": 59.3248667, "lon": 10.8857472, "tags": {"name": "Enebekk", "place": "hamlet", "ssr:stedsnr": "488399"}}, {"type": "node", "id": 6235715661, "lat": 59.341325, "lon": 10.774975, "tags": {"name": "Gammelsr\u00f8d", "place": "hamlet", "ssr:stedsnr": "608496"}}, {"type": "node", "id": 6235715666, "lat": 59.3158861, "lon": 10.7664972, "tags": {"name": "R\u00f8stad", "place": "hamlet", "ssr:stedsnr": "609419"}}, {"type": "node", "id": 6235715681, "lat": 59.3159333, "lon": 10.7952111, "tags": {"name": "Hestevoll", "place": "hamlet", "ssr:stedsnr": "670424"}}, {"type": "node", "id": 6235715682, "lat": 59.312779, "lon": 10.9092727, "tags": {"name": "Reklingsholm", "place": "hamlet", "ssr:stedsnr": "670425"}}, {"type": "node", "id": 6235716702, "lat": 59.3231583, "lon": 10.7627472, "tags": {"name": "Fuglevik", "place": "hamlet", "ssr:stedsnr": "791426"}}, {"type": "node", "id": 6235716705, "lat": 59.342275, "lon": 10.9140222, "tags": {"name": "Borge", "place": "hamlet", "ssr:stedsnr": "791486"}}, {"type": "node", "id": 6235716723, "lat": 59.3343139, "lon": 10.8008278, "tags": {"alt_name": "\u00c5ker", "name": "Aker", "place": "hamlet", "ssr:stedsnr": "913434"}}, {"type": "node", "id": 6235716725, "lat": 59.3467209, "lon": 10.9369866, "tags": {"name": "Missingmyr", "place": "village", "population": "970", "population:date": "2023-01-01", "ref:ssb_tettsted": "0194", "source:population": "SSB - befolkning i tettstedet", "ssr:stedsnr": "935075"}}, {"type": "node", "id": 6235716732, "lat": 59.3050556, "lon": 10.7860472, "tags": {"name": "Andersr\u00f8d", "place": "hamlet", "ssr:stedsnr": "305433"}}, {"type": "node", "id": 6235716733, "lat": 59.3339056, "lon": 10.9310917, "tags": {"name": "\u00c5keberg", "place": "hamlet", "ssr:stedsnr": "305509"}}, {"type": "node", "id": 6235716739, "lat": 59.3193111, "lon": 10.90405, "tags": {"name": "Tofteberg", "place": "hamlet", "ssr:stedsnr": "306411"}}, {"type": "node", "id": 6235716749, "lat": 59.3541534, "lon": 10.815948, "tags": {"name": "Haug", "place": "hamlet", "ssr:stedsnr": "366261"}}, {"type": "node", "id": 6235716757, "lat": 59.3079444, "lon": 10.779075, "tags": {"name": "Makrellr\u00f8d", "place": "hamlet", "ssr:stedsnr": "663496"}}, {"type": "node", "id": 6235716762, "lat": 59.3607098, "lon": 10.8226982, "tags": {"name": "Haugsten", "place": "hamlet", "ssr:stedsnr": "2272"}}, {"type": "node", "id": 6235716763, "lat": 59.3750694, "lon": 10.9226833, "tags": {"name": "Gillingsr\u00f8d", "place": "hamlet", "ssr:stedsnr": "2309"}}, {"type": "node", "id": 6235716767, "lat": 59.3435066, "lon": 10.8021973, "tags": {"name": "Norum", "place": "hamlet", "ssr:stedsnr": "2497"}}, {"type": "node", "id": 6235716782, "lat": 59.3470667, "lon": 10.8062, "tags": {"name": "Huseby", "place": "hamlet", "ssr:stedsnr": "63508"}}, {"type": "node", "id": 6235716784, "lat": 59.3460165, "lon": 10.9044638, "tags": {"name": "Lundeby", "place": "hamlet", "ssr:stedsnr": "63526"}}, {"type": "node", "id": 6235716897, "lat": 59.3575556, "lon": 10.8057833, "tags": {"name": "L\u00f8ken", "place": "hamlet", "ssr:stedsnr": "124212"}}, {"type": "node", "id": 6235716898, "lat": 59.3609138, "lon": 10.9488429, "tags": {"name": "Slangsvoll", "place": "hamlet", "ssr:stedsnr": "124214"}}, {"type": "node", "id": 6235716907, "lat": 59.3269556, "lon": 10.9131611, "tags": {"name": "Revhaug", "place": "hamlet", "ssr:stedsnr": "184459"}}, {"type": "node", "id": 6235716908, "lat": 59.3265583, "lon": 10.8751306, "tags": {"name": "Musangen", "place": "hamlet", "ssr:stedsnr": "184479"}}, {"type": "node", "id": 6235716910, "lat": 59.361075, "lon": 10.8096, "tags": {"name": "Grimstad", "place": "hamlet", "ssr:stedsnr": "185249"}}, {"type": "node", "id": 6235716927, "lat": 59.3372806, "lon": 10.7593278, "tags": {"name": "Tasken", "place": "hamlet", "ssr:stedsnr": "427478"}}, {"type": "node", "id": 6235716930, "lat": 59.34612, "lon": 10.8420826, "tags": {"name": "Kjeller\u00f8d", "place": "hamlet", "ssr:stedsnr": "482363"}}, {"type": "node", "id": 6241183684, "lat": 59.3449882, "lon": 10.9208178, "tags": {"name": "\u00c5sg\u00e5rd", "place": "hamlet"}}, {"type": "node", "id": 6241621814, "lat": 59.3564, "lon": 10.7620833, "tags": {"alt_name": "M\u00f8lvik", "name": "Molvik", "place": "hamlet", "ssr:stedsnr": "418032"}}, {"type": "node", "id": 6241621819, "lat": 59.3922583, "lon": 10.766725, "tags": {"name": "R\u00e5deskogen", "place": "hamlet", "ssr:stedsnr": "418764"}}, {"type": "node", "id": 6243755455, "lat": 59.4301722, "lon": 11.00185, "tags": {"name": "Fosseberget", "place": "hamlet", "ssr:stedsnr": "356516"}}, {"type": "node", "id": 6246504498, "lat": 59.4613246, "lon": 11.0574817, "tags": {"name": "Langr\u00f8d", "place": "hamlet"}}, {"type": "node", "id": 6246504499, "lat": 59.4362328, "lon": 11.097393, "tags": {"name": "Nordby", "place": "hamlet"}}, {"type": "node", "id": 6246504500, "lat": 59.428665, "lon": 11.0842609, "tags": {"name": "Gr\u00f8ttvet", "place": "hamlet"}}, {"type": "node", "id": 6246504501, "lat": 59.4209373, "lon": 11.0419035, "tags": {"name": "Vasstvet", "place": "hamlet"}}, {"type": "node", "id": 6246504502, "lat": 59.4439515, "lon": 10.9039092, "tags": {"name": "Ros", "place": "hamlet"}}, {"type": "node", "id": 6246504503, "lat": 59.4559271, "lon": 10.9699881, "tags": {"name": "Spj\u00f8ter", "place": "hamlet"}}, {"type": "node", "id": 6246504504, "lat": 59.4522247, "lon": 10.8926332, "tags": {"name": "Brattenga", "place": "hamlet"}}, {"type": "node", "id": 6246504505, "lat": 59.4470276, "lon": 10.8628607, "tags": {"name": "Skir\u00f8d", "place": "hamlet"}}, {"type": "node", "id": 6246504506, "lat": 59.4416934, "lon": 10.8198917, "tags": {"name": "Tover\u00f8d", "place": "hamlet"}}, {"type": "node", "id": 6246504508, "lat": 59.4410279, "lon": 10.8479369, "tags": {"name": "Bj\u00f8rner\u00f8d", "place": "hamlet"}}, {"type": "node", "id": 6246504512, "lat": 59.4500271, "lon": 11.0184288, "tags": {"name": "Sukke", "place": "hamlet"}}, {"type": "node", "id": 6246504513, "lat": 59.4277155, "lon": 10.9993315, "tags": {"name": "S\u00e6by", "place": "hamlet"}}, {"type": "node", "id": 6253542551, "lat": 59.0714583, "lon": 10.9065111, "tags": {"name": "Spj\u00e6r", "place": "hamlet", "ssr:stedsnr": "305551"}}, {"type": "node", "id": 6253542554, "lat": 59.0973278, "lon": 10.9103056, "tags": {"name": "Skjelsbu", "place": "hamlet", "ssr:stedsnr": "305598"}}, {"type": "node", "id": 6253544389, "lat": 59.07325, "lon": 11.08775, "tags": {"name": "Ed", "place": "hamlet", "ssr:stedsnr": "669527"}}, {"type": "node", "id": 6253544390, "lat": 59.0571972, "lon": 10.9355972, "tags": {"name": "Huser", "place": "hamlet", "ssr:stedsnr": "669531"}}, {"type": "node", "id": 6253544394, "lat": 59.1049972, "lon": 10.9049167, "tags": {"alt_name": "\u00d8deg\u00e5rden", "name": "\u00d8garden", "place": "hamlet", "ssr:stedsnr": "669698"}}, {"type": "node", "id": 6253544411, "lat": 59.0455611, "lon": 11.0317667, "tags": {"name": "Svanekil", "place": "hamlet", "ssr:stedsnr": "184604"}}, {"type": "node", "id": 6253544431, "lat": 59.0842194, "lon": 10.8783889, "tags": {"name": "\u00d8vre Utg\u00e5rd", "old_name": "\u00d8vre Ultg\u00e5rd", "place": "hamlet", "ssr:stedsnr": "729534"}}, {"type": "node", "id": 6253544467, "lat": 59.0611056, "lon": 10.9567972, "tags": {"name": "Skipstadsand", "place": "hamlet", "ssr:stedsnr": "851500"}}, {"type": "node", "id": 6253544468, "lat": 59.0798889, "lon": 10.87475, "tags": {"name": "Utg\u00e5rd", "place": "village", "population": "336", "population:date": "2023-01-01", "ref:ssb_tettsted": "0044", "source:population": "SSB - befolkning i tettstedet", "ssr:stedsnr": "426539"}}, {"type": "node", "id": 6253544803, "lat": 59.0931083, "lon": 10.8543472, "tags": {"name": "Vauer", "place": "hamlet", "ssr:stedsnr": "790751"}}, {"type": "node", "id": 6253544809, "lat": 59.0642306, "lon": 11.0321917, "tags": {"name": "Botne", "place": "hamlet", "ssr:stedsnr": "62519"}}, {"type": "node", "id": 6253544814, "lat": 59.0854194, "lon": 11.0335139, "tags": {"name": "Urdal", "place": "hamlet", "ssr:stedsnr": "62558"}}, {"type": "node", "id": 6253544846, "lat": 59.0721722, "lon": 11.0062972, "tags": {"name": "Korshavn", "place": "hamlet", "ssr:stedsnr": "547551"}}, {"type": "node", "id": 6253544860, "lat": 59.043625, "lon": 10.997, "tags": {"name": "R\u00f8d", "place": "hamlet", "ssr:stedsnr": "851622"}}, {"type": "node", "id": 6253545187, "lat": 59.1147972, "lon": 10.8596056, "tags": {"name": "Papper", "place": "hamlet", "ssr:stedsnr": "145167"}}, {"type": "node", "id": 6253545190, "lat": 59.0904222, "lon": 10.9161695, "tags": {"alt_name": "Djupedal", "name": "Dypedal", "place": "hamlet", "ssr:stedsnr": "162600"}}, {"type": "node", "id": 6253545197, "lat": 59.080275, "lon": 10.8547806, "tags": {"name": "Barm", "place": "hamlet", "ssr:stedsnr": "607547"}}, {"type": "node", "id": 6253545199, "lat": 59.1093361, "lon": 10.9096639, "tags": {"name": "\u00d8deg\u00e5rden", "place": "hamlet", "ssr:stedsnr": "297085"}}, {"type": "node", "id": 6253545212, "lat": 59.0383389, "lon": 10.9486889, "tags": {"name": "Viker", "place": "hamlet", "ssr:stedsnr": "608657"}}, {"type": "node", "id": 6253545230, "lat": 59.0847806, "lon": 10.9283528, "tags": {"name": "Sand", "place": "hamlet", "ssr:stedsnr": "304564"}}, {"type": "node", "id": 6253545235, "lat": 59.0955444, "lon": 10.9413889, "tags": {"alt_name": "\u00d8sta", "name": "\u00d8stad", "place": "hamlet", "ssr:stedsnr": "184546"}}, {"type": "node", "id": 6257803612, "lat": 59.4726183, "lon": 11.2742257, "tags": {"name": "Dingtorp", "place": "hamlet"}}, {"type": "node", "id": 6257803622, "lat": 59.4727194, "lon": 11.3147305, "tags": {"name": "Hen", "place": "hamlet", "ssr:stedsnr": "306009"}}, {"type": "node", "id": 6257803747, "lat": 59.4704361, "lon": 11.306825, "tags": {"name": "Melleby", "place": "hamlet", "ssr:stedsnr": "123016"}}, {"type": "node", "id": 6257803969, "lat": 59.4740972, "lon": 11.3192389, "tags": {"name": "Hen", "place": "hamlet", "ssr:stedsnr": "737829"}}, {"type": "node", "id": 6258102286, "lat": 59.4202056, "lon": 11.1343778, "tags": {"name": "Berga", "place": "hamlet", "ssr:stedsnr": "508712"}}, {"type": "node", "id": 6258102332, "lat": 59.4382278, "lon": 11.1710111, "tags": {"alt_name": "Vidnes", "name": "Vines", "place": "hamlet", "ssr:stedsnr": "670206"}}, {"type": "node", "id": 6258102403, "lat": 59.4064048, "lon": 11.1761308, "tags": {"name": "Glenne", "place": "hamlet", "ssr:stedsnr": "852149"}}, {"type": "node", "id": 6258102427, "lat": 59.4518306, "lon": 11.1384722, "tags": {"name": "Haug", "place": "hamlet", "ssr:stedsnr": "920836"}}, {"type": "node", "id": 6258102435, "lat": 59.4533741, "lon": 11.1569155, "tags": {"name": "\u00c5mot", "place": "hamlet", "ssr:stedsnr": "933957"}}, {"type": "node", "id": 6259985781, "lat": 59.4367074, "lon": 11.3146841, "tags": {"name": "Hol\u00f8s", "place": "hamlet"}}, {"type": "node", "id": 6259985782, "lat": 59.4508887, "lon": 11.2392068, "tags": {"name": "Os", "place": "hamlet"}}, {"type": "node", "id": 6259985899, "lat": 59.3973028, "lon": 11.3439722, "tags": {"name": "\u00c5storp", "place": "hamlet", "ssr:stedsnr": "306816"}}, {"type": "node", "id": 6259985934, "lat": 59.4322667, "lon": 11.2415528, "tags": {"name": "Krosby", "place": "hamlet", "ssr:stedsnr": "366153"}}, {"type": "node", "id": 6259987049, "lat": 59.399425, "lon": 11.2429, "tags": {"name": "Gryteland", "place": "hamlet", "ssr:stedsnr": "63832"}}, {"type": "node", "id": 6259987069, "lat": 59.3938694, "lon": 11.3076778, "tags": {"name": "Haraldstad", "place": "hamlet", "ssr:stedsnr": "83556"}}, {"type": "node", "id": 6259987793, "lat": 59.4094611, "lon": 11.3334056, "tags": {"name": "Vestby", "place": "hamlet", "ssr:stedsnr": "123145"}}, {"type": "node", "id": 6259987829, "lat": 59.3588667, "lon": 11.3307083, "tags": {"name": "\u00d8verby", "place": "hamlet", "ssr:stedsnr": "172767"}}, {"type": "node", "id": 6259987863, "lat": 59.3694333, "lon": 11.3042722, "tags": {"name": "Ytterskogen", "place": "hamlet", "ssr:stedsnr": "185837"}}, {"type": "node", "id": 6259988394, "lat": 59.4534881, "lon": 11.2775975, "tags": {"name": "Vortvet", "place": "hamlet", "ssr:stedsnr": "245229"}}, {"type": "node", "id": 6259988467, "lat": 59.412775, "lon": 11.22275, "tags": {"name": "Solvang", "place": "hamlet", "ssr:stedsnr": "487126"}}, {"type": "node", "id": 6259988470, "lat": 59.396157, "lon": 11.2410041, "tags": {"name": "Skantebygda", "place": "hamlet", "ssr:stedsnr": "487140"}}, {"type": "node", "id": 6259989155, "lat": 59.4333361, "lon": 11.3397417, "tags": {"name": "Gudim", "place": "hamlet", "ssr:stedsnr": "568625"}}, {"type": "node", "id": 6259989492, "lat": 59.37675, "lon": 11.3120056, "tags": {"name": "S\u00f8rby", "place": "hamlet", "ssr:stedsnr": "609840"}}, {"type": "node", "id": 6259989539, "lat": 59.3240611, "lon": 11.3172139, "tags": {"name": "Bredholt", "place": "hamlet", "ssr:stedsnr": "669962"}}, {"type": "node", "id": 6259990044, "lat": 59.4621063, "lon": 11.2381342, "tags": {"name": "R\u00f8s\u00e6k", "place": "hamlet", "ssr:stedsnr": "791233"}}, {"type": "node", "id": 6259990071, "lat": 59.4536361, "lon": 11.3426278, "tags": {"alt_name": "Nordre K\u00e5en", "name": "K\u00e5en", "old_name": "K\u00e5n", "place": "hamlet", "ssr:stedsnr": "811613"}}, {"type": "node", "id": 6259990485, "lat": 59.4373, "lon": 11.2268972, "tags": {"name": "Brekke", "place": "hamlet", "ssr:stedsnr": "852158"}}, {"type": "node", "id": 6259990496, "lat": 59.3796056, "lon": 11.2933972, "tags": {"name": "Gautestad", "place": "hamlet", "ssr:stedsnr": "852848"}}, {"type": "node", "id": 6259990508, "lat": 59.3577249, "lon": 11.3047264, "tags": {"name": "Hen", "place": "hamlet", "ssr:stedsnr": "853751"}}, {"type": "node", "id": 6259990510, "lat": 59.33865, "lon": 11.3602722, "tags": {"name": "Lund", "place": "hamlet", "ssr:stedsnr": "853787"}}, {"type": "node", "id": 6259990886, "lat": 59.3649306, "lon": 11.2926, "tags": {"name": "Kjenner", "place": "hamlet", "ssr:stedsnr": "961730"}}, {"type": "node", "id": 6263299879, "lat": 59.1333979, "lon": 11.3565266, "tags": {"name": "Li", "place": "hamlet"}}, {"type": "node", "id": 6263299995, "lat": 59.1619288, "lon": 11.3742399, "tags": {"name": "Tolvehaugen", "place": "hamlet"}}, {"type": "node", "id": 6263299996, "lat": 59.1721403, "lon": 11.3808918, "tags": {"name": "Rahaugen", "place": "hamlet"}}, {"type": "node", "id": 6263300055, "lat": 59.241792, "lon": 11.3416041, "tags": {"name": "Guttersr\u00f8d", "place": "hamlet"}}, {"type": "node", "id": 6263300056, "lat": 59.1230813, "lon": 11.3678455, "tags": {"name": "R\u00f8d", "place": "hamlet"}}, {"type": "node", "id": 6263300058, "lat": 59.1088371, "lon": 11.2273836, "tags": {"name": "Svaler\u00f8d", "place": "hamlet"}}, {"type": "node", "id": 6263300059, "lat": 59.1917409, "lon": 11.3198233, "tags": {"name": "Torp", "place": "hamlet"}}, {"type": "node", "id": 6263300060, "lat": 59.1899165, "lon": 11.3377833, "tags": {"name": "Eng", "place": "hamlet"}}, {"type": "node", "id": 6263300061, "lat": 59.1880014, "lon": 11.3471013, "tags": {"name": "Rokke", "place": "hamlet"}}, {"type": "node", "id": 6263302953, "lat": 59.1503, "lon": 11.255575, "tags": {"name": "Gjellestad", "place": "hamlet", "ssr:stedsnr": "123802"}}, {"type": "node", "id": 6263303019, "lat": 59.1225836, "lon": 11.3077893, "tags": {"name": "S\u00f8rli", "place": "hamlet", "ssr:stedsnr": "184837"}}, {"type": "node", "id": 6264815072, "lat": 59.1781712, "lon": 11.2151849, "tags": {"name": "Ingedal", "place": "hamlet"}}, {"type": "node", "id": 6264815073, "lat": 59.2353155, "lon": 11.1545563, "tags": {"name": "Hauge", "place": "hamlet"}}, {"type": "node", "id": 6264815074, "lat": 59.2493892, "lon": 11.180563, "tags": {"name": "Sandbakken", "place": "hamlet"}}, {"type": "node", "id": 6264815075, "lat": 59.2841068, "lon": 11.2823152, "tags": {"name": "Skjebergdalen", "place": "hamlet"}}, {"type": "node", "id": 6264815076, "lat": 59.3094318, "lon": 11.2362027, "tags": {"name": "Spydevoll", "place": "hamlet"}}, {"type": "node", "id": 6264815077, "lat": 59.308238, "lon": 11.1943388, "tags": {"name": "Berby", "place": "hamlet"}}, {"type": "node", "id": 6264815078, "lat": 59.3349624, "lon": 11.1146235, "tags": {"name": "Holleby", "place": "hamlet"}}, {"type": "node", "id": 6264815080, "lat": 59.3698552, "lon": 11.1782026, "tags": {"name": "Moene", "place": "hamlet"}}, {"type": "node", "id": 6264815236, "lat": 59.3367361, "lon": 11.2032833, "tags": {"name": "Belsby", "place": "hamlet", "ssr:stedsnr": "568319"}}, {"type": "node", "id": 6264815278, "lat": 59.360675, "lon": 11.2437278, "tags": {"name": "Brenne", "place": "hamlet", "ssr:stedsnr": "609736"}}, {"type": "node", "id": 6264815285, "lat": 59.2607528, "lon": 11.152925, "tags": {"name": "Borgen", "place": "hamlet", "ssr:stedsnr": "609936"}}, {"type": "node", "id": 6264815334, "lat": 59.2086737, "lon": 11.246923, "tags": {"alt_name": "S\u00f8rle", "name": "S\u00f8le", "place": "hamlet", "ssr:stedsnr": "669874"}}, {"type": "node", "id": 6264815467, "lat": 59.1536861, "lon": 11.1870278, "tags": {"name": "L\u00f8kkevika", "place": "hamlet", "ssr:stedsnr": "791812"}}, {"type": "node", "id": 6264815472, "lat": 59.3131448, "lon": 11.2227115, "tags": {"alt_name": "Sikkeland", "name": "Sekkeland", "place": "hamlet", "ssr:stedsnr": "791939"}}, {"type": "node", "id": 6264815477, "lat": 59.2770583, "lon": 11.0834722, "tags": {"name": "Alvum", "place": "hamlet", "ssr:stedsnr": "792370"}}, {"type": "node", "id": 6264815719, "lat": 59.2362005, "lon": 11.1999838, "tags": {"name": "Vik", "place": "hamlet", "ssr:stedsnr": "851938"}}, {"type": "node", "id": 6264815731, "lat": 59.25585, "lon": 11.2450972, "tags": {"name": "Tranemyr", "place": "hamlet", "ssr:stedsnr": "852907"}}, {"type": "node", "id": 6264815743, "lat": 59.1954, "lon": 11.1717111, "tags": {"name": "Kvastebyen", "place": "village", "ssr:stedsnr": "872062"}}, {"type": "node", "id": 6264815779, "lat": 59.1352944, "lon": 11.2162528, "tags": {"alt_name": "Inger\u00f8en", "name": "Inger\u00f8y", "old_name": "Inger\u00f8d", "place": "hamlet", "ssr:stedsnr": "911772"}}, {"type": "node", "id": 6264815791, "lat": 59.3120028, "lon": 11.2355805, "tags": {"name": "Spydevoll", "place": "hamlet", "ssr:stedsnr": "912945"}}, {"type": "node", "id": 6264815807, "lat": 59.380225, "lon": 11.1573722, "tags": {"alt_name": "Mingedalen", "name": "Mingedal", "place": "hamlet", "ssr:stedsnr": "913871"}}, {"type": "node", "id": 6264815863, "lat": 59.179725, "lon": 11.108525, "tags": {"name": "\u00d8rbekk", "place": "hamlet", "ssr:stedsnr": "304951"}}, {"type": "node", "id": 6264815868, "lat": 59.2766278, "lon": 11.2670528, "tags": {"name": "Buer", "place": "hamlet", "ssr:stedsnr": "305880"}}, {"type": "node", "id": 6264815879, "lat": 59.2963, "lon": 11.2732972, "tags": {"name": "Holt", "place": "hamlet", "ssr:stedsnr": "305975"}}, {"type": "node", "id": 6264815884, "lat": 59.3647194, "lon": 11.0004028, "tags": {"alt_name": "Skoge", "name": "Skauge", "place": "hamlet", "ssr:stedsnr": "306249"}}, {"type": "node", "id": 6264815921, "lat": 59.2545222, "lon": 11.2353583, "tags": {"name": "Tveter", "place": "hamlet", "ssr:stedsnr": "358319"}}, {"type": "node", "id": 6264815974, "lat": 59.1641328, "lon": 11.1459226, "tags": {"name": "Berg", "place": "hamlet", "ssr:stedsnr": "403896"}}, {"type": "node", "id": 6264816391, "lat": 59.36335, "lon": 11.0335028, "tags": {"name": "Agnalt", "place": "hamlet", "ssr:stedsnr": "2282"}}, {"type": "node", "id": 6264816443, "lat": 59.3943667, "lon": 11.1344778, "tags": {"name": "Minge", "place": "hamlet", "ssr:stedsnr": "22678"}}, {"type": "node", "id": 6264816806, "lat": 59.3455556, "lon": 11.0349083, "tags": {"name": "Isnes", "place": "hamlet", "ssr:stedsnr": "123523"}}, {"type": "node", "id": 6264816885, "lat": 59.2695583, "lon": 11.1787639, "tags": {"alt_name": "Bj\u00f8rnmyr", "name": "Bj\u00f8rnemyr", "place": "hamlet", "ssr:stedsnr": "184861"}}, {"type": "node", "id": 6264816900, "lat": 59.312, "lon": 10.9857611, "tags": {"name": "Ryen", "place": "hamlet", "ssr:stedsnr": "185379"}}, {"type": "node", "id": 6264816903, "lat": 59.3314111, "lon": 11.2927162, "tags": {"alt_name": "\u00d8sttorp (Skrellene)", "name": "\u00d8sttorp", "place": "hamlet", "ssr:stedsnr": "185773"}}, {"type": "node", "id": 6264816922, "lat": 59.3693583, "lon": 11.2252444, "tags": {"name": "B\u00f8", "place": "hamlet", "ssr:stedsnr": "204319"}}, {"type": "node", "id": 6264816982, "lat": 59.3872306, "lon": 11.2022056, "tags": {"name": "Gryte", "place": "hamlet", "ssr:stedsnr": "265765"}}, {"type": "node", "id": 6264817048, "lat": 59.23415, "lon": 11.2343028, "tags": {"name": "Sand\u00e5s", "place": "hamlet", "ssr:stedsnr": "486928"}}, {"type": "node", "id": 6271663551, "lat": 59.2415465, "lon": 10.9692424, "tags": {"name": "Glemmen", "place": "hamlet", "ssr:stedsnr": "608511"}}, {"type": "node", "id": 6271663558, "lat": 59.2820694, "lon": 10.9307945, "tags": {"alt_name": "Veum", "name": "Nordre Veum", "place": "hamlet", "ssr:stedsnr": "609368"}}, {"type": "node", "id": 6271664002, "lat": 59.2526451, "lon": 10.8029094, "tags": {"name": "Eling\u00e5rd", "place": "hamlet", "ssr:stedsnr": "670112"}}, {"type": "node", "id": 6271664016, "lat": 59.1849851, "lon": 11.0509472, "tags": {"name": "Veel", "place": "village", "ssr:stedsnr": "722398"}}, {"type": "node", "id": 6271664043, "lat": 59.2442278, "lon": 10.9007389, "tags": {"name": "Sk\u00e5ra", "place": "hamlet", "ssr:stedsnr": "730509"}}, {"type": "node", "id": 6271664047, "lat": 59.2502073, "lon": 10.8332147, "tags": {"alt_name": "\u00d8tne", "name": "Utne", "place": "hamlet", "ssr:stedsnr": "731057"}}, {"type": "node", "id": 6271664616, "lat": 59.2816419, "lon": 10.8071567, "tags": {"name": "Bossum", "place": "hamlet", "ssr:stedsnr": "792373"}}, {"type": "node", "id": 6271664659, "lat": 59.2649, "lon": 10.8506056, "tags": {"name": "Ek", "place": "hamlet", "ssr:stedsnr": "853077"}}, {"type": "node", "id": 6271664683, "lat": 59.2326972, "lon": 11.0467222, "tags": {"name": "Borge", "place": "hamlet", "ssr:stedsnr": "911283"}}, {"type": "node", "id": 6271664684, "lat": 59.2324472, "lon": 11.0085972, "tags": {"name": "Kj\u00f8lstad", "place": "hamlet", "ssr:stedsnr": "911282"}}, {"type": "node", "id": 6271665000, "lat": 59.2569833, "lon": 10.7727333, "tags": {"alt_name": "R\u00f8d;R\u00f8d vestre", "name": "Vestre R\u00f8d", "place": "hamlet", "ssr:stedsnr": "913111"}}, {"type": "node", "id": 6271665037, "lat": 59.2123389, "lon": 10.9001028, "tags": {"name": "\u00c5lestranda", "place": "hamlet", "ssr:stedsnr": "297858"}}, {"type": "node", "id": 6271665038, "lat": 59.2667861, "lon": 10.7895778, "tags": {"alt_name": "Fj\u00e6ro", "name": "Fj\u00e6r\u00e5", "place": "hamlet", "ssr:stedsnr": "306103"}}, {"type": "node", "id": 6271665039, "lat": 59.3037692, "lon": 10.9736716, "tags": {"name": "Nylende", "place": "hamlet", "population": "208", "population:date": "2023-01-01", "ref:ssb_tettsted": "0162", "source:population": "SSB - befolkning i tettstedet", "ssr:stedsnr": "299087"}}, {"type": "node", "id": 6271665042, "lat": 59.2499874, "lon": 10.8740696, "tags": {"name": "Borge", "place": "hamlet", "ssr:stedsnr": "299163"}}, {"type": "node", "id": 6271665064, "lat": 59.2232072, "lon": 11.0645809, "tags": {"name": "Hunn", "place": "hamlet", "ssr:stedsnr": "305324"}}, {"type": "node", "id": 6271665083, "lat": 59.1723028, "lon": 11.0329111, "tags": {"name": "Roppestad", "place": "hamlet", "ssr:stedsnr": "358481"}}, {"type": "node", "id": 6271665292, "lat": 59.305925, "lon": 10.8886, "tags": {"name": "\u00d8rmen", "place": "hamlet", "ssr:stedsnr": "359895;541976"}}, {"type": "node", "id": 6271665298, "lat": 59.1604828, "lon": 10.9329914, "tags": {"name": "Lunde", "place": "hamlet", "population": "483", "population:date": "2023-01-01", "ref:ssb_tettsted": "0172", "source:population": "SSB - befolkning i tettstedet", "ssr:stedsnr": "360826"}}, {"type": "node", "id": 6271665358, "lat": 59.1316556, "lon": 10.9437639, "tags": {"name": "Putten", "place": "hamlet", "ssr:stedsnr": "2721"}}, {"type": "node", "id": 6271665375, "lat": 59.1998411, "lon": 10.9147576, "tags": {"name": "R\u00f8d", "place": "hamlet", "ssr:stedsnr": "54239;964263"}}, {"type": "node", "id": 6271665595, "lat": 59.2261667, "lon": 10.8013111, "tags": {"name": "Hasseldalen", "place": "hamlet", "ssr:stedsnr": "62252"}}, {"type": "node", "id": 6271665601, "lat": 59.1585389, "lon": 10.9433639, "tags": {"name": "\u00d8deg\u00e5rden", "place": "hamlet", "ssr:stedsnr": "63627"}}, {"type": "node", "id": 6271665629, "lat": 59.2180266, "lon": 10.7913834, "tags": {"name": "Vestre Vikene", "place": "hamlet", "ssr:stedsnr": "122275"}}, {"type": "node", "id": 6271665633, "lat": 59.2097381, "lon": 10.8040784, "tags": {"name": "\u00d8stre Vikene", "place": "hamlet", "ssr:stedsnr": "122310"}}, {"type": "node", "id": 6271665684, "lat": 59.1851111, "lon": 10.9397972, "tags": {"name": "Barkedalen", "place": "hamlet", "ssr:stedsnr": "236632"}}, {"type": "node", "id": 6271665795, "lat": 59.2517083, "lon": 10.9312861, "tags": {"name": "Veum", "place": "hamlet", "ssr:stedsnr": "239824"}}, {"type": "node", "id": 6271665798, "lat": 59.1562583, "lon": 10.9336167, "tags": {"name": "Lundeskogen", "place": "hamlet", "ssr:stedsnr": "239856"}}, {"type": "node", "id": 6271665806, "lat": 59.2164722, "lon": 10.8919472, "tags": {"name": "\u00c5le", "place": "hamlet", "ssr:stedsnr": "244294"}}, {"type": "node", "id": 6271666502, "lat": 59.2831636, "lon": 11.0006796, "tags": {"name": "Rostad", "place": "hamlet", "ssr:stedsnr": "488355"}}, {"type": "node", "id": 6271666503, "lat": 59.3167778, "lon": 10.9590139, "tags": {"name": "Nes", "place": "hamlet", "ssr:stedsnr": "488403"}}, {"type": "node", "id": 6271666534, "lat": 59.2679321, "lon": 10.8049371, "tags": {"name": "Huseby", "place": "hamlet", "ssr:stedsnr": "549111"}}, {"type": "node", "id": 6271666544, "lat": 59.2697944, "lon": 10.7533417, "tags": {"name": "Husl\u00f8s", "place": "hamlet", "ssr:stedsnr": "570760"}}, {"type": "node", "id": 6572420013, "lat": 59.2263932, "lon": 10.8039901}, {"type": "node", "id": 7483982137, "lat": 59.0444981, "lon": 11.2504823, "tags": {"name": "G\u00e5shult", "place": "hamlet"}}, {"type": "node", "id": 7483982521, "lat": 59.0519303, "lon": 11.22077, "tags": {"name": "Sundby", "place": "hamlet"}}, {"type": "node", "id": 7483984590, "lat": 59.0656719, "lon": 11.2572832, "tags": {"name": "Fj\u00e4lla", "place": "hamlet"}}, {"type": "node", "id": 7483992231, "lat": 59.0556637, "lon": 11.2324546, "tags": {"name": "Nybygget", "place": "hamlet"}}, {"type": "node", "id": 7483999086, "lat": 59.0633422, "lon": 11.2178438, "tags": {"name": "Medby", "place": "hamlet"}}, {"type": "node", "id": 7483999137, "lat": 59.0659235, "lon": 11.3189117, "tags": {"name": "R\u00e5sshult", "place": "hamlet"}}, {"type": "node", "id": 7483999425, "lat": 59.0627201, "lon": 11.2051313, "tags": {"name": "Hj\u00e4lmberg", "place": "hamlet"}}, {"type": "node", "id": 7484003717, "lat": 59.0754982, "lon": 11.3260419, "tags": {"name": "T\u00e5nge", "place": "hamlet"}}, {"type": "node", "id": 7484010285, "lat": 59.0768997, "lon": 11.2994716, "tags": {"name": "Bodal", "place": "hamlet"}}, {"type": "node", "id": 7484028524, "lat": 59.0526789, "lon": 11.3417053, "tags": {"name": "Nedre Lommeland", "place": "hamlet"}}, {"type": "node", "id": 7484037616, "lat": 59.0534572, "lon": 11.3037179, "tags": {"name": "R\u00f6d", "place": "hamlet"}}, {"type": "node", "id": 7484067458, "lat": 59.0434588, "lon": 11.3989725, "tags": {"name": "Pileg\u00e5rd", "place": "hamlet"}}, {"type": "node", "id": 7484070638, "lat": 59.0698902, "lon": 11.3588287, "tags": {"name": "\u00c5berg", "place": "hamlet"}}, {"type": "node", "id": 7484072938, "lat": 59.0772487, "lon": 11.2734233, "tags": {"name": "R\u00f6nningen", "place": "hamlet"}}, {"type": "node", "id": 7484076734, "lat": 59.0462941, "lon": 11.3930077, "tags": {"name": "H\u00e4llesm\u00f6rk", "place": "hamlet"}}, {"type": "node", "id": 7484081138, "lat": 59.065727, "lon": 11.3729659, "tags": {"name": "H\u00e4lleb\u00e5gen", "place": "hamlet"}}, {"type": "node", "id": 7484081347, "lat": 59.0953908, "lon": 11.3582121, "tags": {"name": "L\u00e5ngen\u00e4s", "place": "hamlet"}}, {"type": "node", "id": 7484099488, "lat": 59.0831789, "lon": 11.2260725, "tags": {"name": "Saltbacken", "place": "hamlet"}}, {"type": "node", "id": 7484100294, "lat": 59.0692884, "lon": 11.2199647, "tags": {"name": "Nordby", "place": "hamlet"}}, {"type": "node", "id": 7485145602, "lat": 59.2215058, "lon": 10.7951519}, {"type": "node", "id": 7485145603, "lat": 59.2219113, "lon": 10.7957594}, {"type": "node", "id": 7485145604, "lat": 59.2222687, "lon": 10.7956206}, {"type": "node", "id": 9761396122, "lat": 59.35966, "lon": 11.3309959}, {"type": "node", "id": 9761396123, "lat": 59.3595366, "lon": 11.3311188}, {"type": "node", "id": 9761396124, "lat": 59.3593863, "lon": 11.3311152}, {"type": "node", "id": 9761396125, "lat": 59.3588264, "lon": 11.3314697}, {"type": "node", "id": 9761396126, "lat": 59.3586708, "lon": 11.3317084}, {"type": "node", "id": 9761396127, "lat": 59.3586296, "lon": 11.3321647}, {"type": "node", "id": 9761396128, "lat": 59.3584275, "lon": 11.3321787}, {"type": "node", "id": 9761396129, "lat": 59.3583881, "lon": 11.3321085}, {"type": "node", "id": 9761396130, "lat": 59.3583452, "lon": 11.3316803}, {"type": "node", "id": 9761396131, "lat": 59.3584114, "lon": 11.3315399}, {"type": "node", "id": 9761396132, "lat": 59.3585474, "lon": 11.3314522}, {"type": "node", "id": 9761396133, "lat": 59.3585903, "lon": 11.3308239}, {"type": "node", "id": 9761396134, "lat": 59.3587584, "lon": 11.3305291}, {"type": "node", "id": 9761396135, "lat": 59.3595419, "lon": 11.3301079}, {"type": "node", "id": 9761396136, "lat": 59.3596815, "lon": 11.3307871}, {"type": "node", "id": 9761396137, "lat": 59.3596797, "lon": 11.3309055}, {"type": "node", "id": 10303092349, "lat": 59.2113139, "lon": 11.1270069}, {"type": "way", "id": 77347116, "nodes": [910418702, 10303092349, 910418753, 910418701, 910418703, 910418722, 910418699, 910418726, 910418728, 910418749, 910418747, 910418679, 910418719, 910418727, 910418751, 910418673, 910418691, 910418700, 910418745, 910418752, 910418678, 910418696, 910418694, 910418702], "tags": {"name": "Uller\u00f8y", "place": "hamlet", "wikidata": "Q1827931"}}, {"type": "way", "id": 77347118, "nodes": [910418714, 910418724, 910418702, 910418694, 910418696, 910418678, 910418752, 910418745, 910418700, 910418691, 910418673, 910418751, 910418727, 910418719, 910418679, 910418747, 910418749, 910418725, 910418716, 910418698, 910418714], "tags": {"name": "Torsnes", "place": "hamlet"}}, {"type": "way", "id": 95209042, "nodes": [1104478006, 1104477935, 1104477845, 1104477854, 1104477914, 1104477982, 1104477844, 1104478789, 1104477894, 1104478788, 1104477959, 1104478034, 1104477876, 1104477944, 1104478029, 1104477868, 1104477964, 1104478040, 1104477882, 1104477953, 1104478030, 1104477869, 1104477937, 1104478008, 1104477855, 1104477916, 1104477984, 1104477846, 1104477895, 1104477960, 1104478036, 1104477879, 1104477902, 1104477978, 1104477841, 1104477890, 1104477955, 1104478031, 1104477939, 1104477942, 1104478002, 1104477904, 1104477979, 1104477842, 1104477892, 1104477957, 1104478032, 1104477941, 1104477871, 1104478012, 1104477858, 1104477919, 1104477988, 1104463957, 6572420013, 1104477912, 1104477853, 1104478004, 1104477933, 1104477840, 1104477965, 1104477849, 1104477921, 1104477861, 1104478013, 1104477873, 1104478009, 1104477856, 1104477918, 7485145604, 7485145603, 7485145602, 1104477986, 688441542, 688440386, 1104477897, 1104477962, 1104478038, 1104477931, 1104478003, 1104477852, 1104477911, 1104477980, 1104477843, 1104478006], "tags": {"landuse": "residential", "name": "Vikane", "place": "hamlet"}}, {"type": "way", "id": 1062561035, "nodes": [9761396122, 9761396123, 9761396124, 9761396125, 9761396126, 9761396127, 9761396128, 9761396129, 9761396130, 9761396131, 9761396132, 9761396133, 9761396134, 9761396135, 9761396136, 9761396137, 9761396122], "tags": {"landuse": "farmyard", "name": "\u00d8verby", "place": "hamlet"}}]}