{"version": 0.6, "generator": "Overpass API 0.7.61.5 4133829e", "osm3s": {"timestamp_osm_base": "2024-03-06T11:42:15Z", "copyright": "The data included in this document is from www.openstreetmap.org. The data is made available under ODbL."}, "elements": [{"type": "node", "id": 44910494, "lat": -4.6585961, "lon": 39.3645433, "tags": {"is_in": "Kwale,Kenya", "name": "Wasini", "place": "village"}}, {"type": "node", "id": 44910796, "lat": -4.4666, "lon": 39.35, "tags": {"created_by": "JOSM", "is_in": "Kwale,Kenya", "name": "Vivini", "place": "village"}}, {"type": "node", "id": 44910820, "lat": -4.4666, "lon": 39.35, "tags": {"created_by": "JOSM", "is_in": "Kwale,Kenya", "name": "Vivwini", "place": "village"}}, {"type": "node", "id": 44910960, "lat": -4.4666, "lon": 39.45, "tags": {"created_by": "JOSM", "is_in": "Kwale,Kenya", "name": "Vidungeni", "place": "village"}}, {"type": "node", "id": 44915517, "lat": -4.5333, "lon": 39.4166, "tags": {"is_in": "Kwale,Kenya", "name": "Shirazi", "place": "village", "wikidata": "Q4116963", "wikipedia": "en:Shirazi, Kenya"}}, {"type": "node", "id": 44915520, "lat": -4.644991, "lon": 39.380882, "tags": {"is_in": "Kwale,Kenya", "name": "Shimoni", "place": "village", "wikidata": "Q2395680", "wikimedia_commons": "Category:Shimoni", "wikipedia": "en:Shimoni"}}, {"type": "node", "id": 44922160, "lat": -4.525051, "lon": 39.402361, "tags": {"is_in": "Kwale,Kenya", "name": "Ramisi", "place": "village", "wikidata": "Q15271630", "wikipedia": "en:Ramisi"}}, {"type": "node", "id": 44923659, "lat": -4.55, "lon": 39.35, "tags": {"created_by": "JOSM", "is_in": "Kwale,Kenya", "name": "Pongwe", "place": "village"}}, {"type": "node", "id": 44924330, "lat": -4.4666, "lon": 39.4166, "tags": {"is_in": "Kwale,Kenya", "name": "Nguruweni", "place": "village", "wikidata": "Q7022738", "wikipedia": "en:Nguruweni"}}, {"type": "node", "id": 44925629, "lat": -4.4999461, "lon": 39.4499764, "tags": {"is_in": "Kwale,Kenya", "name": "Mwaembe", "place": "village", "wikidata": "Q15260478", "wikipedia": "en:Mwaembe"}}, {"type": "node", "id": 44926366, "lat": -4.5202222, "lon": 39.4617894, "tags": {"is_in": "Kwale, Kenya", "name": "Munje", "place": "village"}}, {"type": "node", "id": 44928255, "lat": -4.663418, "lon": 39.395507, "tags": {"is_in": "Kwale,Kenya", "name": "Mkwiro", "place": "village", "wikidata": "Q6885542", "wikipedia": "en:Mkwiro"}}, {"type": "node", "id": 44930363, "lat": -4.4833, "lon": 39.45, "tags": {"is_in": "Kwale,Kenya", "name": "Mabatani", "place": "village", "wikidata": "Q6721360", "wikipedia": "en:Mabatani"}}, {"type": "node", "id": 44930791, "lat": -4.569262, "lon": 39.284237, "tags": {"is_in": "Kwale,Kenya", "name": "Majoreni", "place": "village", "wikidata": "Q6738394", "wikipedia": "en:Majoreni"}}, {"type": "node", "id": 44933201, "lat": -4.5, "lon": 39.4333, "tags": {"created_by": "JOSM", "is_in": "Kwale,Kenya", "name": "Kiviogo", "place": "village"}}, {"type": "node", "id": 44933430, "lat": -4.4833, "lon": 39.4833, "tags": {"created_by": "JOSM", "is_in": "Kenya", "name": "Kisimachande", "place": "village"}}, {"type": "node", "id": 44990071, "lat": -4.5, "lon": 39.35, "tags": {"created_by": "JOSM", "is_in": "Kwale,Kenya", "name": "Kibuguni", "place": "village"}}, {"type": "node", "id": 44990318, "lat": -4.4833, "lon": 39.35, "tags": {"created_by": "JOSM", "is_in": "Kwale,Kenya", "name": "Kigomberu", "place": "village"}}, {"type": "node", "id": 44990324, "lat": -4.4832886, "lon": 39.3500007, "tags": {"is_in": "Kwale,Kenya", "name": "Kigombero", "place": "village"}}, {"type": "node", "id": 44990364, "lat": -4.55, "lon": 39.3666, "tags": {"created_by": "JOSM", "is_in": "Kwale,Kenya", "name": "Kidimu", "place": "village"}}, {"type": "node", "id": 45004567, "lat": -4.5666, "lon": 39.4333, "tags": {"is_in": "Kenya", "name": "Funzi", "place": "village", "wikidata": "Q5473800", "wikipedia": "en:Funzi Island"}}, {"type": "node", "id": 45006129, "lat": -4.4666, "lon": 39.4666, "tags": {"created_by": "JOSM", "is_in": "Kwale,Kenya", "name": "Bomani", "place": "village"}}, {"type": "node", "id": 5256837045, "lat": -4.5062754, "lon": 39.2771691, "tags": {"place": "hamlet"}}, {"type": "node", "id": 6352102357, "lat": -4.643464, "lon": 39.3797208}, {"type": "node", "id": 6352102358, "lat": -4.6435709, "lon": 39.3777253}, {"type": "node", "id": 6352102359, "lat": -4.6468538, "lon": 39.3768777}, {"type": "node", "id": 6352102360, "lat": -4.64772, "lon": 39.3815984}, {"type": "node", "id": 6352102361, "lat": -4.6480943, "lon": 39.3845381}, {"type": "node", "id": 6352102362, "lat": -4.646811, "lon": 39.3859114}, {"type": "node", "id": 6352102363, "lat": -4.6453781, "lon": 39.3853642}, {"type": "node", "id": 6352102364, "lat": -4.6440628, "lon": 39.3849887}, {"type": "node", "id": 6352102365, "lat": -4.6401917, "lon": 39.3842699}, {"type": "node", "id": 6352102366, "lat": -4.6400634, "lon": 39.3825211}, {"type": "node", "id": 6352102367, "lat": -4.6401382, "lon": 39.3790771}, {"type": "node", "id": 6352102368, "lat": -4.6413627, "lon": 39.3843932}, {"type": "node", "id": 6812764060, "lat": -4.643001, "lon": 39.3796247}, {"type": "node", "id": 6812764064, "lat": -4.6431563, "lon": 39.379626}, {"type": "node", "id": 6812764723, "lat": -4.6420214, "lon": 39.3794341}, {"type": "node", "id": 6812764732, "lat": -4.6411077, "lon": 39.3792488}, {"type": "node", "id": 6812764778, "lat": -4.6407136, "lon": 39.3791777}, {"type": "node", "id": 6812764885, "lat": -4.6410085, "lon": 39.3843589}, {"type": "node", "id": 6812764888, "lat": -4.6411095, "lon": 39.3843567}, {"type": "way", "id": 678388246, "nodes": [6352102357, 6352102358, 6352102359, 6352102360, 6352102361, 6352102362, 6352102363, 6352102364, 6352102368, 6812764888, 6812764885, 6352102365, 6352102366, 6352102367, 6812764778, 6812764732, 6812764723, 6812764060, 6812764064, 6352102357], "tags": {"name": "Shimoni", "place": "village", "wikidata": "Q2395680", "wikimedia_commons": "Category:Shimoni", "wikipedia": "en:Shimoni"}}]}