{"version": 0.6, "generator": "Overpass API 0.7.61.5 4133829e", "osm3s": {"timestamp_osm_base": "2024-03-05T15:06:00Z", "copyright": "The data included in this document is from www.openstreetmap.org. The data is made available under ODbL."}, "elements": [{"type": "node", "id": 26983541, "lat": 59.83417, "lon": 13.5481044, "tags": {"name": "Munkfors", "name:ru": "\u041c\u0443\u043d\u043a\u0444\u043e\u0440\u0441", "name:sv": "Munkfors", "place": "town", "population": "2943", "population:date": "2018-03-28", "population:source": "SCB", "ref:se:pts:postort": "MUNKFORS", "ref:se:scb": "5760"}}, {"type": "node", "id": 27085855, "lat": 59.8794529, "lon": 13.55936, "tags": {"name": "Mj\u00f6n\u00e4s", "place": "village", "population": "267", "population:date": "2018-03-28", "population:source": "SCB", "ref:se:scb": "5752"}}, {"type": "node", "id": 29400213, "lat": 59.8999658, "lon": 13.5616466, "tags": {"name": "H\u00f6je", "place": "hamlet", "ref:se:pts:postort": "H\u00d6JE"}}, {"type": "node", "id": 29400272, "lat": 59.9107044, "lon": 13.5515564, "tags": {"name": "V\u00e4stra Skymn\u00e4s", "place": "hamlet"}}, {"type": "node", "id": 29400408, "lat": 59.915866, "lon": 13.5616466, "tags": {"name": "\u00d6stra Skymn\u00e4s", "place": "hamlet"}}, {"type": "node", "id": 29400409, "lat": 59.923603, "lon": 13.5945301, "tags": {"name": "By", "place": "hamlet"}}, {"type": "node", "id": 29531595, "lat": 59.8401813, "lon": 13.1354808, "tags": {"name": "Sunne", "name:ru": "\u0421\u0443\u043d\u043d\u0435", "place": "town", "population": "5155", "population:date": "2018-03-28", "population:source": "SCB", "ref:se:pts:postort": "SUNNE", "ref:se:scb": "5824", "wikidata": "Q1886476"}}, {"type": "node", "id": 29531597, "lat": 59.7963964, "lon": 13.1093853, "tags": {"name": "Rottneros", "place": "village", "population": "398", "population:date": "2018-03-28", "population:source": "SCB", "ref:se:pts:postort": "ROTTNEROS", "ref:se:scb": "5788", "wikidata": "Q2804789"}}, {"type": "node", "id": 29531972, "lat": 59.7271728, "lon": 13.1432142, "tags": {"name": "V\u00e4stra \u00c4mtervik", "place": "village", "population": "390", "population:date": "2018-03-28", "population:source": "SCB", "ref:se:pts:postort": "V\u00c4STRA \u00c4MTERVIK", "ref:se:scb": "5876", "wikidata": "Q2692715"}}, {"type": "node", "id": 29531973, "lat": 59.7339261, "lon": 13.2039604, "tags": {"name": "\u00d6stra \u00c4mtervik", "place": "hamlet", "ref:se:pts:postort": "\u00d6STRA \u00c4MTERVIK"}}, {"type": "node", "id": 29531974, "lat": 59.7694059, "lon": 13.4643078, "tags": {"name": "Rans\u00e4ter", "place": "village", "ref:se:pts:postort": "RANS\u00c4TER"}}, {"type": "node", "id": 29532119, "lat": 59.7224294, "lon": 13.4833602, "tags": {"created_by": "JOSM", "name": "Ols\u00e4ter", "place": "village"}}, {"type": "node", "id": 29532120, "lat": 59.6059394, "lon": 13.4636486, "tags": {"name": "Deje", "place": "town", "population": "2715", "population:date": "2018-03-28", "population:source": "SCB", "ref:se:pts:postort": "DEJE", "ref:se:scb": "5632"}}, {"type": "node", "id": 29537571, "lat": 59.5290618, "lon": 13.4826031, "tags": {"name": "Forshaga", "name:ru": "\u0424\u043e\u0440\u0441\u0445\u0430\u0433\u0430", "name:sv": "Forshaga", "place": "town", "population": "6457", "population:date": "2018-03-28", "population:source": "SCB", "ref:se:pts:postort": "FORSHAGA", "ref:se:scb": "5664", "wikidata": "Q1303800", "wikipedia": "sv:Forshaga"}}, {"type": "node", "id": 29537572, "lat": 59.8842838, "lon": 13.7222647, "tags": {"name": "Sunnemo", "place": "village", "population": "304", "population:date": "2018-03-28", "population:source": "SCB", "ref:se:pts:postort": "SUNNEMO", "ref:se:scb": "5828", "wikidata": "Q2065495"}}, {"type": "node", "id": 29563324, "lat": 59.602235, "lon": 13.728668, "tags": {"name": "Molkom", "place": "village", "population": "1888", "population:date": "2018-03-28", "population:source": "SCB", "ref:se:pts:postort": "MOLKOM", "ref:se:scb": "5756"}}, {"type": "node", "id": 29816328, "lat": 59.5198467, "lon": 13.2226961, "tags": {"name": "Fager\u00e5s", "place": "village", "population": "423", "population:date": "2018-03-28", "population:source": "SCB", "ref:se:pts:postort": "FAGER\u00c5S", "ref:se:scb": "5656", "wikidata": "Q2398916"}}, {"type": "node", "id": 367382133, "lat": 59.608814, "lon": 13.8007615, "tags": {"name": "Blombacka", "place": "village", "population": "199", "population:date": "2018-03-28", "population:source": "SCB", "ref:se:scb": "5616", "wikidata": "Q2329513"}}, {"type": "node", "id": 367385620, "lat": 59.6177794, "lon": 13.4518812, "tags": {"name": "Tj\u00e4rnheden", "place": "village"}}, {"type": "node", "id": 1187583865, "lat": 59.609988, "lon": 13.6564214, "tags": {"name": "S\u00f6dra R\u00e5dom", "place": "hamlet"}}, {"type": "node", "id": 1283069078, "lat": 59.8875419, "lon": 13.4878106, "tags": {"name": "Ena", "place": "hamlet"}}, {"type": "node", "id": 1340663021, "lat": 59.9461846, "lon": 13.646169, "tags": {"name": "Pr\u00e4stbol", "place": "hamlet"}}, {"type": "node", "id": 1543094605, "lat": 59.8811766, "lon": 13.23185, "tags": {"name": "Gjutarg\u00e5rden", "place": "hamlet"}}, {"type": "node", "id": 1827350524, "lat": 59.8762299, "lon": 13.3581798, "tags": {"name": "Annefors", "place": "hamlet"}}, {"type": "node", "id": 1827622756, "lat": 59.8886, "lon": 13.1709, "tags": {"name": "Askerud", "place": "hamlet", "source": "Bing"}}, {"type": "node", "id": 1828171975, "lat": 59.8220091, "lon": 13.2042121, "tags": {"name": "\u00d6stan\u00e5s", "place": "hamlet", "source": "Bing"}}, {"type": "node", "id": 1876489561, "lat": 59.9376685, "lon": 13.2457682, "tags": {"alt_name": "B\u00e4ckalund", "int_name": "B\u00e4ckalund", "name": "B\u00e4ckalund", "old_name": "B\u00e4ckalund", "place": "hamlet"}}, {"type": "node", "id": 1905240381, "lat": 59.85378, "lon": 13.2025, "tags": {"name": "\u00c5leby", "place": "hamlet", "source": "Bing"}}, {"type": "node", "id": 1907325161, "lat": 59.831373, "lon": 13.189955, "tags": {"name": "Maggeby", "place": "hamlet"}}, {"type": "node", "id": 1927593186, "lat": 59.5688025, "lon": 13.057404, "tags": {"name": "Boda", "place": "hamlet"}}, {"type": "node", "id": 2411026132, "lat": 59.5250592, "lon": 13.4458092, "tags": {"name": "L\u00f6ved", "place": "village"}}, {"type": "node", "id": 2598962544, "lat": 59.6401265, "lon": 13.4296284, "tags": {"name": "Edet", "place": "hamlet"}}, {"type": "node", "id": 2717458204, "lat": 59.9182614, "lon": 13.6722298, "tags": {"name": "Lidsbron", "place": "hamlet"}}, {"type": "node", "id": 2717462937, "lat": 59.7171698, "lon": 13.6741946, "tags": {"name": "\u00c4lvsbacka", "place": "hamlet", "wikidata": "Q10725730", "wikipedia": "sv:\u00c4lvsbacka"}}, {"type": "node", "id": 2717486484, "lat": 59.5568317, "lon": 13.7756365, "tags": {"name": "Hed\u00e5s", "place": "hamlet"}}, {"type": "node", "id": 2717486488, "lat": 59.5237394, "lon": 13.7910448, "tags": {"name": "T\u00e5g\u00e5s", "place": "hamlet"}}, {"type": "node", "id": 2909439117, "lat": 59.7373709, "lon": 13.6744839, "tags": {"name": "\u00d6stan\u00e5s", "place": "hamlet"}}, {"type": "node", "id": 2909439118, "lat": 59.7258492, "lon": 13.6556411, "tags": {"name": "Sund", "place": "hamlet"}}, {"type": "node", "id": 3122048003, "lat": 59.5683164, "lon": 13.4435927, "tags": {"name": "Arn\u00e4storp", "place": "hamlet", "source": "Ekonomiska kartan"}}, {"type": "node", "id": 3122048006, "lat": 59.561862, "lon": 13.4334315, "tags": {"name": "Nybacka", "place": "hamlet", "source": "Ekonomiska kartan"}}, {"type": "node", "id": 3687772226, "lat": 59.5914717, "lon": 13.6456922, "tags": {"name": "Solberg", "place": "hamlet", "source": "Ekonomiska kartan"}}, {"type": "node", "id": 4170869103, "lat": 59.8778452, "lon": 13.177102, "tags": {"name": "Norra Borgeby", "place": "hamlet"}}, {"type": "node", "id": 4277773751, "lat": 59.9376869, "lon": 13.2303714, "tags": {"name": "B\u00e4ck", "place": "hamlet"}}, {"type": "node", "id": 4427941058, "lat": 59.6493764, "lon": 13.7441167, "tags": {"name": "Acksj\u00f6n", "place": "village"}}, {"type": "node", "id": 4503841871, "lat": 59.8253432, "lon": 13.5381629, "tags": {"name": "Blia", "place": "village"}}, {"type": "node", "id": 4503860467, "lat": 59.831436, "lon": 13.5203442, "tags": {"name": "Munkerud", "place": "village", "wikidata": "Q10590294"}}, {"type": "node", "id": 4503860470, "lat": 59.8588203, "lon": 13.5530498, "tags": {"name": "Moss\u00e4ngen", "place": "village"}}, {"type": "node", "id": 5214661557, "lat": 59.6160133, "lon": 13.3295255, "tags": {"name": "Nilsby", "place": "village"}}, {"type": "node", "id": 5884184769, "lat": 59.5764287, "lon": 13.6938032, "tags": {"name": "\u00d6ster\u00e4ngarna", "place": "village", "wikidata": "Q18335380"}}, {"type": "node", "id": 5884184770, "lat": 59.5913769, "lon": 13.6938891, "tags": {"name": "Krakerud", "place": "village"}}, {"type": "node", "id": 6186240769, "lat": 59.6259239, "lon": 13.185836, "tags": {"name": "Fryk\u00e5sen", "place": "hamlet"}}, {"type": "node", "id": 6186240770, "lat": 59.6200156, "lon": 13.1914257, "tags": {"name": "Forsn\u00e4s", "place": "hamlet"}}, {"type": "node", "id": 6186240771, "lat": 59.639733, "lon": 13.1560367, "tags": {"name": "Gunnarsbytorp", "place": "hamlet"}}, {"type": "node", "id": 6186240772, "lat": 59.6480451, "lon": 13.1959748, "tags": {"name": "Getmossen", "place": "hamlet"}}, {"type": "node", "id": 6186240774, "lat": 59.6662289, "lon": 13.1524479, "tags": {"name": "Elofstorp", "place": "hamlet"}}, {"type": "node", "id": 6186240775, "lat": 59.6750653, "lon": 13.1439185, "tags": {"name": "Elovsrud", "place": "hamlet"}}, {"type": "node", "id": 6186240778, "lat": 59.693612, "lon": 13.143736, "tags": {"name": "Kringer\u00e5sen", "place": "hamlet"}}, {"type": "node", "id": 6186240779, "lat": 59.6903973, "lon": 13.1585097, "tags": {"name": "S\u00e4ljebacka", "place": "hamlet"}}, {"type": "node", "id": 6186240780, "lat": 59.7025575, "lon": 13.1729722, "tags": {"name": "Svensby\u00e4ng", "place": "hamlet"}}, {"type": "node", "id": 6186240781, "lat": 59.7082809, "lon": 13.1646935, "tags": {"name": "Humlen", "place": "hamlet"}}, {"type": "node", "id": 6186240782, "lat": 59.7132227, "lon": 13.1464719, "tags": {"name": "Silleg\u00e5rden", "place": "hamlet"}}, {"type": "node", "id": 6186240986, "lat": 59.745564, "lon": 13.084588, "tags": {"name": "Hensg\u00e5rd", "place": "hamlet"}}, {"type": "node", "id": 6311411973, "lat": 59.5225443, "lon": 13.6246776, "tags": {"name": "Sveden\u00e4s", "place": "hamlet"}}, {"type": "node", "id": 6311411974, "lat": 59.5469359, "lon": 13.6457061, "tags": {"name": "Getebol", "place": "hamlet"}}, {"type": "node", "id": 6311411975, "lat": 59.5330451, "lon": 13.6211157, "tags": {"name": "Hasselbol", "place": "hamlet"}}, {"type": "node", "id": 6311411977, "lat": 59.5399314, "lon": 13.7486601, "tags": {"name": "R\u00e5datorp", "place": "hamlet"}}, {"type": "node", "id": 6311411978, "lat": 59.5549066, "lon": 13.694694, "tags": {"name": "S\u00f6rg\u00e5rden", "place": "hamlet"}}, {"type": "node", "id": 6311411979, "lat": 59.5619407, "lon": 13.6946296, "tags": {"name": "Norum", "place": "hamlet"}}, {"type": "node", "id": 6311411980, "lat": 59.5280508, "lon": 13.7106156, "tags": {"name": "Gaperud", "place": "hamlet"}}, {"type": "node", "id": 6521339589, "lat": 59.5619267, "lon": 13.5224376, "tags": {"name": "\u00d6stra Deje", "place": "hamlet", "wikidata": "Q2622414"}}, {"type": "node", "id": 6949928389, "lat": 59.6705742, "lon": 13.2826531, "tags": {"name": "B\u00f6ssviken", "place": "hamlet", "source": "survey"}}, {"type": "node", "id": 6960876414, "lat": 59.6908413, "lon": 13.2557559, "tags": {"name": "Rud", "place": "hamlet", "source": "survey"}}, {"type": "node", "id": 6997412358, "lat": 59.7424988, "lon": 13.193872, "tags": {"name": "Arvidstorp", "place": "hamlet", "source": "survey"}}, {"type": "node", "id": 7030191798, "lat": 59.770588, "lon": 13.1710035, "tags": {"name": "Stavik", "place": "hamlet", "source": "survey"}}, {"type": "node", "id": 7045123108, "lat": 59.8052373, "lon": 13.1831324, "tags": {"name": "\u00d6stra Ingersby", "place": "hamlet"}}, {"type": "node", "id": 7068121404, "lat": 59.837619, "lon": 13.1972086, "tags": {"name": "S\u00f6dra Borgeby", "place": "hamlet", "wikidata": "Q1997566"}}, {"type": "node", "id": 7070312827, "lat": 59.8448661, "lon": 13.1956422, "tags": {"name": "Gullsby", "place": "hamlet", "wikidata": "Q1997566"}}, {"type": "node", "id": 7078766311, "lat": 59.8612759, "lon": 13.1591427, "tags": {"name": "Norra Arneby", "place": "hamlet", "source": "survey"}}, {"type": "node", "id": 7084430195, "lat": 59.872433, "lon": 13.163209, "tags": {"name": "Gunarsby", "place": "hamlet"}}, {"type": "node", "id": 7090815881, "lat": 59.8910212, "lon": 13.2357466, "tags": {"name": "Karsbol", "place": "hamlet"}}, {"type": "node", "id": 7103272849, "lat": 59.9110567, "lon": 13.2439542, "tags": {"name": "\u00d6stanbj\u00f6rke", "place": "hamlet"}}, {"type": "node", "id": 7212442781, "lat": 59.7597912, "lon": 13.1865361, "tags": {"name": "V\u00e4stmyr", "place": "hamlet"}}, {"type": "node", "id": 7383451451, "lat": 59.5232789, "lon": 13.3116746, "tags": {"name": "Jonsbol", "place": "hamlet"}}, {"type": "node", "id": 7386363344, "lat": 59.5280699, "lon": 13.2553911, "tags": {"name": "Frykfors", "place": "hamlet"}}, {"type": "node", "id": 7386413303, "lat": 59.5334232, "lon": 13.269698, "tags": {"name": "Gunnita", "place": "hamlet"}}, {"type": "node", "id": 7391186217, "lat": 59.5267505, "lon": 13.2346523, "tags": {"name": "Karsbol", "place": "hamlet"}}, {"type": "node", "id": 7391187348, "lat": 59.5221743, "lon": 13.281827, "tags": {"name": "Norra R\u00e4vling", "place": "hamlet"}}, {"type": "node", "id": 7396124803, "lat": 59.543548, "lon": 13.2791448, "tags": {"name": "Rudstorp", "place": "hamlet"}}, {"type": "node", "id": 7396127439, "lat": 59.5402686, "lon": 13.2623541, "tags": {"name": "V\u00e4sby", "place": "hamlet"}}, {"type": "node", "id": 7396347858, "lat": 59.544429, "lon": 13.3113313, "tags": {"name": "Norra Hann\u00e4s", "place": "hamlet", "wikidata": "Q10517286"}}, {"type": "node", "id": 7396348069, "lat": 59.5379271, "lon": 13.3123451, "tags": {"name": "S\u00f6dra Hann\u00e4s", "place": "hamlet", "wikidata": "Q10517286"}}, {"type": "node", "id": 7399839209, "lat": 59.5520143, "lon": 13.2808399, "tags": {"name": "Tr\u00e5ngstad", "place": "hamlet"}}, {"type": "node", "id": 7399839795, "lat": 59.5477869, "lon": 13.2941329, "tags": {"name": "Rud", "place": "hamlet"}}, {"type": "node", "id": 7402852093, "lat": 59.5507094, "lon": 13.2694942, "tags": {"name": "Erikstad", "place": "hamlet"}}, {"type": "node", "id": 7416038766, "lat": 59.5763159, "lon": 13.1928175, "tags": {"name": "\u00d6stra Gl\u00e4nne", "place": "hamlet"}}, {"type": "node", "id": 7423920532, "lat": 59.5772726, "lon": 13.2372102, "tags": {"name": "P\u00e5lstad", "place": "hamlet"}}, {"type": "node", "id": 7427989545, "lat": 59.5785579, "lon": 13.2416605, "tags": {"name": "Tolita", "place": "hamlet", "wikidata": "Q10699357"}}, {"type": "node", "id": 7431828540, "lat": 59.5586117, "lon": 13.2914734, "tags": {"name": "S\u00f6rby", "place": "hamlet"}}, {"type": "node", "id": 7439911624, "lat": 59.5698309, "lon": 13.2554156, "tags": {"name": "R\u00e5glanda", "place": "hamlet"}}, {"type": "node", "id": 7447501508, "lat": 59.567131, "lon": 13.3064067, "tags": {"name": "S\u00e4bytorp", "place": "hamlet", "wikidata": "Q2196745"}}, {"type": "node", "id": 7455318809, "lat": 59.5830936, "lon": 13.2927489, "tags": {"name": "Annita", "place": "hamlet"}}, {"type": "node", "id": 7455319500, "lat": 59.5791824, "lon": 13.2850134, "tags": {"name": "Nedre Bondestad", "place": "hamlet"}}, {"type": "node", "id": 7472192045, "lat": 59.8439218, "lon": 13.117545, "tags": {"name": "S\u00f6dra \u00c5mberg", "place": "hamlet"}}, {"type": "node", "id": 7472230823, "lat": 59.8927248, "lon": 13.684172, "tags": {"name": "Norra V\u00e4sby", "place": "hamlet"}}, {"type": "node", "id": 7472234710, "lat": 59.5288986, "lon": 13.3138384, "tags": {"name": "Tollestad", "place": "hamlet"}}, {"type": "node", "id": 7472248214, "lat": 59.7748309, "lon": 13.4566285, "tags": {"name": "S\u00f6dra \u00c5mberg", "place": "hamlet"}}, {"type": "node", "id": 7472288858, "lat": 59.5401768, "lon": 13.0961494, "tags": {"name": "Norra N\u00e4s", "place": "hamlet"}}, {"type": "node", "id": 7472299146, "lat": 59.734506, "lon": 13.2394723, "tags": {"name": "Norra Gunnerudstorp", "place": "hamlet"}}, {"type": "node", "id": 7472302732, "lat": 59.5640558, "lon": 13.1547747, "tags": {"name": "V\u00e4stra Gl\u00e4nne", "place": "hamlet"}}, {"type": "node", "id": 7472309364, "lat": 59.5665093, "lon": 13.5067049, "tags": {"name": "V\u00e4stra Deje", "place": "hamlet"}}, {"type": "node", "id": 7472324194, "lat": 59.5843045, "lon": 13.8245608, "tags": {"name": "\u00d6stra Hult", "place": "hamlet"}}, {"type": "node", "id": 7472330785, "lat": 59.5835508, "lon": 13.8103891, "tags": {"name": "V\u00e4stra Hult", "place": "hamlet"}}, {"type": "node", "id": 7472346527, "lat": 59.7799245, "lon": 13.4627536, "tags": {"name": "Norra \u00c5mberg", "place": "hamlet"}}, {"type": "node", "id": 7472374004, "lat": 59.7741304, "lon": 13.4712087, "tags": {"name": "S\u00f6dra Stensdalen", "place": "hamlet"}}, {"type": "node", "id": 7472398143, "lat": 59.7249288, "lon": 13.5939838, "tags": {"name": "Norra \u00c5s", "place": "hamlet"}}, {"type": "node", "id": 7472406730, "lat": 59.8881018, "lon": 13.1958915, "tags": {"name": "Norra S\u00e5neby", "place": "hamlet"}}, {"type": "node", "id": 7472418719, "lat": 59.8529896, "lon": 13.552697, "tags": {"name": "Forsudden", "place": "hamlet"}}, {"type": "node", "id": 7472420936, "lat": 59.7193088, "lon": 13.6014744, "tags": {"name": "S\u00f6dra \u00c5s", "place": "hamlet"}}, {"type": "node", "id": 7472437480, "lat": 59.7928522, "lon": 13.514584, "tags": {"name": "Norra Stensdalen", "place": "hamlet"}}, {"type": "node", "id": 7472442449, "lat": 59.5714006, "lon": 13.8417433, "tags": {"name": "\u00d6stra Laskerud", "place": "hamlet"}}, {"type": "node", "id": 7472459375, "lat": 59.790422, "lon": 13.1152975, "tags": {"name": "Rottneros villastad", "place": "hamlet"}}, {"type": "node", "id": 7472468783, "lat": 59.7684582, "lon": 13.3186982, "tags": {"name": "Svenserudss\u00e4tern", "place": "hamlet"}}, {"type": "node", "id": 7472485904, "lat": 59.8868371, "lon": 13.6916041, "tags": {"name": "S\u00f6dra V\u00e4sby", "place": "hamlet"}}, {"type": "node", "id": 7472486170, "lat": 59.8557465, "lon": 13.2232252, "tags": {"name": "Lilla Tjustersby", "place": "hamlet"}}, {"type": "node", "id": 7472488743, "lat": 59.7287117, "lon": 13.5845756, "tags": {"name": "Norra \u00c5storp", "place": "hamlet"}}, {"type": "node", "id": 7472495415, "lat": 59.8603906, "lon": 13.5646843, "tags": {"name": "S\u00f6dra Bogerud", "place": "hamlet"}}, {"type": "node", "id": 7472495423, "lat": 59.6712369, "lon": 13.3119554, "tags": {"name": "Stora Bon\u00e4s", "place": "hamlet"}}, {"type": "node", "id": 7472498112, "lat": 59.8659148, "lon": 13.5595255, "tags": {"name": "Norra Bogerud", "place": "hamlet"}}, {"type": "node", "id": 7472504008, "lat": 59.6481146, "lon": 13.167758, "tags": {"name": "Norra Nolby", "place": "hamlet"}}, {"type": "node", "id": 7472506901, "lat": 59.6382677, "lon": 13.5201336, "tags": {"name": "Stora B\u00e4ckelid", "place": "hamlet"}}, {"type": "node", "id": 7472518378, "lat": 59.715123, "lon": 13.5987904, "tags": {"name": "Norra S\u00e5gbr\u00e5ten", "place": "hamlet"}}, {"type": "node", "id": 7472524033, "lat": 59.5332094, "lon": 13.3405411, "tags": {"name": "Norra Fryksta", "place": "hamlet"}}, {"type": "node", "id": 7472549710, "lat": 59.6827681, "lon": 13.6728092, "tags": {"name": "Norra Viken", "place": "hamlet"}}, {"type": "node", "id": 7472557647, "lat": 59.6311191, "lon": 13.6322429, "tags": {"name": "Norra R\u00e5dom", "place": "hamlet"}}, {"type": "node", "id": 7472559214, "lat": 59.8266846, "lon": 13.473058, "tags": {"name": "Diksberg", "place": "hamlet"}}, {"type": "node", "id": 7477927765, "lat": 59.7360216, "lon": 13.2087773, "tags": {"name": "Pr\u00e4stbol", "place": "hamlet", "wikidata": "Q10641338"}}, {"type": "node", "id": 7477950743, "lat": 59.6980704, "lon": 13.2462432, "tags": {"name": "F\u00f6lsvik", "place": "hamlet"}}, {"type": "node", "id": 7477953669, "lat": 59.7199869, "lon": 13.2258456, "tags": {"name": "B\u00e4vik", "place": "hamlet"}}, {"type": "node", "id": 7477959163, "lat": 59.7292523, "lon": 13.2431299, "tags": {"name": "Gunnerud", "place": "hamlet"}}, {"type": "node", "id": 7477963547, "lat": 59.7027856, "lon": 13.2348111, "tags": {"name": "\u00d6stmansby", "place": "hamlet"}}, {"type": "node", "id": 7477984901, "lat": 59.7034315, "lon": 13.2224289, "tags": {"name": "Smedsby", "place": "hamlet"}}, {"type": "node", "id": 7478003902, "lat": 59.7326123, "lon": 13.061479, "tags": {"name": "Hensg\u00e5rds\u00e4ngarna", "place": "hamlet"}}, {"type": "node", "id": 7478007542, "lat": 59.7357365, "lon": 13.1288398, "tags": {"name": "Berga", "place": "hamlet"}}, {"type": "node", "id": 7478029243, "lat": 59.7478692, "lon": 13.0629938, "tags": {"name": "\u00c5sen", "place": "hamlet"}}, {"type": "node", "id": 7478048479, "lat": 59.7791971, "lon": 13.1954651, "tags": {"name": "Svenserud", "place": "hamlet"}}, {"type": "node", "id": 7478051554, "lat": 59.7801283, "lon": 13.1800025, "tags": {"name": "\u00d6rb\u00e4ck", "place": "hamlet"}}, {"type": "node", "id": 7478059675, "lat": 59.7687659, "lon": 13.2020486, "tags": {"name": "H\u00f6gberg", "place": "hamlet"}}, {"type": "node", "id": 7478062737, "lat": 59.7579571, "lon": 13.2387226, "tags": {"name": "S\u00f6dra \u00c5s", "place": "hamlet", "wikidata": "Q33111025"}}, {"type": "node", "id": 7478066802, "lat": 59.7680548, "lon": 13.2370921, "tags": {"name": "Norra \u00c5s", "place": "hamlet"}}, {"type": "node", "id": 7478073481, "lat": 59.7506721, "lon": 13.203511, "tags": {"name": "By", "place": "hamlet"}}, {"type": "node", "id": 7478092682, "lat": 59.80463, "lon": 13.205026, "tags": {"name": "Angersby", "place": "hamlet"}}, {"type": "node", "id": 7478105511, "lat": 59.7982087, "lon": 13.2113715, "tags": {"name": "Askersby", "place": "hamlet", "wikidata": "Q10419797"}}, {"type": "node", "id": 7478105756, "lat": 59.8097366, "lon": 13.2299431, "tags": {"name": "R\u00e5dom", "place": "hamlet"}}, {"type": "node", "id": 7478113914, "lat": 59.8000607, "lon": 13.1940341, "tags": {"name": "Mellby", "place": "hamlet"}}, {"type": "node", "id": 7478115001, "lat": 59.8135936, "lon": 13.1923991, "tags": {"name": "Arvidstorp", "place": "hamlet"}}, {"type": "node", "id": 7478136818, "lat": 59.795387, "lon": 13.1737766, "tags": {"name": "Hulten", "place": "hamlet"}}, {"type": "node", "id": 7478139305, "lat": 59.7956344, "lon": 13.2019487, "tags": {"name": "Persby", "place": "hamlet"}}, {"type": "node", "id": 7478143322, "lat": 59.7894972, "lon": 13.195907, "tags": {"name": "Munkebacka", "place": "hamlet"}}, {"type": "node", "id": 7478152419, "lat": 59.8084138, "lon": 13.1672941, "tags": {"name": "Vitteby", "place": "hamlet"}}, {"type": "node", "id": 7478163376, "lat": 59.7835394, "lon": 13.1260951, "tags": {"name": "\u00d6jerviks g\u00e5rd", "place": "hamlet"}}, {"type": "node", "id": 7478175731, "lat": 59.7949392, "lon": 13.0812694, "tags": {"name": "H\u00e4lleberg", "place": "hamlet"}}, {"type": "node", "id": 7478182322, "lat": 59.7986563, "lon": 13.1029953, "tags": {"name": "Ed", "place": "hamlet"}}, {"type": "node", "id": 7478203286, "lat": 59.8454508, "lon": 13.1045002, "tags": {"name": "Berga", "place": "hamlet"}}, {"type": "node", "id": 7478207027, "lat": 59.8343214, "lon": 13.0891304, "tags": {"name": "\u00c5s", "place": "hamlet"}}, {"type": "node", "id": 7478230926, "lat": 59.868176, "lon": 13.1545003, "tags": {"name": "Svineberg", "place": "hamlet"}}, {"type": "node", "id": 7478231933, "lat": 59.8676125, "lon": 13.2156429, "tags": {"name": "Torsberg", "place": "hamlet"}}, {"type": "node", "id": 7478232970, "lat": 59.8625364, "lon": 13.1315596, "tags": {"name": "Ulvsby", "place": "hamlet"}}, {"type": "node", "id": 7478244138, "lat": 59.8671535, "lon": 13.1928047, "tags": {"name": "Backa", "place": "hamlet"}}, {"type": "node", "id": 7478257295, "lat": 59.8429816, "lon": 13.2107238, "tags": {"name": "Bergskog", "place": "hamlet"}}, {"type": "node", "id": 7478257555, "lat": 59.8624676, "lon": 13.2445771, "tags": {"name": "Fallet", "place": "hamlet"}}, {"type": "node", "id": 7478261297, "lat": 59.8688073, "lon": 13.2312127, "tags": {"name": "Torsby", "place": "hamlet"}}, {"type": "node", "id": 7478270606, "lat": 59.8696987, "lon": 13.2368233, "tags": {"name": "Lerdalen", "place": "hamlet"}}, {"type": "node", "id": 7478272843, "lat": 59.8335352, "lon": 13.2057863, "tags": {"name": "P\u00e5lsby", "place": "hamlet"}}, {"type": "node", "id": 7478276209, "lat": 59.8579353, "lon": 13.2085403, "tags": {"name": "Tjustersby", "place": "hamlet"}}, {"type": "node", "id": 7478294857, "lat": 59.8590968, "lon": 13.0990362, "tags": {"name": "\u00d6nsby", "place": "hamlet"}}, {"type": "node", "id": 7478298267, "lat": 59.854146, "lon": 13.0680895, "tags": {"name": "Backetorp", "place": "hamlet"}}, {"type": "node", "id": 7478319728, "lat": 59.8555856, "lon": 13.042869, "tags": {"name": "H\u00f6kerud", "place": "hamlet"}}, {"type": "node", "id": 7478329508, "lat": 59.9109842, "lon": 13.268073, "tags": {"name": "Askerudss\u00e4tter", "place": "hamlet"}}, {"type": "node", "id": 7478332568, "lat": 59.8981457, "lon": 13.2403989, "tags": {"name": "Tomthult", "place": "hamlet"}}, {"type": "node", "id": 7478342917, "lat": 59.8872155, "lon": 13.254644, "tags": {"name": "R\u00e5b\u00e4cken", "place": "hamlet"}}, {"type": "node", "id": 7478351470, "lat": 59.8760327, "lon": 13.2054488, "tags": {"name": "Mon", "place": "hamlet"}}, {"type": "node", "id": 7478355792, "lat": 59.8931428, "lon": 13.2215012, "tags": {"name": "Ottern\u00e4set", "place": "hamlet"}}, {"type": "node", "id": 7478360942, "lat": 59.893435, "lon": 13.1957956, "tags": {"name": "H\u00e4gerud", "place": "hamlet"}}, {"type": "node", "id": 7478366913, "lat": 59.8773175, "lon": 13.1733713, "tags": {"name": "Ingm\u00e5r", "place": "hamlet"}}, {"type": "node", "id": 7478381090, "lat": 59.8901217, "lon": 13.1293351, "tags": {"name": "Svartserud", "place": "hamlet"}}, {"type": "node", "id": 7478400783, "lat": 59.9083949, "lon": 13.1694522, "tags": {"name": "Ivarsbj\u00f6rke", "place": "hamlet"}}, {"type": "node", "id": 7478423351, "lat": 59.9418783, "lon": 13.0980553, "tags": {"name": "Simrud", "place": "hamlet"}}, {"type": "node", "id": 7478425497, "lat": 59.8995021, "lon": 13.1757442, "tags": {"name": "\u00c5sarna", "place": "hamlet"}}, {"type": "node", "id": 7478440732, "lat": 59.9500658, "lon": 13.2582629, "tags": {"name": "S\u00e4tterstad", "place": "hamlet"}}, {"type": "node", "id": 7478450726, "lat": 59.9328169, "lon": 13.2505147, "tags": {"name": "Skogsberg", "place": "hamlet"}}, {"type": "node", "id": 7478454484, "lat": 59.9221104, "lon": 13.2513385, "tags": {"name": "Brattbacka", "place": "hamlet"}}, {"type": "node", "id": 7478467269, "lat": 59.9278749, "lon": 13.2342022, "tags": {"name": "S\u00e4tter", "place": "hamlet"}}, {"type": "node", "id": 7478488807, "lat": 59.948575, "lon": 13.2081078, "tags": {"name": "Hulten", "place": "hamlet"}}, {"type": "node", "id": 7478526004, "lat": 59.9341731, "lon": 13.1603813, "tags": {"name": "Hagen", "place": "hamlet"}}, {"type": "node", "id": 7478526335, "lat": 59.9458076, "lon": 13.0947583, "tags": {"name": "R\u00f6berg", "place": "hamlet"}}, {"type": "node", "id": 7482887079, "lat": 59.5339819, "lon": 13.1144708, "tags": {"name": "S\u00e4ldebr\u00e5ten", "place": "hamlet"}}, {"type": "node", "id": 7482913665, "lat": 59.5504279, "lon": 13.0622777, "tags": {"name": "Br\u00e5t\u00e4ngen", "place": "hamlet"}}, {"type": "node", "id": 7482951458, "lat": 59.519202, "lon": 13.2051714, "tags": {"name": "Blankeberg", "place": "hamlet"}}, {"type": "node", "id": 7482952461, "lat": 59.5297312, "lon": 13.1869096, "tags": {"name": "Gassebol", "place": "hamlet"}}, {"type": "node", "id": 7482955775, "lat": 59.5261416, "lon": 13.072526, "tags": {"name": "Mosserud", "place": "hamlet"}}, {"type": "node", "id": 7482961505, "lat": 59.5307219, "lon": 13.0562426, "tags": {"name": "Brevik", "place": "hamlet"}}, {"type": "node", "id": 7482987019, "lat": 59.5312274, "lon": 13.1988697, "tags": {"name": "Myre", "place": "hamlet"}}, {"type": "node", "id": 7482991170, "lat": 59.5477689, "lon": 13.1226514, "tags": {"name": "Lene", "place": "hamlet"}}, {"type": "node", "id": 7482994204, "lat": 59.5263578, "lon": 13.2013179, "tags": {"name": "Ackebol", "place": "hamlet"}}, {"type": "node", "id": 7482997045, "lat": 59.526609, "lon": 13.163727, "tags": {"name": "\u00c5s", "place": "hamlet"}}, {"type": "node", "id": 7482998200, "lat": 59.5471869, "lon": 13.1093556, "tags": {"name": "\u00c5sen", "place": "hamlet"}}, {"type": "node", "id": 7483003536, "lat": 59.5401383, "lon": 13.1631286, "tags": {"name": "G\u00f6n\u00e4s", "place": "hamlet"}}, {"type": "node", "id": 7483005058, "lat": 59.5618916, "lon": 13.2629296, "tags": {"name": "\u00c5s", "place": "hamlet"}}, {"type": "node", "id": 7483014652, "lat": 59.59516, "lon": 13.1767534, "tags": {"name": "H\u00f6g\u00e5sen", "place": "hamlet"}}, {"type": "node", "id": 7483016347, "lat": 59.5852547, "lon": 13.1596298, "tags": {"name": "Tr\u00f6stad", "place": "hamlet"}}, {"type": "node", "id": 7483017783, "lat": 59.5345486, "lon": 13.2488565, "tags": {"name": "H\u00f6kerud", "place": "hamlet"}}, {"type": "node", "id": 7483032390, "lat": 59.5730976, "lon": 13.0709122, "tags": {"name": "Smedserud", "place": "hamlet"}}, {"type": "node", "id": 7483044354, "lat": 59.5585751, "lon": 13.1881189, "tags": {"name": "Aplungsbyn", "place": "hamlet"}}, {"type": "node", "id": 7483068519, "lat": 59.5964726, "lon": 13.3146284, "tags": {"name": "Smedstad", "place": "hamlet"}}, {"type": "node", "id": 7483072619, "lat": 59.6409662, "lon": 13.2358535, "tags": {"name": "Rams\u00e5sen", "place": "hamlet"}}, {"type": "node", "id": 7483078562, "lat": 59.5865763, "lon": 13.3098889, "tags": {"name": "Hasselbol", "place": "hamlet"}}, {"type": "node", "id": 7483087867, "lat": 59.6075885, "lon": 13.0961169, "tags": {"name": "Jonsbol", "place": "hamlet"}}, {"type": "node", "id": 7483119795, "lat": 59.5968247, "lon": 13.1890589, "tags": {"name": "Sandviken", "place": "hamlet"}}, {"type": "node", "id": 7483128676, "lat": 59.6238504, "lon": 13.1296178, "tags": {"name": "H\u00e5lan", "place": "hamlet"}}, {"type": "node", "id": 7483134251, "lat": 59.6285504, "lon": 13.1624914, "tags": {"name": "Edet", "place": "hamlet"}}, {"type": "node", "id": 7483136544, "lat": 59.6421219, "lon": 13.128943, "tags": {"name": "Torestad", "place": "hamlet"}}, {"type": "node", "id": 7483136720, "lat": 59.6316741, "lon": 13.1849803, "tags": {"name": "\u00c5na", "place": "hamlet"}}, {"type": "node", "id": 7483140964, "lat": 59.6944694, "lon": 13.1363471, "tags": {"name": "Liane", "place": "hamlet"}}, {"type": "node", "id": 7483145641, "lat": 59.6462923, "lon": 13.0790046, "tags": {"name": "\u00d6stmarken", "place": "hamlet"}}, {"type": "node", "id": 7483151313, "lat": 59.6205365, "lon": 13.0666276, "tags": {"name": "Nordsj\u00f6", "place": "hamlet"}}, {"type": "node", "id": 7483155823, "lat": 59.6504185, "lon": 13.1606812, "tags": {"name": "Skogsberg", "place": "hamlet"}}, {"type": "node", "id": 7483172833, "lat": 59.6712845, "lon": 13.1497685, "tags": {"name": "Framn\u00e4s", "place": "hamlet"}}, {"type": "node", "id": 7483182232, "lat": 59.6802174, "lon": 13.1758954, "tags": {"name": "Perstorp", "place": "hamlet"}}, {"type": "node", "id": 7483197857, "lat": 59.6754643, "lon": 13.1789308, "tags": {"name": "Grava", "place": "hamlet"}}, {"type": "node", "id": 7483256940, "lat": 59.5242895, "lon": 13.562182, "tags": {"name": "Sj\u00f6stad", "place": "hamlet"}}, {"type": "node", "id": 7483259024, "lat": 59.5736109, "lon": 13.4462859, "tags": {"name": "Halla", "place": "hamlet"}}, {"type": "node", "id": 7483259075, "lat": 59.5680616, "lon": 13.4660709, "tags": {"name": "Br\u00e5ten", "place": "hamlet"}}, {"type": "node", "id": 7483269154, "lat": 59.5241231, "lon": 13.487981, "tags": {"name": "Nyback", "place": "hamlet"}}, {"type": "node", "id": 7483270307, "lat": 59.5180591, "lon": 13.2400401, "tags": {"name": "Pr\u00e4stbol", "place": "hamlet"}}, {"type": "node", "id": 7483270318, "lat": 59.5553652, "lon": 13.5225908, "tags": {"name": "T\u00e5ngen", "place": "hamlet"}}, {"type": "node", "id": 7483273357, "lat": 59.5162106, "lon": 13.336618, "tags": {"name": "Dikartorp", "place": "hamlet"}}, {"type": "node", "id": 7483289362, "lat": 59.521231, "lon": 13.5717873, "tags": {"name": "K\u00e4rne", "place": "hamlet"}}, {"type": "node", "id": 7483295057, "lat": 59.5571833, "lon": 13.5238477, "tags": {"name": "Rudshult", "place": "hamlet"}}, {"type": "node", "id": 7483295165, "lat": 59.5420802, "lon": 13.4906506, "tags": {"name": "Sundstad", "place": "hamlet"}}, {"type": "node", "id": 7483297814, "lat": 59.524622, "lon": 13.3312646, "tags": {"name": "Fryksta", "place": "hamlet", "wikidata": "Q1839439"}}, {"type": "node", "id": 7483297879, "lat": 59.5925416, "lon": 13.4441255, "tags": {"name": "Sm\u00e5ris", "place": "hamlet"}}, {"type": "node", "id": 7483298583, "lat": 59.5543231, "lon": 13.5667107, "tags": {"name": "Mosserud", "place": "hamlet"}}, {"type": "node", "id": 7483313512, "lat": 59.5325749, "lon": 13.3121174, "tags": {"name": "Tollstatorp", "place": "hamlet"}}, {"type": "node", "id": 7483314235, "lat": 59.560167, "lon": 13.5696817, "tags": {"name": "Ed", "place": "hamlet"}}, {"type": "node", "id": 7483315257, "lat": 59.5486735, "lon": 13.3430321, "tags": {"name": "Stubberud", "place": "hamlet"}}, {"type": "node", "id": 7483315370, "lat": 59.5428362, "lon": 13.3455643, "tags": {"name": "V\u00e4ls\u00e4tter", "place": "hamlet"}}, {"type": "node", "id": 7483317907, "lat": 59.5580316, "lon": 13.5287093, "tags": {"name": "Gylterud", "place": "hamlet"}}, {"type": "node", "id": 7483318109, "lat": 59.5837116, "lon": 13.5415264, "tags": {"name": "Bergs\u00e5sarna", "place": "hamlet"}}, {"type": "node", "id": 7483320652, "lat": 59.5184615, "lon": 13.265707, "tags": {"name": "Berg", "place": "hamlet"}}, {"type": "node", "id": 7483321742, "lat": 59.5573679, "lon": 13.4742087, "tags": {"name": "Visterud", "place": "hamlet", "wikidata": "Q10716186"}}, {"type": "node", "id": 7483325623, "lat": 59.6178112, "lon": 13.2940285, "tags": {"name": "Ransby", "place": "hamlet"}}, {"type": "node", "id": 7483326629, "lat": 59.6242037, "lon": 13.4464491, "tags": {"name": "Tj\u00e4rn", "place": "hamlet"}}, {"type": "node", "id": 7483327726, "lat": 59.5801654, "lon": 13.5359228, "tags": {"name": "Backa", "place": "hamlet"}}, {"type": "node", "id": 7483329905, "lat": 59.5928649, "lon": 13.5124763, "tags": {"name": "Torp", "place": "hamlet"}}, {"type": "node", "id": 7483330905, "lat": 59.5816039, "lon": 13.5133229, "tags": {"name": "Snedden", "place": "hamlet"}}, {"type": "node", "id": 7483332926, "lat": 59.5729645, "lon": 13.4824326, "tags": {"name": "Orretorp", "place": "hamlet"}}, {"type": "node", "id": 7483333949, "lat": 59.6189219, "lon": 13.4194188, "tags": {"name": "Grevlyckan", "place": "hamlet"}}, {"type": "node", "id": 7483334244, "lat": 59.5773298, "lon": 13.5237129, "tags": {"name": "Berg", "place": "hamlet"}}, {"type": "node", "id": 7483338325, "lat": 59.5844607, "lon": 13.5241775, "tags": {"name": "Bergstorp", "place": "hamlet"}}, {"type": "node", "id": 7483339771, "lat": 59.6545548, "lon": 13.3339377, "tags": {"name": "Bonserud", "place": "hamlet"}}, {"type": "node", "id": 7483346797, "lat": 59.6093223, "lon": 13.4861837, "tags": {"name": "Varg\u00e5n", "place": "hamlet"}}, {"type": "node", "id": 7483350693, "lat": 59.6092177, "lon": 13.3298814, "tags": {"name": "Siggerud", "place": "hamlet"}}, {"type": "node", "id": 7483357091, "lat": 59.5905911, "lon": 13.4549947, "tags": {"name": "Ris\u00e4tterstorp", "place": "hamlet"}}, {"type": "node", "id": 7483357673, "lat": 59.6262331, "lon": 13.3727716, "tags": {"name": "Siggerudsn\u00e4s", "place": "hamlet"}}, {"type": "node", "id": 7483359278, "lat": 59.6242787, "lon": 13.5730311, "tags": {"name": "\u00c5sen", "place": "hamlet"}}, {"type": "node", "id": 7483362063, "lat": 59.6436255, "lon": 13.5391036, "tags": {"name": "Perstorp", "place": "hamlet"}}, {"type": "node", "id": 7483363549, "lat": 59.6189374, "lon": 13.327216, "tags": {"name": "Hastersby", "place": "hamlet"}}, {"type": "node", "id": 7483363583, "lat": 59.6847687, "lon": 13.4383971, "tags": {"name": "F\u00f6rby", "place": "hamlet"}}, {"type": "node", "id": 7483369709, "lat": 59.6451556, "lon": 13.4411895, "tags": {"name": "\u00c5sen", "place": "hamlet"}}, {"type": "node", "id": 7483369762, "lat": 59.6741833, "lon": 13.4534713, "tags": {"name": "N\u00e4s", "place": "hamlet"}}, {"type": "node", "id": 7483370308, "lat": 59.6052899, "lon": 13.3107858, "tags": {"name": "Bj\u00f6rud", "place": "hamlet"}}, {"type": "node", "id": 7483371544, "lat": 59.6848845, "lon": 13.3566381, "tags": {"name": "Humletorp", "place": "hamlet"}}, {"type": "node", "id": 7483374151, "lat": 59.633177, "lon": 13.3133267, "tags": {"name": "Gunnarsby", "place": "hamlet"}}, {"type": "node", "id": 7483374787, "lat": 59.6306305, "lon": 13.4508824, "tags": {"name": "Hedeg\u00e5rden", "place": "hamlet"}}, {"type": "node", "id": 7483375710, "lat": 59.6465782, "lon": 13.4554048, "tags": {"name": "Forsn\u00e4s", "place": "hamlet"}}, {"type": "node", "id": 7483376540, "lat": 59.6193918, "lon": 13.3758931, "tags": {"name": "Hallb\u00e4cken", "place": "hamlet"}}, {"type": "node", "id": 7483377054, "lat": 59.6234823, "lon": 13.327714, "tags": {"name": "Ulvsby", "place": "hamlet"}}, {"type": "node", "id": 7483379630, "lat": 59.6233631, "lon": 13.2909844, "tags": {"name": "Kammersrud", "place": "hamlet"}}, {"type": "node", "id": 7483379758, "lat": 59.6224141, "lon": 13.3670061, "tags": {"name": "Flosj\u00f6ed", "place": "hamlet"}}, {"type": "node", "id": 7483382578, "lat": 59.6241356, "lon": 13.342824, "tags": {"name": "Tomthult", "place": "hamlet"}}, {"type": "node", "id": 7483382791, "lat": 59.6402516, "lon": 13.4561141, "tags": {"name": "Forsn\u00e4sheden", "place": "hamlet"}}, {"type": "node", "id": 7483382960, "lat": 59.6408428, "lon": 13.444029, "tags": {"name": "Ulvsby", "place": "hamlet"}}, {"type": "node", "id": 7483383651, "lat": 59.6255476, "lon": 13.42656, "tags": {"name": "Arn\u00e4s", "place": "hamlet"}}, {"type": "node", "id": 7483384779, "lat": 59.6276475, "lon": 13.3385941, "tags": {"name": "Fager\u00e5s", "place": "hamlet"}}, {"type": "node", "id": 7483390454, "lat": 59.619488, "lon": 13.2419817, "tags": {"name": "\u00d6vre Bondestad", "place": "hamlet"}}, {"type": "node", "id": 7483390455, "lat": 59.6696803, "lon": 13.3522627, "tags": {"name": "Knutserud", "place": "hamlet"}}, {"type": "node", "id": 7483396651, "lat": 59.6485451, "lon": 13.5271157, "tags": {"name": "L\u00f6v\u00e5sen", "place": "hamlet"}}, {"type": "node", "id": 7483399208, "lat": 59.6897765, "lon": 13.4809035, "tags": {"name": "Mosserud", "place": "hamlet"}}, {"type": "node", "id": 7483399342, "lat": 59.6731905, "lon": 13.411997, "tags": {"name": "Kvarnbr\u00e5ten", "place": "hamlet"}}, {"type": "node", "id": 7483399349, "lat": 59.7027826, "lon": 13.4973615, "tags": {"name": "H\u00e4llekil", "place": "hamlet"}}, {"type": "node", "id": 7483399350, "lat": 59.7032259, "lon": 13.4828133, "tags": {"name": "Bergs\u00e4ng", "place": "hamlet"}}, {"type": "node", "id": 7483402725, "lat": 59.6812673, "lon": 13.4790611, "tags": {"name": "Upplanda", "place": "hamlet"}}, {"type": "node", "id": 7483407254, "lat": 59.766445, "lon": 13.2665396, "tags": {"name": "Korterud", "place": "hamlet"}}, {"type": "node", "id": 7483412770, "lat": 59.682541, "lon": 13.4633275, "tags": {"name": "Nyckelby", "place": "hamlet"}}, {"type": "node", "id": 7483412966, "lat": 59.6889219, "lon": 13.4445863, "tags": {"name": "Solbacka", "place": "hamlet"}}, {"type": "node", "id": 7483415130, "lat": 59.6806843, "lon": 13.4935568, "tags": {"name": "Edeby", "place": "hamlet"}}, {"type": "node", "id": 7483417578, "lat": 59.7360186, "lon": 13.2966187, "tags": {"name": "Mosserud", "place": "hamlet"}}, {"type": "node", "id": 7483419763, "lat": 59.7136328, "lon": 13.3659665, "tags": {"name": "Br\u00e5ten", "place": "hamlet"}}, {"type": "node", "id": 7483423542, "lat": 59.7070878, "lon": 13.4351489, "tags": {"name": "V\u00e4stsj\u00f6", "place": "hamlet"}}, {"type": "node", "id": 7483423603, "lat": 59.6968032, "lon": 13.432519, "tags": {"name": "Gersviken", "place": "hamlet"}}, {"type": "node", "id": 7483424034, "lat": 59.778453, "lon": 13.2661083, "tags": {"name": "\u00c5sarna", "place": "hamlet"}}, {"type": "node", "id": 7483424146, "lat": 59.7208763, "lon": 13.3599983, "tags": {"name": "Sj\u00f6torp", "place": "hamlet"}}, {"type": "node", "id": 7483430431, "lat": 59.7527583, "lon": 13.2959123, "tags": {"name": "Lerbr\u00e5ten", "place": "hamlet"}}, {"type": "node", "id": 7483431585, "lat": 59.6855752, "lon": 13.4047719, "tags": {"name": "\u00c4ngarna", "place": "hamlet"}}, {"type": "node", "id": 7483432490, "lat": 59.6777565, "lon": 13.4253845, "tags": {"name": "Bergsby", "place": "hamlet"}}, {"type": "node", "id": 7483432803, "lat": 59.7825549, "lon": 13.2632313, "tags": {"name": "H\u00f6gbergss\u00e4tter", "place": "hamlet"}}, {"type": "node", "id": 7483432870, "lat": 59.8710769, "lon": 13.3056223, "tags": {"name": "Gle", "place": "hamlet"}}, {"type": "node", "id": 7483434135, "lat": 59.7264328, "lon": 13.3421471, "tags": {"name": "Visteberg", "place": "hamlet"}}, {"type": "node", "id": 7483435477, "lat": 59.7615784, "lon": 13.3009652, "tags": {"name": "\u00c5lk\u00e4rrsrud", "place": "hamlet"}}, {"type": "node", "id": 7483435557, "lat": 59.7089758, "lon": 13.3531886, "tags": {"name": "Sandmon", "place": "hamlet"}}, {"type": "node", "id": 7483440552, "lat": 59.756536, "lon": 13.2765479, "tags": {"name": "\u00c4lvb\u00e4ck", "place": "hamlet"}}, {"type": "node", "id": 7483445511, "lat": 59.7272877, "lon": 13.3188773, "tags": {"name": "Skacksj\u00f6", "place": "hamlet"}}, {"type": "node", "id": 7483448393, "lat": 59.7850052, "lon": 13.3185179, "tags": {"name": "Br\u00e5ruds\u00e4tter", "place": "hamlet"}}, {"type": "node", "id": 7483454228, "lat": 59.7305725, "lon": 13.3335197, "tags": {"name": "Visterud", "place": "hamlet"}}, {"type": "node", "id": 7483454248, "lat": 59.7491106, "lon": 13.4414597, "tags": {"name": "Rans\u00e4terstorp", "place": "hamlet"}}, {"type": "node", "id": 7483467324, "lat": 59.7614545, "lon": 13.3334785, "tags": {"name": "Bogerud", "place": "hamlet"}}, {"type": "node", "id": 7483497582, "lat": 59.7804132, "lon": 13.4685252, "tags": {"name": "H\u00f6gsby", "place": "hamlet"}}, {"type": "node", "id": 7483504251, "lat": 59.7952108, "lon": 13.427451, "tags": {"name": "K\u00e4rret", "place": "hamlet"}}, {"type": "node", "id": 7483530556, "lat": 59.7390242, "lon": 13.4603883, "tags": {"name": "Rudsheden", "place": "hamlet"}}, {"type": "node", "id": 7483538662, "lat": 59.7458302, "lon": 13.4689315, "tags": {"name": "Rud", "place": "hamlet"}}, {"type": "node", "id": 7483539466, "lat": 59.7815438, "lon": 13.4943608, "tags": {"name": "V\u00e4stan\u00e5", "place": "hamlet"}}, {"type": "node", "id": 7483543616, "lat": 59.7135699, "lon": 13.4975424, "tags": {"name": "B\u00e4ck", "place": "hamlet"}}, {"type": "node", "id": 7483546911, "lat": 59.7285092, "lon": 13.4953216, "tags": {"name": "Smedserud", "place": "hamlet"}}, {"type": "node", "id": 7483549109, "lat": 59.7320196, "lon": 13.4820432, "tags": {"name": "Myre", "place": "hamlet"}}, {"type": "node", "id": 7483552174, "lat": 59.784855, "lon": 13.4790093, "tags": {"name": "Jonsbol", "place": "hamlet"}}, {"type": "node", "id": 7483554120, "lat": 59.8060014, "lon": 13.5240734, "tags": {"name": "Hollsby", "place": "hamlet"}}, {"type": "node", "id": 7483554949, "lat": 59.8312487, "lon": 13.4869373, "tags": {"name": "Kalvbergs\u00e5sen", "place": "hamlet"}}, {"type": "node", "id": 7483559008, "lat": 59.7873326, "lon": 13.5055035, "tags": {"name": "Hed\u00e5s", "place": "hamlet"}}, {"type": "node", "id": 7483560490, "lat": 59.7894304, "lon": 13.4929775, "tags": {"name": "Tj\u00e4rne", "place": "hamlet"}}, {"type": "node", "id": 7483564155, "lat": 59.8398642, "lon": 13.5228471, "tags": {"name": "Revhaget", "place": "hamlet"}}, {"type": "node", "id": 7483566678, "lat": 59.8414097, "lon": 13.5030564, "tags": {"name": "Svartenssven", "place": "hamlet"}}, {"type": "node", "id": 7483573550, "lat": 59.8896164, "lon": 13.5642174, "tags": {"name": "Backarna", "place": "hamlet"}}, {"type": "node", "id": 7483575854, "lat": 59.8946001, "lon": 13.5270008, "tags": {"name": "Skymn\u00e4shagen", "place": "hamlet"}}, {"type": "node", "id": 7483581231, "lat": 59.8802069, "lon": 13.521451, "tags": {"name": "H\u00f6gheden", "place": "hamlet"}}, {"type": "node", "id": 7483590029, "lat": 59.8990807, "lon": 13.5271248, "tags": {"name": "Uddheden", "place": "hamlet"}}, {"type": "node", "id": 7483592539, "lat": 59.9249925, "lon": 13.5694403, "tags": {"name": "Nybacka", "place": "hamlet"}}, {"type": "node", "id": 7483595822, "lat": 59.9070195, "lon": 13.5569734, "tags": {"name": "Strand", "place": "hamlet"}}, {"type": "node", "id": 7483611749, "lat": 59.933587, "lon": 13.5732809, "tags": {"name": "Pustbacken", "place": "hamlet"}}, {"type": "node", "id": 7483623267, "lat": 59.90231, "lon": 13.5331776, "tags": {"name": "H\u00f6gberg", "place": "hamlet"}}, {"type": "node", "id": 7483634948, "lat": 59.830347, "lon": 13.5612374, "tags": {"name": "Hollsbys\u00e4tter", "place": "hamlet"}}, {"type": "node", "id": 7483639705, "lat": 59.8721619, "lon": 13.5609018, "tags": {"name": "Br\u00e5nheden", "place": "hamlet"}}, {"type": "node", "id": 7483640763, "lat": 59.5269629, "lon": 13.5851766, "tags": {"name": "Bjurerud", "place": "hamlet"}}, {"type": "node", "id": 7483651203, "lat": 59.8432477, "lon": 13.5307841, "tags": {"name": "Forsliden", "place": "hamlet"}}, {"type": "node", "id": 7483728381, "lat": 59.5454484, "lon": 13.6062081, "tags": {"name": "Skacklerud", "place": "hamlet"}}, {"type": "node", "id": 7483760178, "lat": 59.546054, "lon": 13.7132359, "tags": {"name": "Bergstorp", "place": "hamlet"}}, {"type": "node", "id": 7483767500, "lat": 59.5616275, "lon": 13.7207451, "tags": {"name": "Moss\u00e4ngen", "place": "hamlet"}}, {"type": "node", "id": 7483778385, "lat": 59.5630698, "lon": 13.710994, "tags": {"name": "\u00c5s", "place": "hamlet"}}, {"type": "node", "id": 7483881555, "lat": 59.571543, "lon": 13.7855974, "tags": {"name": "Fasterud", "place": "hamlet"}}, {"type": "node", "id": 7483891193, "lat": 59.5564789, "lon": 13.72844, "tags": {"name": "L\u00f6v\u00e5sen", "place": "hamlet"}}, {"type": "node", "id": 7483895393, "lat": 59.5660629, "lon": 13.8029302, "tags": {"name": "Laskerud", "place": "hamlet"}}, {"type": "node", "id": 7483895737, "lat": 59.5264795, "lon": 13.8286105, "tags": {"name": "Barsj\u00f6torp", "place": "hamlet"}}, {"type": "node", "id": 7483898113, "lat": 59.5621969, "lon": 13.7833618, "tags": {"name": "Nerg\u00e5rden", "place": "hamlet"}}, {"type": "node", "id": 7483898449, "lat": 59.5678237, "lon": 13.7617889, "tags": {"name": "Karlsberg", "place": "hamlet"}}, {"type": "node", "id": 7483901887, "lat": 59.5500303, "lon": 13.7833489, "tags": {"name": "Myrkullen", "place": "hamlet"}}, {"type": "node", "id": 7483901888, "lat": 59.5553876, "lon": 13.7640643, "tags": {"name": "Ambj\u00f6rbyn", "place": "hamlet"}}, {"type": "node", "id": 7483920856, "lat": 59.5342254, "lon": 13.7959991, "tags": {"name": "T\u00e5g\u00e5storp", "place": "hamlet"}}, {"type": "node", "id": 7483957842, "lat": 59.5587493, "lon": 13.8501233, "tags": {"name": "B\u00e4ckelid", "place": "hamlet"}}, {"type": "node", "id": 7483993019, "lat": 59.5562368, "lon": 13.8731771, "tags": {"name": "Asplunden", "place": "hamlet"}}, {"type": "node", "id": 7484002809, "lat": 59.5685255, "lon": 13.8608461, "tags": {"name": "S\u00e5neby", "place": "hamlet"}}, {"type": "node", "id": 7484021188, "lat": 59.5566705, "lon": 13.8408327, "tags": {"name": "Svenserud", "place": "hamlet"}}, {"type": "node", "id": 7484023154, "lat": 59.5417747, "lon": 13.8105615, "tags": {"name": "Sl\u00e4ngserud", "place": "hamlet"}}, {"type": "node", "id": 7484023239, "lat": 59.5452718, "lon": 13.8155896, "tags": {"name": "Sl\u00e4ngserudstorp", "place": "hamlet"}}, {"type": "node", "id": 7484026537, "lat": 59.5271834, "lon": 13.8696624, "tags": {"name": "Fr\u00e4kne", "place": "hamlet"}}, {"type": "node", "id": 7484054741, "lat": 59.5377929, "lon": 13.8495169, "tags": {"name": "Viberg", "place": "hamlet"}}, {"type": "node", "id": 7484105575, "lat": 59.5904061, "lon": 13.8998661, "tags": {"name": "Fager\u00e5sen", "place": "hamlet"}}, {"type": "node", "id": 7484114756, "lat": 59.5688476, "lon": 13.898573, "tags": {"name": "\u00c4ngarna", "place": "hamlet"}}, {"type": "node", "id": 7484126495, "lat": 59.5540437, "lon": 13.8852427, "tags": {"name": "Sundstorp", "place": "hamlet"}}, {"type": "node", "id": 7484130924, "lat": 59.5393633, "lon": 13.8937869, "tags": {"name": "Sl\u00e4tt\u00e5sen", "place": "hamlet"}}, {"type": "node", "id": 7484450991, "lat": 59.6022898, "lon": 13.7013963, "tags": {"name": "Backa", "place": "hamlet"}}, {"type": "node", "id": 7484461994, "lat": 59.6124777, "lon": 13.6783789, "tags": {"name": "Bj\u00f6rketorp", "place": "hamlet", "wikidata": "Q32224258"}}, {"type": "node", "id": 7484479601, "lat": 59.5763381, "lon": 13.6489057, "tags": {"name": "Nybacka", "place": "hamlet"}}, {"type": "node", "id": 7484487319, "lat": 59.5816706, "lon": 13.6298149, "tags": {"name": "Mosserud", "place": "hamlet"}}, {"type": "node", "id": 7484495251, "lat": 59.5808234, "lon": 13.7870761, "tags": {"name": "G\u00e4llserud", "place": "hamlet"}}, {"type": "node", "id": 7484498628, "lat": 59.5800659, "lon": 13.5967599, "tags": {"name": "H\u00f6gberg", "place": "hamlet"}}, {"type": "node", "id": 7484508769, "lat": 59.5956707, "lon": 13.6176058, "tags": {"name": "Nolby", "place": "hamlet"}}, {"type": "node", "id": 7484510390, "lat": 59.6102621, "lon": 13.8026735, "tags": {"name": "H\u00f6g\u00e5sen", "place": "hamlet"}}, {"type": "node", "id": 7484517705, "lat": 59.5903778, "lon": 13.7982795, "tags": {"name": "Valserudsh\u00f6jden", "place": "hamlet"}}, {"type": "node", "id": 7484523134, "lat": 59.5990442, "lon": 13.7420097, "tags": {"name": "Upperud", "place": "hamlet"}}, {"type": "node", "id": 7484525212, "lat": 59.6095263, "lon": 13.7733488, "tags": {"name": "Borserud", "place": "hamlet"}}, {"type": "node", "id": 7484525297, "lat": 59.5917558, "lon": 13.7827904, "tags": {"name": "Valserud", "place": "hamlet"}}, {"type": "node", "id": 7484531801, "lat": 59.6109382, "lon": 13.764485, "tags": {"alt_name": "Hulteby", "name": "Hultebyn", "place": "hamlet"}}, {"type": "node", "id": 7484536933, "lat": 59.6041294, "lon": 13.8442443, "tags": {"name": "Reparetorp", "place": "hamlet"}}, {"type": "node", "id": 7484539606, "lat": 59.6067839, "lon": 13.8717448, "tags": {"name": "K\u00e4llorna", "place": "hamlet"}}, {"type": "node", "id": 7484542076, "lat": 59.6180224, "lon": 13.8208303, "tags": {"name": "Lindfors g\u00e5rd", "place": "hamlet"}}, {"type": "node", "id": 7484545853, "lat": 59.5995971, "lon": 13.8527797, "tags": {"name": "Sp\u00e4tterud", "place": "hamlet"}}, {"type": "node", "id": 7484546714, "lat": 59.6067687, "lon": 13.8363831, "tags": {"name": "Lindfors", "place": "hamlet", "wikidata": "Q2244933"}}, {"type": "node", "id": 7484569306, "lat": 59.6086561, "lon": 13.8210712, "tags": {"name": "\u00c5sdalen", "place": "hamlet"}}, {"type": "node", "id": 7484576687, "lat": 59.5995739, "lon": 13.8151692, "tags": {"name": "Skinnaretorp", "place": "hamlet"}}, {"type": "node", "id": 7484576895, "lat": 59.5968391, "lon": 13.818669, "tags": {"name": "\u00c5storp", "place": "hamlet"}}, {"type": "node", "id": 7484577884, "lat": 59.6388439, "lon": 13.8612634, "tags": {"name": "M\u00e5ngstorp", "place": "hamlet"}}, {"type": "node", "id": 7484582606, "lat": 59.6220654, "lon": 13.8083156, "tags": {"name": "\u00c5sarna", "place": "hamlet"}}, {"type": "node", "id": 7484607141, "lat": 59.6316917, "lon": 13.7258317, "tags": {"name": "Duven\u00e4s", "place": "hamlet"}}, {"type": "node", "id": 7484619348, "lat": 59.6488313, "lon": 13.7599828, "tags": {"name": "Jonsbyn", "place": "hamlet"}}, {"type": "node", "id": 7484619684, "lat": 59.636281, "lon": 13.7601613, "tags": {"name": "Sandb\u00e4cken", "place": "hamlet"}}, {"type": "node", "id": 7484620550, "lat": 59.6355654, "lon": 13.7069556, "tags": {"name": "Tj\u00e4rn", "place": "hamlet"}}, {"type": "node", "id": 7484629805, "lat": 59.6325578, "lon": 13.7597496, "tags": {"name": "K\u00e4gelholm", "place": "hamlet"}}, {"type": "node", "id": 7484630233, "lat": 59.6298449, "lon": 13.7533902, "tags": {"name": "Udden", "place": "hamlet"}}, {"type": "node", "id": 7484637506, "lat": 59.663431, "lon": 13.7555945, "tags": {"name": "V\u00e4stan\u00e5", "place": "hamlet"}}, {"type": "node", "id": 7484653036, "lat": 59.6526443, "lon": 13.7002993, "tags": {"name": "R\u00e5glanda", "place": "hamlet"}}, {"type": "node", "id": 7484657711, "lat": 59.6444092, "lon": 13.7108373, "tags": {"name": "F\u00f6ske", "place": "hamlet"}}, {"type": "node", "id": 7484677452, "lat": 59.6618852, "lon": 13.7610498, "tags": {"name": "Herr\u00e5n", "place": "hamlet"}}, {"type": "node", "id": 7484694578, "lat": 59.6351921, "lon": 13.6821001, "tags": {"name": "Persbol", "place": "hamlet"}}, {"type": "node", "id": 7484694852, "lat": 59.647901, "lon": 13.681226, "tags": {"name": "N\u00e4s", "place": "hamlet"}}, {"type": "node", "id": 7484696925, "lat": 59.6454912, "lon": 13.7021846, "tags": {"name": "Tidafors", "place": "hamlet"}}, {"type": "node", "id": 7484710957, "lat": 59.6526419, "lon": 13.644964, "tags": {"name": "Sj\u00f6stad", "place": "hamlet"}}, {"type": "node", "id": 7484719714, "lat": 59.6410099, "lon": 13.6338477, "tags": {"name": "Nordby", "place": "hamlet"}}, {"type": "node", "id": 7484735822, "lat": 59.6940046, "lon": 13.6036295, "tags": {"name": "\u00d6rtenbr\u00e5ten", "place": "hamlet"}}, {"type": "node", "id": 7484746902, "lat": 59.6730693, "lon": 13.6939588, "tags": {"name": "F\u00e4rnsviken", "place": "hamlet"}}, {"type": "node", "id": 7484749258, "lat": 59.6953636, "lon": 13.6356383, "tags": {"name": "Stensviken", "place": "hamlet"}}, {"type": "node", "id": 7484750389, "lat": 59.686749, "lon": 13.6111005, "tags": {"name": "Mj\u00f6n\u00e4s", "place": "hamlet"}}, {"type": "node", "id": 7484752306, "lat": 59.6681608, "lon": 13.632715, "tags": {"name": "H\u00f6gberg", "place": "hamlet"}}, {"type": "node", "id": 7484755134, "lat": 59.6852001, "lon": 13.6297423, "tags": {"name": "Torsked", "place": "hamlet"}}, {"type": "node", "id": 7484770509, "lat": 59.6701472, "lon": 13.6446889, "tags": {"name": "H\u00e5ltsbyn", "place": "hamlet"}}, {"type": "node", "id": 7484789137, "lat": 59.6905983, "lon": 13.681292, "tags": {"name": "Gr\u00e4s\u00e5s", "place": "hamlet"}}, {"type": "node", "id": 7484803499, "lat": 59.6763247, "lon": 13.6904163, "tags": {"name": "\u00c5sen", "place": "hamlet"}}, {"type": "node", "id": 7484807486, "lat": 59.6927337, "lon": 13.6829973, "tags": {"name": "\u00d6rten\u00e4storp", "place": "hamlet"}}, {"type": "node", "id": 7484809127, "lat": 59.7008917, "lon": 13.6814378, "tags": {"name": "Nyg\u00e5rden", "place": "hamlet"}}, {"type": "node", "id": 7484837635, "lat": 59.7141691, "lon": 13.8675919, "tags": {"name": "Ravellandet", "place": "hamlet"}}, {"type": "node", "id": 7484843320, "lat": 59.7021835, "lon": 13.8764575, "tags": {"name": "V\u00e4sterrud", "place": "hamlet"}}, {"type": "node", "id": 7484852037, "lat": 59.7281934, "lon": 13.6546233, "tags": {"name": "Sundfallet", "place": "hamlet"}}, {"type": "node", "id": 7484857708, "lat": 59.7208437, "lon": 13.6799248, "tags": {"name": "Lersj\u00f6n", "place": "hamlet"}}, {"type": "node", "id": 7484858455, "lat": 59.728709, "lon": 13.6119277, "tags": {"name": "Kvarn\u00e5sen", "place": "hamlet"}}, {"type": "node", "id": 7484875557, "lat": 59.7187132, "lon": 13.5726708, "tags": {"name": "Butorp", "place": "hamlet"}}, {"type": "node", "id": 7484879262, "lat": 59.710138, "lon": 13.6511022, "tags": {"name": "Sund\u00e4ngarna", "place": "hamlet"}}, {"type": "node", "id": 7484922117, "lat": 59.7322845, "lon": 13.8990799, "tags": {"name": "Paradisg\u00e5rd", "place": "hamlet"}}, {"type": "node", "id": 7484959799, "lat": 59.802187, "lon": 13.6973421, "tags": {"name": "Mangstorp", "place": "hamlet"}}, {"type": "node", "id": 7484996557, "lat": 59.8378253, "lon": 13.7565457, "tags": {"name": "Rud", "place": "hamlet"}}, {"type": "node", "id": 7485011084, "lat": 59.8490052, "lon": 13.7491489, "tags": {"name": "Gr\u00e4s", "place": "hamlet"}}, {"type": "node", "id": 7485012189, "lat": 59.8405752, "lon": 13.7537904, "tags": {"name": "Tj\u00e4rn", "place": "hamlet"}}, {"type": "node", "id": 7485026678, "lat": 59.8428559, "lon": 13.7218012, "tags": {"name": "Gr\u00f6n\u00e4s", "place": "hamlet"}}, {"type": "node", "id": 7485029432, "lat": 59.8508918, "lon": 13.7146043, "tags": {"name": "Asp\u00e5sen", "place": "hamlet"}}, {"type": "node", "id": 7485038142, "lat": 59.8564334, "lon": 13.7083324, "tags": {"name": "Viljamsbol", "place": "hamlet"}}, {"type": "node", "id": 7485043715, "lat": 59.8787896, "lon": 13.7046371, "tags": {"name": "Sundfallet", "place": "hamlet"}}, {"type": "node", "id": 7485073088, "lat": 59.8996083, "lon": 13.6979588, "tags": {"name": "Bj\u00f6rkils\u00e4ngarna", "place": "hamlet"}}, {"type": "node", "id": 7485085559, "lat": 59.8847778, "lon": 13.7327413, "tags": {"name": "T\u00f6mte", "place": "hamlet"}}, {"type": "node", "id": 7485091181, "lat": 59.8913834, "lon": 13.7250334, "tags": {"name": "Bj\u00f6rkil", "place": "hamlet"}}, {"type": "node", "id": 7485096850, "lat": 59.9057294, "lon": 13.6665911, "tags": {"name": "Nedre Lid", "place": "hamlet"}}, {"type": "node", "id": 7485102004, "lat": 59.8614028, "lon": 13.5976176, "tags": {"name": "Sl\u00e4ttheden", "place": "hamlet"}}, {"type": "node", "id": 7485121165, "lat": 59.8668354, "lon": 13.7069264, "tags": {"name": "Duven\u00e4s", "place": "hamlet"}}, {"type": "node", "id": 7485121681, "lat": 59.8774143, "lon": 13.7268886, "tags": {"name": "Tutemo", "place": "hamlet"}}, {"type": "node", "id": 7485141676, "lat": 59.9248007, "lon": 13.5980187, "tags": {"name": "Hult", "place": "hamlet"}}, {"type": "node", "id": 7485144837, "lat": 59.9432322, "lon": 13.6100204, "tags": {"name": "\u00c4ngk\u00e4rret", "place": "hamlet"}}, {"type": "node", "id": 7485144847, "lat": 59.9272693, "lon": 13.5963699, "tags": {"name": "G\u00e4rdet", "place": "hamlet"}}, {"type": "node", "id": 7485177203, "lat": 59.9342075, "lon": 13.5924904, "tags": {"name": "Kroksberg", "place": "hamlet"}}, {"type": "node", "id": 7485188141, "lat": 59.9399822, "lon": 13.675944, "tags": {"name": "Haftersbol", "place": "hamlet"}}, {"type": "node", "id": 7485202271, "lat": 59.9232395, "lon": 13.6617252, "tags": {"name": "Nore", "place": "hamlet"}}, {"type": "node", "id": 7485207347, "lat": 59.9100913, "lon": 13.6686883, "tags": {"name": "\u00d6vre Lid", "place": "hamlet"}}, {"type": "node", "id": 7485238512, "lat": 59.9554696, "lon": 13.6669834, "tags": {"name": "Backa", "place": "hamlet"}}, {"type": "node", "id": 7485421145, "lat": 59.7897613, "lon": 13.8270637, "tags": {"name": "Mon", "place": "hamlet"}}, {"type": "node", "id": 7485429590, "lat": 59.7561089, "lon": 13.8561568, "tags": {"name": "Svart\u00e5", "place": "hamlet"}}, {"type": "node", "id": 7590689997, "lat": 59.7228634, "lon": 13.1237483, "tags": {"name": "Aplung", "place": "hamlet"}}, {"type": "node", "id": 11034842180, "lat": 59.5201826, "lon": 13.4994077, "tags": {"name": "En\u00e5sen", "place": "hamlet"}}, {"type": "node", "id": 11098122592, "lat": 59.8717038, "lon": 13.5418868, "tags": {"name": "Moss\u00e4ngen", "place": "hamlet"}}, {"type": "node", "id": 11151433516, "lat": 59.7567679, "lon": 13.6995113, "tags": {"name": "Gr\u00e4sm\u00e5ngen", "place": "hamlet"}}, {"type": "node", "id": 11151433521, "lat": 59.7142778, "lon": 13.6775494, "tags": {"name": "Sten\u00e5sen", "place": "hamlet"}}, {"type": "node", "id": 11151433522, "lat": 59.6938137, "lon": 13.6627865, "tags": {"name": "\u00d6rten\u00e4s", "place": "hamlet"}}]}