{"version": 0.6, "generator": "Overpass API 0.7.61.5 4133829e", "osm3s": {"timestamp_osm_base": "2024-03-06T11:44:15Z", "copyright": "The data included in this document is from www.openstreetmap.org. The data is made available under ODbL."}, "elements": [{"type": "node", "id": 44910251, "lat": -3.4988022, "lon": 38.3257741, "tags": {"is_in": "Taita taveta,Kenya", "name": "Zare", "place": "village"}}, {"type": "node", "id": 44910355, "lat": -3.4783725, "lon": 38.3275962, "tags": {"is_in": "Taita taveta,Kenya", "name": "Wumari", "place": "village"}}, {"type": "node", "id": 44910366, "lat": -3.3666, "lon": 38.3333, "tags": {"GNS:id": "-2264771", "is_in": "Taita taveta,Kenya", "name": "Wumingo", "place": "village", "source:name": "GNS"}}, {"type": "node", "id": 44910389, "lat": -3.3842558, "lon": 38.3358978, "tags": {"GNS:id": "-2264690", "is_in": "Taita taveta,Kenya", "name": "Werugha", "place": "village", "source:name": "GNS"}}, {"type": "node", "id": 44917569, "lat": -3.4955935, "lon": 38.3351161, "tags": {"is_in": "Taita taveta,Kenya", "name": "Secho", "place": "village"}}, {"type": "node", "id": 44925808, "lat": -3.4166, "lon": 38.2666, "tags": {"is_in": "Taita taveta,Kenya", "name": "Mwanda", "place": "village", "wikidata": "Q6944655", "wikipedia": "en:Mwanda"}}, {"type": "node", "id": 44927153, "lat": -3.4343596, "lon": 38.2950461, "tags": {"is_in": "Taita taveta,Kenya", "name": "Mragua", "place": "village", "wikidata": "Q6929997", "wikipedia": "en:Mrugua"}}, {"type": "node", "id": 44930434, "lat": -3.4111904, "lon": 38.3196357, "tags": {"is_in": "Taita taveta,Kenya", "name": "Lushangonyi", "place": "village", "wikidata": "Q6705093", "wikipedia": "en:Lushangonyi"}}, {"type": "node", "id": 44930678, "lat": -3.4, "lon": 38.1333, "tags": {"is_in": "Taita taveta,Kenya", "name": "Maktau", "place": "town", "wikidata": "Q6740415", "wikipedia": "en:Maktau"}}, {"type": "node", "id": 44930706, "lat": -3.3289154, "lon": 38.3045332, "tags": {"is_in": "Taita taveta,Kenya", "name": "Makinyambu", "place": "village", "wikidata": "Q6739729", "wikipedia": "en:Makinyambu"}}, {"type": "node", "id": 45002503, "lat": -3.4175986, "lon": 38.3110114, "tags": {"is_in": "Taita taveta,Kenya", "name": "Dabida", "place": "village", "wikidata": "Q5207480", "wikipedia": "en:Dabida"}}, {"type": "node", "id": 651928762, "lat": -3.40141, "lon": 38.312998, "tags": {"name": "Mgange Nyika", "place": "village", "source": "GPS", "wikidata": "Q6826827", "wikipedia": "en:Mgange"}}, {"type": "node", "id": 4889543872, "lat": -3.2812769, "lon": 38.3011067, "tags": {"name": "Kishushe", "place": "village"}}, {"type": "node", "id": 4889685686, "lat": -3.4917999, "lon": 38.2722413, "tags": {"name": "Mwashuma", "place": "village"}}, {"type": "node", "id": 4911622721, "lat": -3.4263914, "lon": 38.2156025, "tags": {"name": "Msorongo", "place": "village"}}, {"type": "node", "id": 4911622723, "lat": -3.4348426, "lon": 38.2447892, "tags": {"name": "Kwa Mnengwa", "place": "village"}}, {"type": "node", "id": 4911643110, "lat": -3.5925344, "lon": 38.3354078, "tags": {"name": "Manoa", "place": "village"}}, {"type": "node", "id": 4911643112, "lat": -3.5820285, "lon": 38.3128436, "tags": {"name": "Kwakelele", "place": "village"}}, {"type": "node", "id": 4914567266, "lat": -3.4375427, "lon": 38.2005374, "tags": {"name": "Latika", "place": "village"}}, {"type": "node", "id": 4914567445, "lat": -3.5008393, "lon": 38.2826137, "tags": {"name": "Mukamenyi", "place": "village"}}, {"type": "node", "id": 4914651517, "lat": -3.4624944, "lon": 38.2632627, "tags": {"name": "Godoma", "place": "village"}}, {"type": "node", "id": 4914651857, "lat": -3.4991646, "lon": 38.312884, "tags": {"name": "Bura Station", "place": "village"}}, {"type": "node", "id": 4914651858, "lat": -3.4568776, "lon": 38.3124083, "tags": {"name": "Bura Mission", "place": "village"}}, {"type": "node", "id": 4914685875, "lat": -3.4625834, "lon": 38.336369, "tags": {"name": "Vichwala", "place": "village"}}, {"type": "node", "id": 4914685899, "lat": -3.4523076, "lon": 38.3378519, "tags": {"GNS:id": "-2263134", "name": "Susu", "place": "village", "source:name": "GNS"}}, {"type": "node", "id": 4914686143, "lat": -3.4362873, "lon": 38.3395376, "tags": {"GNS:id": "-2250416", "name": "Kidaya", "place": "village", "source:name": "GNS"}}, {"type": "node", "id": 4914783719, "lat": -3.4287635, "lon": 38.3422791, "tags": {"GNS:id": "-2259101", "name": "Ngerenyi", "place": "village", "source:name": "GNS"}}, {"type": "node", "id": 4914784864, "lat": -3.2757766, "lon": 38.3262011, "tags": {"name": "Kedai", "place": "village"}}, {"type": "node", "id": 4936679510, "lat": -3.4273726, "lon": 38.3081198, "tags": {"name": "Mwavunyu", "place": "village"}}, {"type": "node", "id": 4936815189, "lat": -3.3352797, "lon": 38.3335629, "tags": {"name": "Vomboni", "place": "village"}}, {"type": "node", "id": 5051066439, "lat": -3.418596, "lon": 38.3325989, "tags": {"name": "Ngeranyi", "place": "village"}}, {"type": "node", "id": 5051225084, "lat": -3.3509818, "lon": 38.3444914, "tags": {"name": "Kitumbi", "place": "village"}}, {"type": "node", "id": 5051225086, "lat": -3.3449881, "lon": 38.3405283, "tags": {"name": "Maghimbinyi", "place": "village"}}, {"type": "node", "id": 5051693054, "lat": -3.2509082, "lon": 38.327251, "tags": {"name": "Ngongodinyi", "place": "village"}}, {"type": "node", "id": 5056150817, "lat": -3.4328417, "lon": 38.3312642, "tags": {"name": "Saghaigu", "place": "village"}}, {"type": "node", "id": 5058695176, "lat": -3.3542855, "lon": 38.3170923, "tags": {"name": "Mwakishimba", "place": "village"}}, {"type": "node", "id": 5058710615, "lat": -3.3535203, "lon": 38.3323701, "tags": {"name": "Kishenyi", "place": "village"}}, {"type": "node", "id": 5058743258, "lat": -3.3702657, "lon": 38.3082146, "tags": {"name": "Mwaroko", "place": "village"}}, {"type": "node", "id": 5058767754, "lat": -3.4119911, "lon": 38.3074505, "tags": {"name": "Mwangea", "place": "village"}}, {"type": "node", "id": 5058805219, "lat": -3.3977441, "lon": 38.3244206, "tags": {"name": "Mdundonyi", "place": "village"}}]}