{"version": 0.6, "generator": "Overpass API 0.7.61.5 4133829e", "osm3s": {"timestamp_osm_base": "2024-03-05T13:45:00Z", "copyright": "The data included in this document is from www.openstreetmap.org. The data is made available under ODbL."}, "elements": [{"type": "node", "id": 318091652, "lat": 36.7356491, "lon": 69.5350725, "tags": {"ele": "876", "name": "\u062a\u0627\u0644\u0642\u0627\u0646", "name:ar": "\u062a\u0627\u0644\u0642\u0627\u0646", "name:cs": "T\u00e1loq\u00e1n", "name:de": "Taluqan", "name:el": "\u03a4\u03b1\u03bb\u03bf\u03ba\u03ac\u03bd", "name:en": "Taloqan", "name:et": "T\u0101loq\u0101n", "name:fa": "\u062a\u0627\u0644\u0642\u0627\u0646", "name:fr": "T\u00e2loq\u00e2n", "name:hi": "\u0924\u093e\u0932\u094b\u0915\u093c\u093e\u0928", "name:hu": "Taluk\u00e1n", "name:ja": "\u30bf\u30fc\u30eb\u30ab\u30fc\u30f3", "name:ko": "\ud0c8\ub85c\uce78", "name:ml": "\u0d24\u0d3e\u0d32\u0d4b\u0d16\u0d3e\u0d7b", "name:pnb": "\u062a\u0627\u0644\u0642\u0627\u0646", "name:ps": "\u0637\u0627\u0644\u0642\u0627\u0646", "name:ru": "\u0422\u0430\u043b\u0443\u043a\u0430\u043d", "name:uk": "\u0422\u0430\u043b\u0443\u043a\u0430\u043d", "name:ur": "\u0637\u0627\u0644\u0642\u0627\u0646", "name:zh": "\u5854\u5362\u574e/\u5854\u76e7\u574e", "name:zh-Hans": "\u5854\u5362\u574e", "name:zh-Hant": "\u5854\u76e7\u574e", "place": "city", "population": "196400", "wikidata": "Q477238", "wikipedia": "ps:\u0637\u0627\u0644\u0642\u0627\u0646", "wikipedia:ar": "\u062a\u0627\u0644\u0642\u0627\u0646", "wikipedia:fa": "\u062a\u0627\u0644\u0642\u0627\u0646", "wikipedia:ps": "\u0637\u0627\u0644\u0642\u0627\u0646", "wikipedia:ur": "\u0637\u0627\u0644\u0642\u0627\u0646"}}, {"type": "node", "id": 1137415386, "lat": 36.7444578, "lon": 69.9413377, "tags": {"name": "Zardalu-Darrah-i-Pa'in", "place": "hamlet"}}, {"type": "node", "id": 1137415398, "lat": 36.7350416, "lon": 69.9593622, "tags": {"name": "Zardalu-Darrah-i-Bala", "place": "hamlet"}}, {"type": "node", "id": 1137415409, "lat": 36.775195, "lon": 69.9406683, "tags": {"name": "\u06a9\u0644\u0641\u06af\u0627\u0646", "name:en": "Kalafgan", "name:ps": "\u06a9\u0644\u0641\u06af\u0627\u0646", "name:ru": "\u041a\u0430\u043b\u0430\u0444\u0433\u0430\u043d", "place": "town", "source:name": "GNS"}}, {"type": "node", "id": 3981820792, "lat": 36.7257547, "lon": 69.5558391, "tags": {"name": "Zargari", "place": "village"}}, {"type": "node", "id": 4389118078, "lat": 36.528336, "lon": 69.539085, "tags": {"alt_name": "Cal;Chal", "name": "\u0686\u0627\u0644", "name:en": "Chal'", "name:ps": "\u0686\u0627\u0644", "name:ru": "\u0427\u0430\u043b\u044c", "place": "town", "source:name": "GNS"}}, {"type": "node", "id": 4389126406, "lat": 36.615952, "lon": 69.593735, "tags": {"alt_name": "Shulesh Darrah;Shulishdara;Sules Darrah;Shulesh Darreh", "name": "\u0634\u0648\u0644\u0634 \u062f\u0631\u0647", "name:en": "Shulish Darah", "name:ps": "\u0634\u0648\u0644\u0634 \u062f\u0631\u0647", "name:ru": "\u0428\u0443\u043b\u0438\u0448\u0434\u0430\u0440\u0430", "place": "village", "source:name": "GNS"}}, {"type": "node", "id": 4389126407, "lat": 36.619217, "lon": 69.628052, "tags": {"alt_name": "\u062a\u0627\u0642\u0686\u0647 \u062e\u0627\u0646\u0647;Taqca Khana;Taqcheh Khaneh", "name": "\u0637\u0627\u0642\u0686\u0647 \u062e\u0627\u0646\u0647", "name:en": "Taqchah Khanah", "name:ps": "\u0637\u0627\u0642\u0686\u0647 \u062e\u0627\u0646\u0647", "place": "village", "source:name": "GNS"}}, {"type": "node", "id": 4389129855, "lat": 36.572884, "lon": 69.857834, "tags": {"name": "\u0641\u0631\u062e\u0627\u0631", "name:en": "Farkhar", "name:ps": "\u0641\u0631\u062e\u0627\u0631", "place": "town", "source:name": "GNS"}}, {"type": "node", "id": 7486263236, "lat": 36.4447845, "lon": 69.5526731, "tags": {"place": "hamlet"}}, {"type": "node", "id": 7486263237, "lat": 36.4488062, "lon": 69.5416009, "tags": {"place": "hamlet"}}, {"type": "node", "id": 7486263238, "lat": 36.43895, "lon": 69.5726287, "tags": {"place": "hamlet"}}, {"type": "node", "id": 7486263239, "lat": 36.4368267, "lon": 69.579066, "tags": {"place": "hamlet"}}, {"type": "node", "id": 7486263240, "lat": 36.4314404, "lon": 69.5947516, "tags": {"place": "hamlet"}}, {"type": "node", "id": 7486263241, "lat": 36.4279875, "lon": 69.603163, "tags": {"place": "village"}}, {"type": "node", "id": 7487193064, "lat": 36.4183884, "lon": 69.9350499, "tags": {"place": "village"}}, {"type": "node", "id": 7487193127, "lat": 36.3698605, "lon": 69.9134755, "tags": {"place": "village"}}, {"type": "node", "id": 7489802000, "lat": 36.5890149, "lon": 69.5276172, "tags": {"place": "village"}}, {"type": "node", "id": 7489858392, "lat": 36.6125575, "lon": 69.4968399, "tags": {"place": "hamlet"}}, {"type": "node", "id": 7489858394, "lat": 36.6178623, "lon": 69.4760431, "tags": {"place": "village"}}, {"type": "node", "id": 7489858424, "lat": 36.6493896, "lon": 69.4801805, "tags": {"place": "hamlet"}}]}