{"version": 0.6, "generator": "Overpass API 0.7.61.5 4133829e", "osm3s": {"timestamp_osm_base": "2024-03-05T11:24:46Z", "copyright": "The data included in this document is from www.openstreetmap.org. The data is made available under ODbL."}, "elements": [{"type": "node", "id": 4257896778, "lat": 5.2923559, "lon": -2.7926518, "tags": {"amenity": "pharmacy", "name": "Pharmacie Slalom", "projet:eboci": "yes"}}, {"type": "node", "id": 4271991095, "lat": 5.2834282, "lon": -2.7958236}, {"type": "node", "id": 4634586849, "lat": 5.0222925, "lon": -2.7268394}, {"type": "node", "id": 4634586850, "lat": 5.0223244, "lon": -2.7269837}, {"type": "node", "id": 4634586851, "lat": 5.022533, "lon": -2.7267858}, {"type": "node", "id": 4634586852, "lat": 5.0225649, "lon": -2.7269301}, {"type": "node", "id": 7321882985, "lat": 5.2868169, "lon": -2.7713319, "tags": {"addr:postcode": "00233", "amenity": "clinic", "name": "Elubo Health Center", "opening_hours": "24/7"}}, {"type": "node", "id": 7325200485, "lat": 5.290174, "lon": -2.7774759, "tags": {"addr:housenumber": "A/25", "addr:postcode": "00233", "addr:street": "Takoradi Station", "amenity": "pharmacy", "name": "Hands of God (Thomas Voduh Mensah)", "opening_hours": "Mo-Sa 07:00-20:00", "operator": "Vincent Akakpo Voduh", "phone": "+233243246134"}}, {"type": "node", "id": 7325282485, "lat": 5.2906085, "lon": -2.7775193, "tags": {"addr:housenumber": "K79", "addr:postcode": "00233", "addr:street": "Main Street", "amenity": "pharmacy", "name": "Armstrong Ampontuah", "opening_hours": "Mo-Su 09:00-18:00", "operator": "Armstrong Ampontuah"}}, {"type": "node", "id": 7325296085, "lat": 5.2897445, "lon": -2.7786723, "tags": {"addr:postcode": "00233", "addr:street": "N1 Highway", "amenity": "pharmacy", "email": "maryarkoh44@gmail.com", "name": "Phinas Pharmacy", "opening_hours": "Mo-Sa 07:00-18:00", "operator": "Freda Bonifacio", "phone": "+233501289994"}}, {"type": "node", "id": 7325524085, "lat": 5.2924486, "lon": -2.7767363, "tags": {"addr:postcode": "00233", "addr:street": "4 corners", "amenity": "pharmacy", "name": "4 Corners Herbal Centre", "opening_hours": "Mo-Su 06:00-21:00", "operator": "Adjaloo", "phone": "+233570855335"}}, {"type": "node", "id": 7325524185, "lat": 5.2927949, "lon": -2.7772182, "tags": {"addr:postcode": "00233", "addr:street": "4 corners", "amenity": "pharmacy", "name": "Joseph Amoah Pharmacy", "opening_hours": "Mo-Sa 07:00-21:00", "operator": "Joseph Amoah", "phone": "+233248162626"}}, {"type": "node", "id": 7325598086, "lat": 5.2916319, "lon": -2.7770656, "tags": {"addr:housenumber": "56/13", "addr:postcode": "00233", "addr:street": "Gyinakro main road", "amenity": "pharmacy", "name": "Albert A. Arma", "name:en": "Albert A. Arma pharmacy", "opening_hours": "Mo-Sa 07:30-21:00", "operator": "Albert A. Arma", "phone": "+233248031826"}}, {"type": "node", "id": 7325598087, "lat": 5.2915113, "lon": -2.7759331, "tags": {"addr:postcode": "00233", "addr:street": "18 street", "amenity": "pharmacy", "name": "God's Time Chemicals -Michael Ansah Sagu", "opening_hours": "Mo-Su 07:00-19:00", "operator": "Michael Ansah Sagu", "phone": "+233243779393"}}, {"type": "node", "id": 7325610485, "lat": 5.2916478, "lon": -2.7746813, "tags": {"addr:postcode": "00233", "addr:street": "Daadwene", "amenity": "pharmacy", "name": "James Nyianle Kwaw", "opening_hours": "Mo-Sa 07:00-21:00", "operator": "James Nyianle Kwaw", "phone": "+233242899944"}}, {"type": "node", "id": 7325629085, "lat": 5.2907287, "lon": -2.7773463, "tags": {"addr:housenumber": "E/77", "addr:postcode": "00233", "addr:street": "Main Street", "amenity": "pharmacy", "name": "Nyankson Amihere", "operator": "Mary Armah", "phone": "+233540892740"}}, {"type": "node", "id": 7325629086, "lat": 5.2908988, "lon": -2.7772525, "tags": {"addr:postcode": "00233", "addr:street": "Main Street", "amenity": "pharmacy", "name": "Danfoss chemicals", "opening_hours": "Mo-Su 08:00-22:00", "operator": "Frank Asirifi", "phone": "+233244117817"}}, {"type": "node", "id": 7325629087, "lat": 5.2919803, "lon": -2.7712444, "tags": {"addr:postcode": "00233", "addr:street": "Zongo street", "amenity": "pharmacy", "healthcare": "pharmacy", "name": "Thomas Amonle Pharmacy", "opening_hours": "Mo-Sa 07:00-22:00", "operator": "Thomas Amonle", "phone": "+233248960067"}}, {"type": "node", "id": 7329467685, "lat": 5.289648, "lon": -2.7782106, "tags": {"addr:postcode": "00233", "addr:street": "N1 Highway", "amenity": "pharmacy", "name": "St. Martin's Chemists", "opening_hours": "Mo-Sa 07:00-18:00", "operator": "Martin Ackah", "phone": "+233244182114"}}, {"type": "node", "id": 7329666985, "lat": 5.2882138, "lon": -2.7717155, "tags": {"addr:postcode": "00233", "addr:street": "N1 Highway", "amenity": "pharmacy", "name": "Agnes Allah Pharmacy", "operator": "Agnes Allah"}}, {"type": "node", "id": 7329667185, "lat": 5.2894878, "lon": -2.7748077, "tags": {"addr:postcode": "00233", "addr:street": "N1 Highway", "amenity": "clinic", "email": "adjeiotubuah@yahoo.com", "name": "Frontier Clinic", "opening_hours": "24/7", "phone": "+233207378531/+233547419641"}}, {"type": "node", "id": 7329793485, "lat": 5.2900437, "lon": -2.7773217, "tags": {"addr:postcode": "00233", "amenity": "pharmacy", "email": "vins2020@yahoo.com", "name": "Vins Pharmacy", "opening_hours": "Mo-Sa 08:00-20:00", "phone": "+233244408593"}}, {"type": "node", "id": 7507550514, "lat": 5.2833587, "lon": -2.7957163}, {"type": "node", "id": 7507550515, "lat": 5.2831424, "lon": -2.7958585}, {"type": "node", "id": 7507550516, "lat": 5.283276, "lon": -2.7960704}, {"type": "node", "id": 7507550517, "lat": 5.2833507, "lon": -2.7960221}, {"type": "node", "id": 7507550518, "lat": 5.283284, "lon": -2.7959202}, {"type": "node", "id": 7581511128, "lat": 5.0433587, "lon": -2.4650394, "tags": {"amenity": "hospital", "healthcare": "hospital", "name": "Aiyinase Clinic"}}, {"type": "node", "id": 7581519435, "lat": 5.0494087, "lon": -2.4797998, "tags": {"addr:city": "Menzezor", "amenity": "hospital", "healthcare": "hospital", "name": "Nana Benie Memorial Health Centre"}}, {"type": "node", "id": 7600226974, "lat": 5.0626406, "lon": -2.7766584, "tags": {"amenity": "pharmacy", "dispensing": "yes", "healthcare": "pharmacy"}}, {"type": "node", "id": 7600226975, "lat": 5.0629333, "lon": -2.7771963, "tags": {"amenity": "pharmacy", "dispensing": "yes", "healthcare": "pharmacy"}}, {"type": "node", "id": 7706543085, "lat": 4.9832476, "lon": -2.5690692, "tags": {"amenity": "clinic", "name": "Ekebaku Health Centre", "operator": "GHS"}}, {"type": "node", "id": 7746284986, "lat": 5.0756155, "lon": -2.5424768, "tags": {"amenity": "hospital", "name": "Nzema Baptist Hospital"}}, {"type": "way", "id": 469045230, "nodes": [4634586851, 4634586849, 4634586850, 4634586852, 4634586851], "tags": {"amenity": "clinic", "building": "yes", "name": "Our Lady Of Fatima Clinic"}}, {"type": "way", "id": 802606170, "nodes": [4271991095, 7507550514, 7507550515, 7507550516, 7507550517, 7507550518, 4271991095], "tags": {"amenity": "hospital", "building": "hospital", "healthcare": "hospital", "healthcare:speciality": "clinic", "name": "Centre de Sant\u00e9 Urbain de No\u00e9", "operator": "Minist\u00e8re de la Sant\u00e9", "operator:wikidata": "Q25203092", "operator:wikipedia": "en:Ministry of Health and the Fight against AIDS (Ivory Coast)", "projet:eboci": "yes", "short_name": "CSU de No\u00e9", "source": "survey;gps"}}]}