{"version": 0.6, "generator": "Overpass API 0.7.61.5 4133829e", "osm3s": {"timestamp_osm_base": "2024-03-05T13:51:03Z", "copyright": "The data included in this document is from www.openstreetmap.org. The data is made available under ODbL."}, "elements": [{"type": "node", "id": 4406608989, "lat": 32.241391, "lon": 62.949361, "tags": {"alt_name": "\u0633\u0644\u0637\u0627\u0646 \u0628\u06a9\u0648\u0627\u0647;\u0645\u0631\u06a9\u0632 \u062d\u06a9\u0648\u0645\u062a \u0633\u0644\u0637\u0627\u0646 \u0628\u06a9\u0648\u0627;Markaz-e Hukumat-e Sultan-e Bakwa;Sultan-e Bakwah;Markaz-e Hokumat-e Soltan-e Bakva;Soltan-e Bakva;Sultane Bakwa;Sultan Bakhwa;Bakwah;Markaze Hokumate Sultane Bakwa;Bakva;Soltan Bakvah;Markaz-e Hukumat-e Sultan-e Bakwah", "name": "\u0645\u0631\u06a9\u0632 \u062d\u06a9\u0648\u0645\u062a \u0633\u0644\u0637\u0627\u0646 \u0628\u06a9\u0648\u0627\u0647", "name:en": "Sultan Bakwa", "name:ps": "\u0645\u0631\u06a9\u0632 \u062d\u06a9\u0648\u0645\u062a \u0633\u0644\u0637\u0627\u0646 \u0628\u06a9\u0648\u0627\u0647", "name:ru": "Markazi-Khukumati-Sultani-Bakva", "place": "town", "source:name": "GNS"}}, {"type": "node", "id": 4406608990, "lat": 32.234716, "lon": 62.945444, "tags": {"alt_name": "\u0633\u0644\u0637\u0627\u0646 \u0628\u06a9\u0648\u0627;Sultan-e Bakwah", "name": "\u0633\u0644\u0637\u0627\u0646 \u0628\u06a9\u0648\u0627\u0647", "name:en": "Sultan-e Bakwa", "name:ps": "\u0633\u0644\u0637\u0627\u0646 \u0628\u06a9\u0648\u0627\u0647", "place": "village", "source:name": "GNS"}}, {"type": "node", "id": 6398413287, "lat": 32.3140073, "lon": 62.7318466, "tags": {"place": "hamlet"}}, {"type": "node", "id": 6401745258, "lat": 32.2621135, "lon": 62.7476099, "tags": {"place": "hamlet"}}, {"type": "node", "id": 8378234513, "lat": 31.9190954, "lon": 63.1177573, "tags": {"name": "\u0631\u0627\u06a9\u0646", "name:en": "Raken", "place": "village"}}, {"type": "node", "id": 8440819341, "lat": 31.9343172, "lon": 62.7709048, "tags": {"name": "\u06af\u0627\u0631\u062f\u0648", "name:en": "Gardu", "place": "village"}}]}