{"version": 0.6, "generator": "Overpass API 0.7.61.5 4133829e", "osm3s": {"timestamp_osm_base": "2024-03-06T11:17:45Z", "copyright": "The data included in this document is from www.openstreetmap.org. The data is made available under ODbL."}, "elements": [{"type": "node", "id": 470018430, "lat": 36.0848077, "lon": 44.6276893, "tags": {"alt_name:ckb": "\u06a9\u06c6\u06cc\u06d5", "alt_name:ku": "Koysinciq", "capital": "6", "is_in:country": "Iraq", "is_in:country_code": "IQ", "name": "\u06a9\u06c6\u06cc\u06d5", "name:ar": "\u0643\u0648\u064a\u0633\u0646\u062c\u0642", "name:ckb": "\u06a9\u06c6\u06cc\u06d5", "name:de": "Koya", "name:en": "koya", "name:es": "Koy Sanjaq", "name:fr": "Koy Sanjaq", "name:ja": "\u30b3\u30a4\u30b8\u30f3\u30b8\u30e3\u30af", "name:ku": "Koye", "name:ml": "\u0d15\u0d4b\u0d2f\u0d4d\u200c\u0d38\u0d7b\u0d1c\u0d3e\u0d15\u0d4d\u0d15\u0d4d", "name:ru": "\u041a\u0451\u0439-\u0421\u0430\u043d\u0434\u0436\u0430\u043a", "name:tr": "K\u00f6ysancak", "place": "town", "population": "44987", "population:date": "2009", "postal_code": "44023", "wikidata": "Q1778824", "wikipedia": "ckb:\u06a9\u06c6\u06cc\u06d5"}}, {"type": "node", "id": 2488125587, "lat": 35.7790108, "lon": 44.8451047, "tags": {"name": "\u06a9\u06c6\u0632\u06d5\u0628\u06c6\u0631\u06d5", "name:ar": "\u0643\u0648\u0632\u0628\u0648\u0631\u0629", "name:ckb": "\u06a9\u06c6\u0632\u06d5\u0628\u06c6\u0631\u06d5", "name:en": "Kozabora", "name:ku": "Kozebore", "place": "village", "wikidata": "Q65404455", "wikipedia": "ckb:\u06a9\u06c6\u0632\u06d5\u0628\u06c6\u0631\u06d5"}}, {"type": "node", "id": 2488125618, "lat": 35.8094533, "lon": 44.9182153, "tags": {"alt_name": "\u0634\u064a\u0648\u064a \u0628\u0648\u0632\u064a\u0631", "int_name": "Sh\u012bw\u012b B\u016bz\u012br, \u0634\u064a\u0648\u064a \u0628\u0648\u0632\u064a\u0631, Shiwi Buzir, \u0634\u064a\u0648\u064a \u0628\u0648\u0632\u064a\u0631", "is_in": "Iraq , \u062c\u0645\u0647\u0648\u0631\u064a\u0629 \u0627\u0644\u0639\u0631\u0627\u0642", "name": "\u0633\u06c6\u062a\u06a9\u06d5", "name:ar": "\u0633\u0648\u062a\u06a9\u0629", "name:ar1": "\u0634\u064a\u0648\u064a \u0628\u0648\u0632\u064a\u0631", "name:de": "Sotke", "name:en": "Sotke", "name:fr": "Sotke", "place": "village", "wikidata": "Q65404294", "wikipedia": "ckb:\u0633\u06c6\u062a\u06a9\u06d5\u060c \u0626\u0627\u063a\u062c\u06d5\u0644\u06d5\u0631"}}, {"type": "node", "id": 2488125945, "lat": 35.7799059, "lon": 44.876561, "tags": {"name": "\u062f\u0627\u06b5\u0627\u0648\u0627\u06cc \u06a9\u0648\u0631\u062f\u0627\u0646", "name:ar": "\u062f\u0627\u0644\u0627\u0648\u0627\u06a9\u0631\u062f\u0627\u0646", "name:de": "Dalawa Kurdan", "name:en": "Dalawa Kurdan", "name:fr": "Dalawa Kurdan", "place": "village", "wikidata": "Q65404286", "wikipedia": "ckb:\u062f\u0627\u06b5\u0627\u0648\u0627\u06a9\u0648\u0631\u062f\u0627\u0646"}}, {"type": "node", "id": 2488191317, "lat": 36.0441772, "lon": 44.7390039, "tags": {"name": "\u0626\u0627\u0648\u062f\u06d5\u0644\u06c6\u06a9", "name:ar": "\u0622\u0648\u062f\u0644\u0648\u0643", "name:ckb": "\u0626\u0627\u0648\u062f\u06d5\u0644\u06c6\u06a9", "name:en": "Awdalok", "name:ku": "Awdelok", "place": "village", "wikipedia": "ckb:\u0626\u0627\u0648\u062f\u06d5\u0644\u06c6\u06a9"}}, {"type": "node", "id": 2488191348, "lat": 36.0428651, "lon": 44.7604603, "tags": {"alt_name": "\u062d\u0627\u062c\u064a \u0642\u0644\u0639\u0629", "int_name": "Haje Qala, Haji Qalah, Haji Qala, \u1e28\u0101jj\u012b Qalah, Haje Qala, Haji Qalah, Haji Qala, Hajji Qalah", "is_in": "Iraq , \u062c\u0645\u0647\u0648\u0631\u064a\u0629 \u0627\u0644\u0639\u0631\u0627\u0642", "name": "\u062d\u0627\u062c\u06cc \u0642\u06d5\u06b5\u0627", "name:ar": "\u062d\u0627\u062c\u064a \u0642\u0629\u0644\u0627", "name:ar1": "\u062d\u0627\u062c\u064a \u0642\u0644\u0639\u0629", "name:ckb": "\u062d\u0627\u062c\u06cc \u0642\u0627\u0644\u06d5", "name:de": "Haje Qala", "name:en": "Haje Qala", "name:fr": "Haje Qala", "place": "village"}}, {"type": "node", "id": 2488191402, "lat": 36.070833, "lon": 44.662778, "tags": {"name": "\u0647\u06d5\u0648\u0627\u0648\u0627\u0646 \u062e\u0648\u0627\u0631\u0648\u0648", "place": "village"}}, {"type": "node", "id": 2488191406, "lat": 36.0699394, "lon": 44.6940934, "tags": {"name": "\u0642\u06d5\u06cc\u0633\u06d5\u0631\u06cc", "name:ar": "\u0642\u064a\u0635\u0631\u064a", "name:ckb": "\u0642\u06d5\u06cc\u0633\u06d5\u0631\u06cc", "name:en": "Qaisari", "name:ku": "Qeyser\u00ee", "place": "village", "wikipedia": "ckb:\u0642\u06d5\u06cc\u0633\u06d5\u0631\u06cc\u060c \u06a9\u06c6\u06cc\u06d5"}}, {"type": "node", "id": 2488191854, "lat": 36.028722, "lon": 44.697111, "tags": {"alt_name": "\u0628\u0627\u0645\u0631\u062f\u0643\u0627\u0646", "int_name": "Bamordkan, B\u0101murdk\u0101n, Bamurtkan, \u0628\u0627\u0645\u0631\u062f\u0643\u0627\u0646, Bamordkan, Bamurdkan, Bamurtkan, \u0628\u0627\u0645\u0631\u062f\u0643\u0627\u0646", "name": "\u0628\u0627\u0645\u0648\u0631\u062a\u06a9\u0627\u0646", "name:ar": "\u0628\u0627\u0645\u0648\u0631\u062f\u0643\u0627\u0646", "name:ar1": "\u0628\u0627\u0645\u0631\u062f\u0643\u0627\u0646", "name:de": "Bamordkan", "name:en": "Bamordkan", "name:fr": "Bamordkan", "place": "village"}}, {"type": "node", "id": 2488191959, "lat": 36.011431, "lon": 44.727166, "tags": {"name": "\u062a\u06cc\u0645\u0627\u0631\u06c6\u06a9", "name:ar": "\u062a\u064a\u0645\u0627\u0631\u0648\u0643", "name:ckb": "\u062a\u06cc\u0645\u0627\u0631\u06c6\u06a9", "name:en": "Timarok", "name:ku": "T\u00eemarok", "place": "village", "wikipedia": "ckb:\u062a\u06cc\u0645\u0627\u0631\u06c6\u06a9"}}, {"type": "node", "id": 2488191984, "lat": 36.067361, "lon": 44.608, "tags": {"name": "\u0647\u06d5\u0631\u0645\u06c6\u062a\u06d5", "name:ar": "\u0647\u06d5\u0631\u0645\u06c6\u062a\u06d5", "name:de": "Hrmuta", "name:en": "Hrmuta", "name:fr": "Hrmuta", "place": "village", "wikidata": "Q4793768"}}, {"type": "node", "id": 2488191988, "lat": 36.0390686, "lon": 44.6045633, "tags": {"name": "\u0634\u06cc\u0644\u06d5", "name:ar": "\u0634\u064a\u0644\u0647", "name:ckb": "\u0634\u06cc\u0644\u06d5", "name:en": "Shila", "name:ku": "\u015e\u00eele", "place": "village", "wikipedia": "ckb:\u0634\u06cc\u0644\u06d5"}}, {"type": "node", "id": 2488191989, "lat": 36.070713, "lon": 44.625611, "tags": {"alt_name": "\u062a\u0648\u0643\u0629", "int_name": "fidrally, fidrally", "name": "\u062a\u0648\u0643\u0629", "name:ar": "\u0641\u062f\u0631\u0627\u0644\u064a", "name:ar1": "\u062a\u0648\u0643\u0629", "name:de": "fidrally", "name:en": "fidrally", "name:fr": "fidraly", "place": "village"}}, {"type": "node", "id": 2488191990, "lat": 36.0421709, "lon": 44.6432851, "tags": {"alt_name": "\u064a\u0627\u0631\u0645\u0634", "int_name": "Y\u0101ramish, Yaramish", "name": "\u06cc\u0627\u0631\u0645\u06cc\u0634", "name:ar": "\u064a\u0627\u0631\u0629\u0645\u064a\u0634", "name:ar1": "\u064a\u0627\u0631\u0645\u0634", "name:ckb": "\u06cc\u0627\u0631\u0645\u06cc\u0634", "name:de": "Yaramish", "name:en": "Yaramish", "name:fr": "Yaramish", "place": "village"}}, {"type": "node", "id": 2488192315, "lat": 36.0112991, "lon": 44.6552018, "tags": {"alt_name": "\u0634\u0648\u062c\u064a\u0631", "int_name": "Shawgir, Shiwkir, Sh\u014dgir, Sh\u016bj\u012br, \u0634\u0648\u062c\u064a\u0631, Shawgir, Shiwkir, Shogir, Shujir, \u0634\u0648\u062c\u064a\u0631", "name": "\u0634\u06d5\u0648\u06af\u06ce\u0695", "name:ar": "\u0634\u0629\u0648\u0643\u064a\u0631", "name:ar1": "\u0634\u0648\u062c\u064a\u0631", "name:ckb": "\u0634\u06d5\u0648\u06af\u06ce\u0695", "name:de": "Shawgir", "name:en": "Shawgir", "name:fr": "Shawgir", "place": "village"}}, {"type": "node", "id": 2488192711, "lat": 36.0358851, "lon": 44.5727485, "tags": {"alt_name": "\u0625\u0645\u0627\u0645 \u0642\u0644\u064a\u0646\u062c", "int_name": "Im\u0101m Qil\u012bnj, Mam Qilini, M\u0101m Qil\u012bnj, Mam Qlenj, Mam Qlinj, \u0627\u0645\u0627\u0645 \u0642\u0644\u064a\u0646\u062c, \u0645\u0627\u0645 \u0642\u0644\u064a\u0646\u062c, Imam Qilinj, Mam Qilini, Mam Qilinj, Mam Qlenj, Mam Qlinj, \u0627\u0645\u0627\u0645 \u0642\u0644\u064a\u0646\u062c, \u0645\u0627\u0645 \u0642\u0644\u064a\u0646\u062c", "name": "\u0645\u0627\u0645 \u0642\u0644\u06cc\u0646\u062c", "name:ar": "\u0645\u0627\u0645 \u0642\u0644\u064a\u0646\u062c", "name:ar1": "\u0625\u0645\u0627\u0645 \u0642\u0644\u064a\u0646\u062c", "name:de": "Imam Qilinj", "name:en": "Imam Qilinj", "name:fr": "Imam Qilinj", "place": "village"}}, {"type": "node", "id": 2488192712, "lat": 36.044306, "lon": 44.551611, "tags": {"name": "\u06a9\u06ce\u0644\u06d5\u0633\u067e\u06cc", "name:ckb": "\u06a9\u06ce\u0644\u06d5\u0633\u067e\u06cc", "name:en": "Kelaspi", "name:ku": "K\u00ealesp\u00ee", "place": "village", "wikipedia": "ckb:\u06a9\u06ce\u0644\u06d5\u0633\u067e\u06cc"}}, {"type": "node", "id": 2488193490, "lat": 36.0041116, "lon": 44.5953824, "tags": {"alt_name": "\u062f\u0627\u0631 \u0628\u0631\u0629", "int_name": "D\u0101r Barah, \u062f\u0627\u0631 \u0628\u0631\u0629, Dar Barah, \u062f\u0627\u0631 \u0628\u0631\u0629", "name": "\u062f\u0627\u0631\u0628\u06d5\u0695\u0648\u0648", "name:ar": "\u062f\u0627\u0631 \u0628\u0647 \u0631\u0648\u0648", "name:ar1": "\u062f\u0627\u0631 \u0628\u0631\u0629", "name:de": "Dar Barah", "name:en": "Dar Barw", "name:fr": "Dar Barah", "name:ku": "\u062f\u0627\u0631 \u0628\u06d5\u0695\u0648\u0648", "place": "village"}}, {"type": "node", "id": 2488193523, "lat": 35.9670981, "lon": 44.6121572, "tags": {"name": "\u06a9\u0648\u0646\u06d5\u06af\u0648\u0631\u06af", "name:ar": "\u0643\u0648\u0646\u0629\u0643\u0648\u0631\u0643", "name:ckb": "\u06a9\u0648\u0646\u06d5\u06af\u0648\u0631\u06af", "name:en": "Kunagurg", "name:ku": "Kunegurg", "place": "village", "wikipedia": "ckb:\u06a9\u0648\u0646\u06d5\u06af\u0648\u0631\u06af"}}, {"type": "node", "id": 2488193567, "lat": 35.954188, "lon": 44.5568216, "tags": {"name": "\u062a\u0627\u06b5\u06d5\u0628\u0627\u0646\u06cc \u0628\u0686\u0648\u0648\u06a9", "name:ckb": "\u062a\u0627\u06b5\u06d5\u0628\u0627\u0646 \u0628\u0686\u0648\u0648\u06a9", "name:en": "Taliban Bchwk", "place": "village"}}, {"type": "node", "id": 2488195264, "lat": 36.0843921, "lon": 44.5459976, "tags": {"alt_name": "\u0634\u064a\u062e \u0631\u0648\u0627\u0646", "int_name": "Shaykh Raw\u0101n, \u0634\u064a\u062e \u0631\u0648\u0627\u0646, Shaykh Rawan, \u0634\u064a\u062e \u0631\u0648\u0627\u0646", "name": "\u0634\u06ce\u062e \u0626\u06d5\u0644\u0648\u0627\u0646", "name:ar": "\u0634\u064a\u062e \u0631\u0648\u0627\u0646", "name:ar1": "\u0634\u064a\u062e \u0631\u0648\u0627\u0646", "name:de": "Shaykh Rawan", "name:en": "Shaykh Rawan", "name:fr": "Shaykh Rawan", "place": "village"}}, {"type": "node", "id": 2488269106, "lat": 35.7757813, "lon": 44.5871622, "tags": {"name": "\u062f\u0648\u0648\u0634\u06cc\u0648\u0627\u0646", "name:ar": "\u062f\u0648\u0634\u064a\u0648\u0627\u0646", "name:ckb": "\u062f\u0648\u0648\u0634\u06cc\u0648\u0627\u0646", "name:de": "Dushiwan", "name:en": "Dushiwan", "name:fr": "Dushiwan", "name:ku": "D\u00fb\u015f\u00eewan", "place": "village"}}, {"type": "node", "id": 2488269175, "lat": 35.891751, "lon": 44.572771, "tags": {"name": "\u06af\u06d5\u0631\u0645\u06af\u06cc \u062a\u06d5\u0642\u062a\u06d5\u0642", "name:ar": "\u0643\u0631\u0645\u0643", "name:ar1": "\u0643\u0631\u0645\u0643", "name:de": "Garmk", "name:en": "Garmk", "name:fr": "Garmk", "name:ku": "\u06af\u06d5\u0631\u0645\u06a9", "place": "village"}}, {"type": "node", "id": 2488269260, "lat": 35.6590658, "lon": 44.550286, "tags": {"name": "\u06af\u0648\u0631\u06af\u0627\u0646", "name:ckb": "\u06af\u0648\u0631\u06af\u0627\u0646", "name:en": "Gurgan", "name:ku": "Gurgan", "place": "village"}}, {"type": "node", "id": 2488269309, "lat": 35.8193559, "lon": 44.5687253, "tags": {"name": "\u062d\u0627\u062c\u06cc\u0644\u06d5\u0631", "name:ar": "\u062d\u0627\u062c\u064a \u0644\u0631", "name:ckb": "\u062d\u0627\u062c\u06cc\u0644\u06d5\u0631", "name:en": "Hajilar", "name:ku": "Hac\u00eeler", "place": "village"}}, {"type": "node", "id": 2488269381, "lat": 35.8560104, "lon": 44.5546607, "tags": {"alt_name": "\u062c\u0643\u0644\u0629", "int_name": "Jagilah, Jaklah, Jigh\u012bla, \u062c\u0643\u0644\u0647, Jagilah, Jaklah, Jighila, \u062c\u0643\u0644\u0647", "name": "\u062c\u06af\u06cc\u0644\u06d5", "name:ar": "\u062c\u0643\u064a\u0644\u0629", "name:ckb": "\u062c\u06af\u06cc\u0644\u06d5", "name:en": "Jgila", "name:fr": "Jgila", "name:ku": "Cig\u00eele", "place": "village"}}, {"type": "node", "id": 2488269419, "lat": 35.8909606, "lon": 44.6201706, "tags": {"alt_name": "\u0643\u0628\u0629 \u0646\u0643", "int_name": "Kabah Nak, Kapa Nak, Kap\u0101nak, \u0643\u0628\u0629 \u0646\u0643, Kabah Nak, Kapa Nak, Kapanak, \u0643\u0628\u0629 \u0646\u0643", "name": "\u06a9\u06d5\u067e\u06d5\u0646\u06a9", "name:ar": "\u0643\u0628\u0646\u0643", "name:ckb": "\u06a9\u06d5\u067e\u06d5\u0646\u06a9", "name:de": "Kabah Nak", "name:en": "Kapank", "name:fr": "Kabah Nak", "name:ku": "Kepenk", "place": "village"}}, {"type": "node", "id": 2488269480, "lat": 35.8613233, "lon": 44.6007011, "tags": {"name": "\u0642\u06d5\u0631\u06d5\u0646\u0627\u0648", "name:ckb": "\u0642\u06d5\u0631\u06d5\u0646\u0627\u0648", "name:en": "Qaranaw", "name:ku": "Qerenaw", "place": "village"}}, {"type": "node", "id": 2488269657, "lat": 35.6823543, "lon": 44.6226873, "tags": {"name": "\u0645\u0627\u0645 \u0695\u06d5\u0634", "name:ar": "\u0645\u0627\u0645 \u0631\u0634", "name:ckb": "\u0645\u0627\u0645 \u0695\u06d5\u0634", "name:en": "Mam Rash", "name:ku": "Mam Re\u015f", "place": "village"}}, {"type": "node", "id": 2488269735, "lat": 35.7666795, "lon": 44.55241, "tags": {"name": "\u0646\u0627\u0695\u0648\u0648\u062c\u06d5\u06cc \u06af\u06d5\u0648\u0631\u06d5", "name:ckb": "\u0646\u0627\u0695\u0648\u0648\u062c\u06d5\u06cc \u06af\u06d5\u0648\u0631\u06d5", "name:en": "Big Naruja", "name:ku": "Narruceya Mezin", "place": "village"}}, {"type": "node", "id": 2488269771, "lat": 35.72308, "lon": 44.552932, "tags": {"alt_name": "\u0642\u0627\u062f\u0631 \u0634\u064a\u0631\u064a\u0646", "int_name": "Qadar Shirrih, Qadar Shirrin, Q\u0101dir Shirr\u012bn, \u0642\u0627\u062f\u0631 \u0634\u064a\u0631\u064a\u0646, Qadar Shirrih, Qadar Shirrin, Qadir Shirrin, \u0642\u0627\u062f\u0631 \u0634\u064a\u0631\u064a\u0646", "name": "\u0642\u0627\u062f\u0631 \u0634\u064a\u0631\u064a\u0646", "name:ar": "\u0642\u0627\u062f\u0631 \u0634\u064a\u0631\u064a\u0646", "name:ckb": "\u0642\u0627\u062f\u0631 \u0634\u06cc\u0631\u06cc\u0646", "name:de": "Qadar Shirrih", "name:en": "Qadr Shirin", "name:fr": "Qadar Shirrih", "name:ku": "Qadir \u015e\u00eer\u00een", "place": "village"}}, {"type": "node", "id": 2488270052, "lat": 35.8577576, "lon": 44.6262111, "tags": {"alt_name": "\u0633\u0645\u0627\u0642\u0629", "int_name": "Sum\u0101ga, Sum\u0101qah, \u0633\u0645\u0627\u0642\u0629, Sumaga, Sumaqah, \u0633\u0645\u0627\u0642\u0629", "name": "\u0633\u0645\u0627\u0642\u06d5", "name:ar": "\u0633\u0645\u0627\u0642\u0629", "name:ar1": "\u0633\u0645\u0627\u0642\u0629", "name:de": "Sumaga", "name:en": "Sumaga", "name:fr": "Sumaga", "place": "village"}}, {"type": "node", "id": 2488270069, "lat": 35.6993481, "lon": 44.5943532, "tags": {"alt_name": "\u062a\u0628\u0629 \u0643\u0631\u062f \u0627\u0644\u0639\u0644\u064a\u0627", "int_name": "Tabbah Kurd al Uly\u0101, Tapakurr, Tappah Kird al Uly\u0101, \u062a\u0628\u0629 \u0643\u0631\u062f \u0627\u0644\u0639\u0644\u064a\u0627, Tabbah Kurd al Ulya, Tapakurr, Tappah Kird al Ulya, \u062a\u0628\u0629 \u0643\u0631\u062f \u0627\u0644\u0639\u0644\u064a\u0627", "name": "\u062a\u06d5\u067e\u06d5\u06a9\u0648\u0695\u06d5\u06cc \u0633\u06d5\u0631\u0648\u0648", "name:ar": "\u062a\u0628\u0629 \u0643\u0631\u0629 \u0627\u0644\u0639\u0644\u064a\u0627", "name:en": "Upper Tapa Kura", "place": "village"}}, {"type": "node", "id": 2488270075, "lat": 35.7052183, "lon": 44.5934581, "tags": {"name": "\u062a\u06d5\u067e\u06d5 \u06a9\u0648\u0695\u06d5\u06cc \u062e\u0648\u0627\u0631\u0648\u0648", "name:ckb": "\u062a\u06d5\u067e\u06d5 \u062e\u0648\u0627\u0631\u0648\u0648", "name:en": "Tapa kura lower", "name:ku": "Tepe Kurd", "place": "village"}}, {"type": "node", "id": 2488270093, "lat": 35.927592, "lon": 44.572751, "tags": {"int_name": "\u0162\u0101lib\u0101n Gawrah, Taliban Gawrah", "name": "\u062a\u0627\u06b5\u06d5\u0628\u0627\u0646\u06cc \u06af\u06d5\u0648\u0631\u06d5", "name:de": "Taliban Gawrah", "name:en": "Taliban Gawrah", "name:fr": "Taliban Gawrah", "place": "village"}}, {"type": "node", "id": 2488270116, "lat": 35.8888613, "lon": 44.5855646, "tags": {"alt_name": "\u0637\u0642\u0637\u0642", "capital": "7", "ele": "350", "int_name": "Taqtaq, \u0162aq\u0163aq, \u062a\u06d5\u0642\u062a\u06d5\u0642", "name": "\u062a\u06d5\u0642\u062a\u06d5\u0642", "name:ar": "\u0637\u0642\u0637\u0642", "name:ckb": "\u062a\u06d5\u0642\u062a\u06d5\u0642", "name:de": "Taqtaq", "name:en": "Taqtaq", "name:fr": "Taqtaq", "name:ku": "Teqteq", "name:ru": "\u0422\u0430\u043a\u0442\u0430\u043a", "natural": "oilfield", "place": "town", "wikidata": "Q11160785", "wikipedia": "ckb:\u062a\u06d5\u0642\u062a\u06d5\u0642"}}, {"type": "node", "id": 2488270117, "lat": 35.7574581, "lon": 44.5967924, "tags": {"name": "\u062a\u06d5\u0631\u06d5\u0642\u06d5", "name:ar": "\u062a\u0631\u0642\u0629", "name:en": "Taraqa", "place": "village"}}, {"type": "node", "id": 2488270125, "lat": 35.6664517, "lon": 44.5516018, "tags": {"alt_name": "\u062a\u0648\u0645\u0627\u0631", "int_name": "Tomar, T\u016bm\u0101r, \u062a\u0648\u0645\u0627\u0631, Tomar, Tumar, \u062a\u0648\u0645\u0627\u0631", "name": "\u062a\u06c6\u0645\u0627\u0631", "name:ar": "\u062a\u0648\u0645\u0627\u0631", "name:ckb": "\u062a\u06c6\u0645\u0627\u0631", "name:de": "Tomar", "name:en": "Tomar", "name:fr": "Tomar", "name:ku": "Tomar", "place": "village"}}, {"type": "node", "id": 2488270127, "lat": 35.6945572, "lon": 44.565371, "tags": {"name": "\u062a\u0648\u0631\u06a9\u06d5", "name:ar": "\u062a\u064f\u0631\u0643\u0629", "name:ckb": "\u062a\u0648\u0631\u06a9\u06d5", "name:de": "Turka", "name:en": "Turka", "name:fr": "Turka", "name:ku": "Turke", "place": "village"}}, {"type": "node", "id": 2488270128, "lat": 35.7862757, "lon": 44.61508, "tags": {"name": "\u062a\u0648\u0631\u0643\u0645\u0627\u0646 \u0628\u0627\u063a", "name:ar": "\u062a\u0631\u0643\u0645\u0627\u0646 \u0628\u0627\u063a", "name:ckb": "\u062a\u0648\u0631\u06a9\u0645\u0627\u0646 \u0628\u0627\u063a", "name:de": "Turkoman Bagh", "name:en": "Turkman Bagh", "name:fr": "Turkoman Bagh", "name:ku": "Turkman Bax", "place": "village"}}, {"type": "node", "id": 2488270131, "lat": 35.802451, "lon": 44.589099, "tags": {"alt_name": "\u0639\u0645\u0631 \u0645\u0646\u062f\u0627\u0646", "int_name": "Umar Mand\u0101n, \u0639\u0645\u0631 \u0645\u0646\u062f\u0627\u0646, Umar Mandan, \u0639\u0645\u0631 \u0645\u0646\u062f\u0627\u0646", "name": "\u0626\u06c6\u0645\u06d5\u0631 \u0645\u06d5\u0646\u062f\u0627\u0646\u06cc \u0633\u06d5\u0631\u0648\u0648", "name:ar": "\u0639\u0645\u0631 \u0645\u0646\u062f\u0627\u0646", "name:ckb": "\u0626\u06c6\u0645\u06d5\u0631 \u0645\u06d5\u0646\u062f\u0627\u0646", "name:de": "Umar Mandan", "name:en": "Omar Mandan", "name:fr": "Umar Mandan", "name:ku": "Omer Mendan", "place": "village"}}, {"type": "node", "id": 2488271544, "lat": 35.9336299, "lon": 44.638716, "tags": {"name": "\u0628\u0627\u062e\u06d5\u0686\u0646\u06ce\u0631", "name:ar": "\u0628\u0627\u063a\u062c\u0646\u064a\u0631", "name:de": "Bagh Ajnir", "name:en": "Baghajner", "name:fr": "Bagh Ajnir", "name:ku": "\u0628\u0627\u062e\u06d5\u062c\u0646\u06ce\u0631", "place": "village"}}, {"type": "node", "id": 2488271547, "lat": 35.6608789, "lon": 44.6280546, "tags": {"alt_name": "\u062f\u0631\u0627\u0628\u0629 \u0633\u0631\u0629", "int_name": "D\u0101r Ba Sara, Dar\u0101bah Sirrah, Dar\u0101bat Sarah, \u062f\u0631\u0627\u0628\u0629 \u0633\u0631\u0629, Dar Ba Sara, Darabah Sirrah, Darabat Sarah, \u062f\u0631\u0627\u0628\u0629 \u0633\u0631\u0629", "name": "\u062f\u0627\u0631\u0628\u06d5\u0633\u06d5\u0631\u06d5", "name:ar": "\u062f\u0627\u0631\u0628\u064e\u0633\u064e\u0631\u0629", "name:ckb": "\u062f\u0627\u0631\u0628\u06d5\u0633\u06d5\u0631\u06d5", "name:de": "Darbasara", "name:en": "Darbasara", "name:fr": "Darbasara", "name:ku": "Darbesere", "place": "village"}}, {"type": "node", "id": 2488271548, "lat": 35.850913, "lon": 44.654817, "tags": {"name": "\u062f\u0627\u0631 \u0626\u06cc\u062e\u062a\u06cc\u0627\u0631", "name:ar": "\u062f\u0627\u0631 \u0625\u062e\u062a\u064a\u0627\u0631", "name:ckb": "\u062f\u0627\u0631 \u0626\u06d5\u062e\u062a\u06cc\u0627\u0631", "name:de": "Dar Ikhtiyar", "name:en": "Dar Akhtyar", "name:fr": "Dar Ikhtiyar", "name:ku": "Dar Extiyar", "place": "village"}}, {"type": "node", "id": 2488271560, "lat": 35.9082924, "lon": 44.6294072, "tags": {"name": "\u0633\u06d5\u0631\u06a9\u06d5\u06b5\u06d5\u06a9", "name:ar": "\u0633\u0631\u06a9\u0644\u06a9", "name:ar1": "\u062c\u0645 \u0647\u064a\u062f\u0631", "name:de": "Sarkalak", "name:en": "Sarkalak", "name:fr": "Sarkalak", "place": "village", "population": "650"}}, {"type": "node", "id": 2488271564, "lat": 35.7626056, "lon": 44.6597271, "tags": {"name": "\u06a9\u0627\u0631\u06ce\u0632\u06d5\u06cc \u062e\u0627\u06b5\u062e\u0627\u06b5\u0627\u0646", "name:ckb": "\u06a9\u0627\u0631\u06ce\u0632\u06d5\u06cc \u062e\u0627\u06b5\u062e\u0627\u06b5\u0627\u0646", "name:ku": "Kar\u00eazeya Xallxallan", "place": "village"}}, {"type": "node", "id": 2488271573, "lat": 35.9028651, "lon": 44.6521783, "tags": {"alt_name": "\u0645\u062e\u0629 \u0631\u0634", "int_name": "Makhah Rash, Makhat Rash, Mukhras, \u0645\u062e\u0629 \u0631\u0634, Makhah Rash, Makhat Rash, Mukhras, \u0645\u062e\u0629 \u0631\u0634", "name": "\u0645\u0648\u062e\u06d5\u0631\u06d5\u0633", "name:ar": "\u0645\u062e\u0629 \u0631\u0634", "name:ar1": "\u0645\u062e\u0629 \u0631\u0634", "name:de": "Makhah Rash", "name:en": "Makhah Rash", "name:fr": "Makhah Rash", "place": "village"}}, {"type": "node", "id": 2488271574, "lat": 35.885458, "lon": 44.653009, "tags": {"alt_name": "\u0645\u0644\u0645\u062a\u0629", "int_name": "Malmatah, \u0645\u0644\u0645\u062a\u0647, Malmatah, \u0645\u0644\u0645\u062a\u0647", "name": "\u0642\u0648\u062f\u0631\u06d5\u062a\u06d5", "name:ar": "\u0642\u0648\u062f\u0631\u062a\u0629", "name:ar1": "\u0645\u0644\u0645\u062a\u0629", "name:de": "Qudrata", "name:en": "Qudrata", "name:fr": "Qudrata", "place": "village"}}, {"type": "node", "id": 2488271692, "lat": 35.9599783, "lon": 44.7174121, "tags": {"name": "\u0628\u0627\u0646\u06d5\u06af\u0648\u06b5\u0627\u0646", "name:ar": "\u0628\u0627\u0646\u0629\u0643\u0644\u0627\u0646", "name:ckb": "\u0628\u0627\u0646\u06d5\u06af\u0648\u06b5\u0627\u0646", "name:en": "Banagulan", "name:ku": "Banegullan", "place": "village", "wikipedia": "ckb:\u0628\u0627\u0646\u06d5\u06af\u0648\u06b5\u0627\u0646"}}, {"type": "node", "id": 2488271697, "lat": 35.8944132, "lon": 44.6898636, "tags": {"alt_name": "\u0643\u0631\u0645\u0643 \u0633\u0627\u062a\u0648\u0643\u0644\u0627", "int_name": "Garmak S\u0101t\u016bgl\u0101, Karmak S\u0101t\u016bkl\u0101, \u0643\u0631\u0645\u0643 \u0633\u0627\u062a\u0648\u0643\u0644\u0627, \u06af\u0631\u0645\u0643 \u0633\u0627\u062a\u0648\u06af\u0644\u0627, Garmak Satugla, Karmak Satukla, \u0643\u0631\u0645\u0643 \u0633\u0627\u062a\u0648\u0643\u0644\u0627, \u06af\u0631\u0645\u0643 \u0633\u0627\u062a\u0648\u06af\u0644\u0627", "name": "\u06af\u06d5\u0631\u0645\u06a9 \u0633\u0627\u062a\u0648\u0648\u0642\u06d5\u06b5\u0627", "name:ar": "\u0643\u0631\u0645\u0643 \u0633\u0627\u062a\u0648\u0643\u0644\u0627", "name:ar1": "\u0643\u0631\u0645\u0643 \u0633\u0627\u062a\u0648\u0643\u0644\u0627", "name:de": "Garmak Satugla", "name:en": "Garmak Satugla", "name:fr": "Garmak Satugla", "place": "village"}}, {"type": "node", "id": 2488271704, "lat": 35.8017288, "lon": 44.6910862, "tags": {"name": "\u062c\u06d5\u0644\u06d5\u0645\u06c6\u0631\u062f", "name:ar": "\u062c\u0644\u0629 \u0645\u0631\u062f", "name:ar1": "\u062c\u0644\u0629 \u0645\u0631\u062f", "name:de": "Jalat Murd", "name:en": "Jalat Murd", "name:fr": "Jalat Murd", "place": "village", "wikidata": "Q65404256", "wikipedia": "ckb:\u062c\u0644\u0645\u06c6\u0631\u062f"}}, {"type": "node", "id": 2488271705, "lat": 35.8329869, "lon": 44.6929465, "tags": {"name": "\u0686\u0648\u062e\u0644\u06cc\u062c\u06d5", "name:ar": "\u062c\u0648\u062e\u0644\u06cc\u062c\u0629", "name:en": "Chukhlija", "place": "village", "wikidata": "Q65404410", "wikipedia": "ckb:\u0686\u0648\u062e\u0644\u06cc\u062c\u06d5"}}, {"type": "node", "id": 2488271713, "lat": 35.884618, "lon": 44.688439, "tags": {"name": "\u0645\u06d5\u0644\u0627 \u0632\u06cc\u0627\u062f", "name:ar": "\u0645\u0644\u0627 \u0632\u064a\u0627\u062f", "name:ar1": "\u0645\u0644\u0627 \u0632\u064a\u0627\u062f", "name:de": "Mulla Ziyad", "name:en": "Mulla Ziyad", "name:fr": "Mulla Ziyad", "place": "village"}}, {"type": "node", "id": 2488271714, "lat": 35.777294, "lon": 44.686768, "tags": {"name": "\u0645\u06c6\u0631\u062f\u062e\u0648\u0627\u0631\u062f\u06cc \u0633\u06d5\u0631\u0648\u0648", "name:ar": "\u0645\u0631\u062f \u062e\u0648\u0627\u0631\u0629 \u0627\u0644\u0639\u0644\u064a\u0627", "name:ar1": "\u0645\u0631\u062f \u062e\u0648\u0627\u0631\u0629 \u0627\u0644\u0639\u0644\u064a\u0627", "name:de": "Murah Khawarah al Ulya", "name:en": "Murah Khawarah al Ulya", "name:fr": "Murah Khawarah al Ulya", "name:ku": "\u0645\u06c6\u0631\u062f \u062e\u0648\u0627\u0631\u062f\u06d5\u06cc \u0633\u06d5\u0631\u0648\u0648\u0648", "place": "village"}}, {"type": "node", "id": 2488271716, "lat": 35.7454922, "lon": 44.6907177, "tags": {"name": "\u0646\u0627\u0633\u0631 \u0648 \u0645\u06cc\u0633\u0631", "name:ckb": "\u0646\u0627\u0633\u0631 \u0648 \u0645\u06cc\u0633\u0631", "name:en": "Nasr u Misr", "name:ku": "Nasir \u00fb M\u00eesir", "place": "village"}}, {"type": "node", "id": 2488271717, "lat": 35.8747856, "lon": 44.6970121, "tags": {"alt_name": "\u0633\u0627\u062a\u0648 \u0642\u0644\u0627", "int_name": "S\u0101t\u016b Qal\u0101, \u0633\u0627\u062a\u0648 \u0642\u0644\u0627, Satu Qala, \u0633\u0627\u062a\u0648 \u0642\u0644\u0627", "name": "\u0633\u0627\u062a\u0648\u0648\u0642\u06d5\u06b5\u0627", "name:ar": "\u0633\u0627\u062a\u0648 \u0642\u0644\u0627", "name:ar1": "\u0633\u0627\u062a\u0648 \u0642\u0644\u0627", "name:de": "Satu Qala", "name:en": "Satu Qala", "name:fr": "Satu Qala", "place": "village"}}, {"type": "node", "id": 2488271721, "lat": 35.9467286, "lon": 44.6780753, "tags": {"alt_name": "\u062a\u0643\u0644\u062a\u0648", "int_name": "Takalt\u016b, \u062a\u0643\u0644\u062a\u0648, Takaltu, \u062a\u0643\u0644\u062a\u0648", "name": "\u062a\u06d5\u06a9\u06d5\u06b5\u062a\u0648\u0648", "name:ar": "\u062a\u0643\u0644\u062a\u0648", "name:ar1": "\u062a\u0643\u0644\u062a\u0648", "name:de": "Takaltu", "name:en": "Takaltu", "name:fr": "Takaltu", "place": "village"}}, {"type": "node", "id": 2488271724, "lat": 35.8676596, "lon": 44.6789999, "tags": {"alt_name": "\u0642\u0633\u0631\u0648\u0643", "alt_name:ar": "\u0642\u0633\u0631\u0648\u0643", "int_name": "\u0642\u0633\u0631\u0648\u0643, \u0642\u0633\u0631\u0648\u0643", "name": "\u0642\u06d5\u0633\u0631\u06c6\u06a9", "name:ar": "\u0642\u0633\u0631\u0648\u0643", "name:de": "\u0642\u0633\u0631\u0648\u0643", "name:en": "\u0642\u0633\u0631\u0648\u0643", "name:fr": "\u0642\u0633\u0631\u0648\u0643", "place": "village", "wikidata": "Q65404350", "wikipedia": "ckb:\u0642\u06d5\u0633\u0631\u06c6\u06a9\u060c \u0626\u0627\u063a\u062c\u06d5\u0644\u06d5\u0631"}}, {"type": "node", "id": 2488272745, "lat": 36.0716783, "lon": 44.7820741, "tags": {"is_in": "Iraq , \u062c\u0645\u0647\u0648\u0631\u064a\u0629 \u0627\u0644\u0639\u0631\u0627\u0642", "name": "\u0634\u06ce\u062e \u0645\u06d5\u0646\u0633\u0648\u0631\u06cc\u0627\u0646", "name:ar": "\u0634\u064a\u062e \u0645\u0646\u0635\u0648\u0631\u064a\u0627\u0646", "name:ar1": "\u0634\u064a\u062e \u0645\u0646\u0635\u0648\u0631\u064a\u0627\u0646", "name:de": "Ash Shaykh Mansuri", "name:en": "Ash Shaykh Mansuri", "name:fr": "Ash Shaykh Mansuri", "place": "village"}}, {"type": "node", "id": 2488272746, "lat": 35.7732747, "lon": 44.7398702, "tags": {"name": "\u0626\u0627\u0648\u0628\u0627\u0631\u06d5", "name:ar": "\u0622\u0648\u0628\u0627\u0631\u0629", "name:ckb": "\u0626\u0627\u0648\u0628\u0627\u0631\u06d5", "name:en": "Awbara", "name:ku": "Awbare", "place": "village", "wikidata": "Q65404187", "wikipedia": "ckb:\u0626\u0627\u0648\u0628\u0627\u0631\u06d5\u060c \u0626\u0627\u063a\u062c\u06d5\u0644\u06d5\u0631"}}, {"type": "node", "id": 2488272749, "lat": 35.669776, "lon": 44.757858, "tags": {"name": "\u067e\u06d5\u06b5\u06a9\u06d5\u0695\u06d5\u0634", "name:ckb": "\u067e\u06d5\u06b5\u06a9\u06d5\u0695\u06d5\u0634", "name:en": "Balkarash", "name:ku": "Belkerre\u015f", "place": "village"}}, {"type": "node", "id": 2488272757, "lat": 35.981361, "lon": 44.738028, "tags": {"name": "\u067e\u06ce\u0628\u0627\u0632\u06c6\u06a9", "name:ar": "\u0628\u064a\u0628\u0627\u0632\u0648\u0643", "name:ckb": "\u067e\u06ce\u0628\u0627\u0632\u06c6\u06a9", "name:en": "Pebazok", "name:ku": "P\u00eabazok", "place": "village", "wikipedia": "ckb:\u067e\u06ce\u0628\u0627\u0632\u06c6\u06a9"}}, {"type": "node", "id": 2488272764, "lat": 35.933056, "lon": 44.801667, "tags": {"name": "\u0686\u0627\u06b5\u0627\u0648", "name:ar": "\u062c\u0627\u0644\u0627\u0648", "name:ckb": "\u0686\u0627\u06b5\u0627\u0648", "name:en": "Chalaw", "name:ku": "\u00c7allaw", "place": "village", "wikipedia": "ckb:\u0686\u0627\u06b5\u0627\u0648\u060c \u06a9\u06c6\u06cc\u06d5"}}, {"type": "node", "id": 2488272773, "lat": 35.7893187, "lon": 44.726884, "tags": {"name": "\u062f\u0627\u0631\u06d5\u0642\u0648\u062a\u06d5", "name:ar": "\u062f\u0627\u0631\u0629 \u0642\u0648\u062a\u0629", "name:ckb": "\u062f\u0627\u0631\u06d5\u0642\u0648\u062a\u06d5", "name:en": "Daraquta", "name:ku": "Darequte", "place": "village", "wikidata": "Q65404274", "wikipedia": "ckb:\u062f\u0627\u0631\u06d5\u0642\u0648\u062a\u06d5"}}, {"type": "node", "id": 2488272782, "lat": 36.004472, "lon": 44.755194, "tags": {"name": "\u062f\u06c6\u0646\u062f\u0627\u0631", "name:ar": "\u062f\u0648\u0646\u062f\u0627\u0631", "name:ckb": "\u062f\u06c6\u0646\u062f\u0627\u0631", "name:en": "Dondar", "name:ku": "Dondar", "place": "village", "wikipedia": "ckb:\u062f\u06c6\u0646\u062f\u0627\u0631"}}, {"type": "node", "id": 2488272799, "lat": 35.7030478, "lon": 44.74588, "tags": {"name": "\u0641\u06d5\u0642\u06ce \u0645\u06cc\u0631\u0632\u0627", "name:ar": "\u0641\u0642\u064a \u0645\u064a\u0631\u0632\u0627", "name:ckb": "\u0641\u06d5\u0642\u06ce \u0645\u06cc\u0631\u0632\u0627", "name:en": "Faqe Mirza", "name:ku": "Feq\u00ea M\u00eerza", "place": "village"}}, {"type": "node", "id": 2488272811, "lat": 35.7851062, "lon": 44.7803853, "tags": {"alt_name": "\u0643\u0631\u0627\u0648\u0629", "int_name": "Garaw, Gar\u0101wah, Kah R\u0101w, K\u0101r\u0101w, \u0643\u0647 \u0631\u0627\u0648, \u06af\u0631\u0627\u0648\u0647, Garaw, Garawah, Kah Raw, Karaw, \u0643\u0647 \u0631\u0627\u0648, \u06af\u0631\u0627\u0648\u0647", "is_in": "Iraq , \u062c\u0645\u0647\u0648\u0631\u064a\u0629 \u0627\u0644\u0639\u0631\u0627\u0642", "name": "\u062a\u06d5\u06a9\u0628\u0627\u0633\u0627\u0646", "name:ar": "\u062a\u06a9\u0628\u0627\u0633\u0627\u0646", "name:ar1": "\u0643\u0631\u0627\u0648\u0629", "name:de": "Takbasan", "name:en": "Takbasan", "name:fr": "Takbasan", "place": "village", "wikidata": "Q65404252", "wikipedia": "ckb:\u062a\u06d5\u06a9\u0628\u0627\u0633\u0627\u0646"}}, {"type": "node", "id": 2488272824, "lat": 35.6697993, "lon": 44.7993847, "tags": {"name": "\u06af\u06d5\u0632\u06d5\u06b5\u0627\u0646", "name:ar": "\u06a9\u0632\u0644\u0627\u0646", "name:en": "Gazallan", "place": "village", "wikidata": "Q65404491", "wikipedia": "ckb:\u06af\u06d5\u0632\u06d5\u06b5\u0627\u0646"}}, {"type": "node", "id": 2488272835, "lat": 35.8710172, "lon": 44.7135443, "tags": {"name": "\u06af\u0631\u062f\u062e\u06d5\u0628\u06d5\u0631", "name:ar": "\u0643\u0631\u062f\u062e\u0628\u0631", "name:ckb": "\u06af\u0631\u062f\u062e\u06d5\u0628\u06d5\u0631", "name:en": "Grdkhabar", "name:ku": "Girdxeber", "place": "village", "wikidata": "Q65404467", "wikipedia": "ckb:\u06af\u0631\u062f\u062e\u06d5\u0628\u06d5\u0631"}}, {"type": "node", "id": 2488272846, "lat": 35.8912696, "lon": 44.7681365, "tags": {"name": "\u06af\u06c6\u0645\u06d5\u0634\u06cc\u0646", "name:ar": "\u0643\u0648\u0645\u0629\u0634\u064a\u0646", "name:ckb": "\u06af\u06c6\u0645\u06d5\u0634\u06cc\u0646", "name:en": "Gomashin", "name:ku": "Gome\u015f\u00een", "place": "village", "wikipedia": "ckb:\u06af\u06c6\u0645\u06d5\u0634\u06cc\u0646"}}, {"type": "node", "id": 2488272868, "lat": 35.8116688, "lon": 44.7976299, "tags": {"is_in": "Iraq , \u062c\u0645\u0647\u0648\u0631\u064a\u0629 \u0627\u0644\u0639\u0631\u0627\u0642", "name": "\u0626\u06d5\u0633\u06a9\u06d5\u0646\u062f\u06d5\u0631\u0628\u06d5\u06af", "name:ar": "\u0627\u0633\u06a9\u0646\u062f\u0631\u0628\u06a9", "name:en": "Alexander Beg", "place": "village", "wikidata": "Q65404200", "wikipedia": "ckb:\u0626\u06d5\u0633\u06a9\u06d5\u0646\u062f\u06d5\u0631\u0628\u06d5\u06af"}}, {"type": "node", "id": 2488272873, "lat": 35.6957116, "lon": 44.8005993, "tags": {"name": "\u06a9\u0627\u0646\u06cc \u0639\u0627\u0631\u06d5\u0628\u0627\u0646", "name:ar": "\u0643\u0627\u0646\u064a \u0639\u0631\u0628\u0627\u0646", "name:de": "Kani Araban", "name:en": "Kani Araban", "name:fr": "Kani Araban", "place": "village", "source": "gps;local knowledge", "wikidata": "Q65404436", "wikipedia": "ckb:\u06a9\u0627\u0646\u06cc \u0639\u0627\u0631\u06d5\u0628\u0627\u0646"}}, {"type": "node", "id": 2488272877, "lat": 35.7351263, "lon": 44.7294032, "tags": {"is_in": "Iraq , \u062c\u0645\u0647\u0648\u0631\u064a\u0629 \u0627\u0644\u0639\u0631\u0627\u0642", "name": "\u06a9\u0627\u0646\u06cc \u06af\u06d5\u0648\u0647\u06d5\u0631", "name:ar": "\u0643\u0627\u0646\u064a \u06a9\u0648\u0647\u0631", "name:ar1": "\u0643\u0627\u0646\u064a \u0643\u0631\u0645\u0631", "name:de": "Kani Gawhar", "name:en": "Kani Gawhar", "name:fr": "Kani Gawhar", "place": "village", "wikidata": "Q65404441", "wikipedia": "ckb:\u06a9\u0627\u0646\u06cc \u06af\u06d5\u0648\u06be\u06d5\u0631"}}, {"type": "node", "id": 2488272879, "lat": 35.9284309, "lon": 44.7515971, "tags": {"alt_name": "\u0643\u0627\u0646\u064a \u0647\u062c\u064a\u0631", "int_name": "K\u0101n\u012b Haj\u012br, Kani Hajir", "is_in": "Iraq , \u062c\u0645\u0647\u0648\u0631\u064a\u0629 \u0627\u0644\u0639\u0631\u0627\u0642", "name": "\u06a9\u0627\u0646\u06cc \u0647\u06d5\u0646\u062c\u06cc\u0631", "name:ar": "\u0643\u0627\u0646\u064a \u0647\u062c\u064a\u0631", "name:ar1": "\u0643\u0627\u0646\u064a \u0647\u062c\u064a\u0631", "name:de": "Kani Hajir", "name:en": "Kani Hajir", "name:fr": "Kani Hajir", "place": "village"}}, {"type": "node", "id": 2488272956, "lat": 35.9194305, "lon": 44.7837011, "tags": {"alt_name": "\u062e\u0631\u0627\u0628\u0629;\u062e\u0631\u0628\u0629;\u062e\u0631\u0627\u0628", "int_name": "Khar\u0101bah, \u062e\u0631\u0627\u0628\u0629, Kharabah, \u062e\u0631\u0627\u0628\u0629;Kharaba, Kharaba;Khar\u0101b, \u062e\u0631\u0627\u0628, Kharab, \u062e\u0631\u0627\u0628", "is_in": "Iraq , \u062c\u0645\u0647\u0648\u0631\u064a\u0629 \u0627\u0644\u0639\u0631\u0627\u0642", "name": "\u062e\u06d5\u0631\u0627\u0628\u06d5", "name:ar": "\u062e\u0631\u0627\u0628\u0629", "name:ar1": "\u062e\u0631\u0627\u0628\u0629;\u062e\u0631\u0628\u0629;\u062e\u0631\u0627\u0628", "name:ckb": "\u062e\u06d5\u0631\u0627\u0628\u06d5", "name:de": "Kharabah;Kharaba;Kharab", "name:en": "Kharaba", "name:fr": "Khraba", "name:ku": "Xerabe", "place": "town"}}, {"type": "node", "id": 2488272964, "lat": 35.7249114, "lon": 44.7887079, "tags": {"name": "\u062a\u0644\u064a\u0627\u0646", "name:ar": "\u062a\u0644\u064a\u0627\u0646", "name:en": "Tlyan", "place": "village", "wikidata": "Q25630671", "wikipedia": "ckb:\u062a\u0644\u06cc\u0627\u0646"}}, {"type": "node", "id": 2488272967, "lat": 35.8193982, "lon": 44.763291, "tags": {"is_in": "Iraq , \u062c\u0645\u0647\u0648\u0631\u064a\u0629 \u0627\u0644\u0639\u0631\u0627\u0642", "name": "\u0645\u0627\u0645\u0644\u06ce\u0633\u06cc", "name:ar": "\u0645\u0627\u0645\u0629 \u0644\u064a\u0633", "name:ar1": "\u0645\u0627\u0645\u0629 \u0644\u064a\u0633", "name:de": "Mamlesi", "name:en": "Mamlesi", "name:fr": "Mamlesi", "place": "village", "wikidata": "Q65404367", "wikipedia": "ckb:\u0645\u0627\u0645\u0644\u06ce\u0633\u06cc"}}, {"type": "node", "id": 2488272968, "lat": 35.7583847, "lon": 44.73217, "tags": {"name": "\u0645\u06c6\u0631\u062f\u062e\u0648\u0627\u0631\u062f\u06d5\u06cc \u062e\u0648\u0627\u0631\u0648\u0648", "name:ar": "\u0645\u0648\u0631\u062f\u062e\u0648\u0627\u0631\u062f \u0633\u0641\u0644\u06cc", "name:en": "Mordkhward Lower", "place": "village", "wikidata": "Q65404390", "wikipedia": "ckb:\u0645\u06c6\u0631\u062f\u062e\u0648\u0627\u0631\u062f\u06cc \u062e\u0648\u0627\u0631\u0648\u0648"}}, {"type": "node", "id": 2488272974, "lat": 35.941203, "lon": 44.762926, "tags": {"name": "\u0642\u0648\u0644\u0642\u0648\u0644\u06d5", "name:ar": "\u0642\u0644\u0642\u0644\u0629", "name:ckb": "\u0642\u0648\u0644\u0642\u0648\u0644\u06d5", "name:en": "Qulqula", "name:ku": "Qulqule", "place": "village", "wikipedia": "ckb:\u0642\u0648\u0644\u0642\u0648\u0644\u06d5"}}, {"type": "node", "id": 2488273000, "lat": 35.8207214, "lon": 44.7227128, "tags": {"name": "\u0633\u06d5\u0631\u0686\u0646\u0627\u0631", "name:ar": "\u0633\u0631\u062c\u0646\u0627\u0631", "name:ckb": "\u0633\u06d5\u0631\u0686\u0646\u0627\u0631", "name:en": "Sarchnar", "name:ku": "Ser\u00e7inar", "place": "village", "wikidata": "Q65404298", "wikipedia": "ckb:\u0633\u06d5\u0631\u0686\u0646\u0627\u0631\u060c \u0626\u0627\u063a\u062c\u06d5\u0644\u06d5\u0631"}}, {"type": "node", "id": 2488273005, "lat": 35.8211557, "lon": 44.743241, "tags": {"is_in": "Iraq , \u062c\u0645\u0647\u0648\u0631\u064a\u0629 \u0627\u0644\u0639\u0631\u0627\u0642", "name": "\u0634\u06ce\u062e\u0627\u0646 \u0634\u06ce\u062e \u0628\u0632\u06ce\u0646\u06cc", "name:ar": "\u0634\u064a\u062e\u0627\u0646 \u0634\u064a\u062e \u0628\u0632\u064a\u0646\u064a", "name:en": "Sheikhan Sheikh Bzeni", "place": "village", "wikidata": "Q65404320", "wikipedia": "ckb:\u0634\u06ce\u062e\u0627\u0646 \u0634\u06ce\u062e \u0628\u0632\u06ce\u0646\u06cc"}}, {"type": "node", "id": 2488273007, "lat": 35.9325845, "lon": 44.7161353, "tags": {"alt_name": "\u0634\u06cc\u0648\u06d5 \u062c\u0627\u0646", "alt_name:ar": "\u0634\u064a\u0648\u0629 \u062c\u0627\u0646", "name": "\u0634\u06cc\u0648\u06d5\u062c\u0627\u0646", "name:ar": "\u0634\u064a\u0648\u0629\u062c\u0627\u0646", "name:ckb": "\u0634\u06cc\u0648\u06d5\u062c\u0627\u0646", "name:en": "Shiwajan", "name:ku": "\u015e\u00eewecan", "place": "village", "wikipedia": "ckb:\u0634\u06cc\u0648\u06d5\u062c\u0627\u0646"}}, {"type": "node", "id": 2488273008, "lat": 35.983978, "lon": 44.8022411, "tags": {"alt_name": "\u0634\u064a\u0648\u0629 \u0634\u0627\u0646", "int_name": "Sh\u012bwah Sh\u0101n, Shiwah Shan", "is_in": "Iraq , \u062c\u0645\u0647\u0648\u0631\u064a\u0629 \u0627\u0644\u0639\u0631\u0627\u0642", "name": "\u0634\u06cc\u0648\u06d5\u0634\u0627\u0646", "name:ar": "\u0634\u064a\u0648\u0629 \u0634\u0627\u0646", "name:ar1": "\u0634\u064a\u0648\u0629 \u0634\u0627\u0646", "name:de": "Shiwah Shan", "name:en": "Shiwah Shan", "name:fr": "Shiwah Shan", "place": "village"}}, {"type": "node", "id": 2488273012, "lat": 35.9492051, "lon": 44.744581, "tags": {"name": "\u0633\u0648\u0648\u0631\u06d5\u0642\u06d5\u06b5\u0627", "name:ar": "\u0633\u0648\u0631\u0629\u0642\u0644\u0627", "name:ckb": "\u0633\u0648\u0648\u0631\u06d5\u0642\u06d5\u06b5\u0627", "name:en": "Suraqala", "name:ku": "S\u00fbreqella", "place": "village", "wikipedia": "ckb:\u0633\u0648\u0648\u0631\u06d5\u0642\u06d5\u06b5\u0627"}}, {"type": "node", "id": 2488273013, "lat": 36.010833, "lon": 44.7825, "tags": {"alt_name": "\u0633\u0648\u064a\u0631\u0629", "int_name": "Suwayrah, Suwayrah, Suwayrah, Suwayrah", "is_in": "Iraq , \u062c\u0645\u0647\u0648\u0631\u064a\u0629 \u0627\u0644\u0639\u0631\u0627\u0642", "name": "\u0633\u0648\u06ce\u0631\u06d5\u06b5\u0627", "name:ar": "\u0633\u0648\u064a\u0631\u0629\u0644\u0627", "name:ar1": "\u0633\u0648\u064a\u0631\u0629", "name:de": "Suwayrah", "name:en": "Su\u00earalla", "name:fr": "Suwayrah", "place": "village"}}, {"type": "node", "id": 2488273020, "lat": 35.8278242, "lon": 44.712415, "tags": {"name": "\u062a\u0648\u062a\u06d5\u0642\u06d5\u0644", "name:ar": "\u062a\u0648\u062a\u0629\u0642\u0644", "name:en": "Tutaqal", "place": "village", "wikidata": "Q65404228", "wikipedia": "ckb:\u062a\u0648\u062a\u06d5\u0642\u06d5\u0644"}}, {"type": "node", "id": 2488273537, "lat": 36.050528, "lon": 44.806222, "tags": {"is_in": "Iraq , \u062c\u0645\u0647\u0648\u0631\u064a\u0629 \u0627\u0644\u0639\u0631\u0627\u0642", "name": "\u06a9\u0627\u0646\u06cc \u0645\u0627\u0632\u0648\u0648", "name:ar": "\u0643\u0627\u0646\u064a \u0645\u0627\u0631\u0648", "name:ar1": "\u0643\u0627\u0646\u064a \u0645\u0627\u0631\u0648", "name:de": "Kani Maru", "name:en": "Kani Mazu", "name:fr": "Kani Maru", "place": "village"}}, {"type": "node", "id": 2488273545, "lat": 36.0200157, "lon": 44.8381723, "tags": {"alt_name": "\u062e\u0644\u0643\u0627\u0646", "capital": "7", "int_name": "Kh\u0101k\u0101n, Khalakan, Khalak\u0101n, \u062e\u0644\u0643\u0627\u0646, Khakan, \u062e\u06d5\u0644\u06d5\u06a9\u0627\u0646", "is_in": "Iraq , \u062c\u0645\u0647\u0648\u0631\u064a\u0629 \u0627\u0644\u0639\u0631\u0627\u0642", "name": "\u062e\u06d5\u0644\u06d5\u06a9\u0627\u0646", "name:ar": "\u062e\u0644\u0643\u0627\u0646", "name:ckb": "\u062e\u06d5\u0644\u06d5\u06a9\u0627\u0646", "name:de": "Khalakan", "name:en": "Khalakan", "name:fr": "Khalakan", "name:ku": "Xelekan", "place": "town", "wikidata": "Q6766111", "wikipedia": "ckb:\u062e\u06d5\u0644\u06d5\u06a9\u0627\u0646"}}, {"type": "node", "id": 2488273552, "lat": 36.0756307, "lon": 44.8364083, "tags": {"name": "\u0634\u06cc\u0648\u06d5\u0634\u0627\u0646", "name:ar": "\u0634\u064a\u0648\u0634\u0627\u0646", "name:ckb": "\u0634\u06cc\u0648\u06d5\u0634\u0627\u0646", "name:en": "Shiwashan", "name:ku": "\u015e\u00eewe\u015fan", "place": "village", "wikidata": "Q61388725", "wikipedia": "ckb:\u0634\u06cc\u0648\u06d5\u0634\u0627\u0646\u060c \u062e\u062f\u0631\u0627\u0646"}}, {"type": "node", "id": 2488273691, "lat": 35.8984483, "lon": 44.8316784, "tags": {"name": "\u0626\u06d5\u0644\u06cc\u0627\u0633\u06d5\u0633\u0648\u0648\u0631", "name:ar": "\u0623\u0644\u064a\u0627\u0633\u0629\u0633\u0648\u0631", "name:ckb": "\u0626\u06d5\u0644\u06cc\u0627\u0633\u06d5\u0633\u0648\u0648\u0631", "name:en": "Alyasasur", "name:ku": "Elyases\u00fbr", "place": "village", "wikipedia": "ckb:\u0626\u06d5\u0644\u06cc\u0627\u0633\u06d5\u0633\u0648\u0648\u0631"}}, {"type": "node", "id": 2488273693, "lat": 35.96426, "lon": 44.8235483, "tags": {"is_in": "Iraq , \u062c\u0645\u0647\u0648\u0631\u064a\u0629 \u0627\u0644\u0639\u0631\u0627\u0642", "name": "\u0642\u0627\u0632\u0628\u06d5\u06af\u06cc\u0627\u0646", "name:ar": "\u0642\u0627\u0632\u0628\u06af\u06cc\u0627\u0646", "name:ar1": "\u0623\u0644\u0642\u0627\u0632\u0628\u064a\u0643\u064a", "name:de": "Alqazbaygi", "name:en": "Qazbagian", "name:fr": "Alqazbaygi", "place": "village"}}, {"type": "node", "id": 2488273696, "lat": 35.7700142, "lon": 44.8170231, "tags": {"alt_name": "\u0628\u064a\u0627\u0631", "int_name": "Biy\u0101r, \u0628\u064a\u0627\u0631, Biyar, \u0628\u064a\u0627\u0631", "is_in": "Iraq , \u062c\u0645\u0647\u0648\u0631\u064a\u0629 \u0627\u0644\u0639\u0631\u0627\u0642", "name": "\u0628\u06ce\u062f\u06d5\u0631", "name:ar": "\u0628\u06cc\u062f\u0631", "name:en": "Beder", "place": "village", "wikidata": "Q65404215", "wikipedia": "ckb:\u0628\u06ce\u062f\u06d5\u0631"}}, {"type": "node", "id": 2488273700, "lat": 35.946835, "lon": 44.822743, "tags": {"alt_name": "\u062f\u0627\u0648\u0648\u062f\u0627\u0648\u0627", "int_name": "D\u0101ud\u0101w\u0101, D\u0101w\u016bd \u0100wah, D\u0101w\u016bd\u0101w\u0101, \u062f\u0627\u0648\u062f \u0622\u0648\u0647, \u062f\u0627\u0648\u0648\u062f\u0627\u0648\u0627, Daudawa, Dawud Awah, Dawudawa, \u062f\u0627\u0648\u062f \u0622\u0648\u0647, \u062f\u0627\u0648\u0648\u062f\u0627\u0648\u0627", "is_in": "Iraq , \u062c\u0645\u0647\u0648\u0631\u064a\u0629 \u0627\u0644\u0639\u0631\u0627\u0642", "name": "\u062f\u0627\u0648\u0648\u062f\u0627\u0648\u0627", "name:ar": "\u062f\u0627\u0648\u0648\u062f\u0627\u0648\u0627", "name:ar1": "\u062f\u0627\u0648\u0648\u062f\u0627\u0648\u0627", "name:de": "Daudawa", "name:en": "Daudawa", "name:fr": "Daudawa", "place": "village"}}, {"type": "node", "id": 2488273702, "lat": 35.918476, "lon": 44.836967, "tags": {"name": "\u06a9\u06ce\u0644\u06d5\u0632\u06cc\u0646\u062f\u0627\u0646", "name:ar": "\u0643\u064a\u0644\u0629\u0632\u064a\u0646\u062f\u0627\u0646", "name:ckb": "\u06a9\u06ce\u0644\u06d5\u0632\u06cc\u0646\u062f\u0627\u0646", "name:en": "Kelazindan", "name:ku": "K\u00ealez\u00eendan", "place": "village", "wikipedia": "ckb:\u06a9\u06ce\u0644\u06d5\u0632\u06cc\u0646\u062f\u0627\u0646"}}, {"type": "node", "id": 2488273704, "lat": 35.7537952, "lon": 44.8492911, "tags": {"name": "\u06a9\u0627\u0646\u06cc \u0647\u06d5\u0646\u062c\u06cc\u0631\u06d5\u06cc \u0633\u0627\u06b5\u062d\u06c6\u06a9", "name:ar": "\u06a9\u0627\u0646\u06cc \u0647\u0646\u062c\u06cc\u0631\u0629 \u0635\u0627\u0644\u062d\u0648\u06a9", "name:en": "Kani Hanjira Salhok", "place": "village", "wikidata": "Q65404445", "wikipedia": "ckb:\u06a9\u0627\u0646\u06cc \u06be\u06d5\u0646\u062c\u06cc\u0631\u06d5\u06cc \u0633\u0627\u06b5\u062d\u06c6\u06a9"}}, {"type": "node", "id": 2488273707, "lat": 35.881515, "lon": 44.836158, "tags": {"is_in": "Iraq , \u062c\u0645\u0647\u0648\u0631\u064a\u0629 \u0627\u0644\u0639\u0631\u0627\u0642", "name": "\u06a9\u0627\u0646\u06cc \u0628\u06cc", "name:ar": "\u0643\u0627\u0646\u064a \u0628\u064a", "name:de": "Kani Bi", "name:en": "Kani Bi", "name:fr": "Kani Bi", "place": "village"}}, {"type": "node", "id": 2488273712, "lat": 35.9147805, "lon": 44.8196955, "tags": {"alt_name": "\u0643\u0627\u0648\u0644\u0627\u0646", "int_name": "K\u0101wl\u0101n, \u0643\u0627\u0648\u0644\u0627\u0646, Kawlan, \u0643\u0627\u0648\u0644\u0627\u0646", "is_in": "Iraq , \u062c\u0645\u0647\u0648\u0631\u064a\u0629 \u0627\u0644\u0639\u0631\u0627\u0642", "name": "\u06a9\u0627\u0648\u0644\u0627\u0646", "name:ar": "\u0643\u0627\u0648\u0644\u0627\u0646", "name:ar1": "\u0643\u0627\u0648\u0644\u0627\u0646", "name:de": "Kawlan", "name:en": "Kawlan", "name:fr": "Kawlan", "place": "village"}}, {"type": "node", "id": 2488273714, "lat": 36.015468, "lon": 44.81534, "tags": {"alt_name": "\u0644\u0648\u0631\u0643\u0627", "int_name": "L\u016brk\u0101, \u0644\u0648\u0631\u0643\u0627, Lurka, \u0644\u0648\u0631\u0643\u0627", "is_in": "Iraq , \u062c\u0645\u0647\u0648\u0631\u064a\u0629 \u0627\u0644\u0639\u0631\u0627\u0642", "name": "\u0644\u0648\u0631\u0643\u0627", "name:ar": "\u0644\u0648\u0631\u0643\u0627", "name:ar1": "\u0644\u0648\u0631\u0643\u0627", "name:de": "Lurka", "name:en": "Lurka", "name:fr": "Lurka", "place": "village"}}, {"type": "node", "id": 2488279783, "lat": 35.7935849, "lon": 45.012151, "tags": {"name": "\u0639\u06d5\u0648\u062f\u0627\u06b5\u0627\u0646", "name:ar": "\u0639\u0648\u062f\u0644\u0627\u0646", "name:de": "Abd Alan", "name:en": "Abd Alan", "name:fr": "Abd Alan", "place": "village"}}, {"type": "node", "id": 2488279795, "lat": 35.7513895, "lon": 44.9247251, "tags": {"is_in": "Iraq , \u062c\u0645\u0647\u0648\u0631\u064a\u0629 \u0627\u0644\u0639\u0631\u0627\u0642", "name": "\u0628\u0644\u0648\u06a9\u06ce\u0646", "name:ar": "\u0628\u0644\u0648\u0643\u064a\u0646", "name:ar1": "\u0628\u0644\u0648\u0643\u064a\u0646", "name:de": "Bulukayn", "name:en": "Bulukayn", "name:fr": "Bulukayn", "place": "village", "wikidata": "Q65404208", "wikipedia": "ckb:\u0628\u0644\u0648\u06a9\u06ce\u0646"}}, {"type": "node", "id": 2488279813, "lat": 35.8381329, "lon": 44.9718604, "tags": {"alt_name": "\u062f\u0631\u0629 \u0646\u0627\u0631;\u062f\u0631\u0647 \u0646\u0627\u0631", "int_name": "Darat N\u0101r, \u062f\u0631\u0629 \u0646\u0627\u0631, Darat Nar, \u062f\u0631\u0629 \u0646\u0627\u0631;\u062f\u0631\u0647 \u0646\u0627\u0631, \u062f\u0631\u0647 \u0646\u0627\u0631", "is_in": "Iraq , \u062c\u0645\u0647\u0648\u0631\u064a\u0629 \u0627\u0644\u0639\u0631\u0627\u0642", "name": "\u062f\u06d5\u0631\u06d5\u0646\u0627\u0631", "name:ar": "\u062f\u0631\u0629\u0646\u0627\u0631", "name:ar1": "\u062f\u0631\u0629 \u0646\u0627\u0631;\u062f\u0631\u0647 \u0646\u0627\u0631", "name:de": "Daranar", "name:en": "Daranar", "name:fr": "Daranar", "place": "village"}}, {"type": "node", "id": 2488279815, "lat": 35.930643, "lon": 44.962935, "tags": {"capital": "6", "is_in": "Iraq , \u062c\u0645\u0647\u0648\u0631\u064a\u0629 \u0627\u0644\u0639\u0631\u0627\u0642", "name": "\u062f\u0648\u0648\u06a9\u0627\u0646", "name:ar": "\u062f\u0648\u0643\u0627\u0646", "name:ckb": "\u062f\u0648\u0648\u06a9\u0627\u0646", "name:de": "Dokan", "name:en": "Dukan", "name:fr": "Dokan", "name:ku": "D\u00fbkan", "name:ml": "\u0d26\u0d42\u0d15\u0d4d\u0d15\u0d3e\u0d7b", "name:ru": "\u0414\u0443\u043a\u0430\u043d", "place": "town", "wikidata": "Q21529428", "wikipedia": "ckb:\u062f\u0648\u0648\u06a9\u0627\u0646"}}, {"type": "node", "id": 2488279817, "lat": 35.7989833, "lon": 45.0195976, "tags": {"int_name": "K\u0101n\u012b Hanj\u012br Khuw\u0101r\u016b, \u0643\u0627\u0646\u064a \u0647\u0646\u062c\u064a\u0631 \u062e\u0648\u0627\u0631\u0648, Kani Hanjir Khuwaru, \u0643\u0627\u0646\u064a \u0647\u0646\u062c\u064a\u0631 \u062e\u0648\u0627\u0631\u0648", "name": "\u06a9\u0627\u0646\u06cc \u06be\u06d5\u0646\u062c\u06cc\u0631\u06cc \u0639\u06d5\u0648\u062f\u0627\u06b5\u0627\u0646", "name:ar": "\u06a9\u0627\u0646\u064a \u06be\u0646\u062c\u06cc\u0631 \u0639\u0648\u062f\u0627\u0644\u0627\u0646", "name:de": "Kani Hanjir Awdalan", "name:en": "Kani Hanjir Awdalan", "name:fr": "Kani Hanjir Awdalan", "place": "village"}}, {"type": "node", "id": 2488279819, "lat": 35.945018, "lon": 45.0132439, "tags": {"is_in": "Iraq , \u062c\u0645\u0647\u0648\u0631\u064a\u0629 \u0627\u0644\u0639\u0631\u0627\u0642", "name": "\u062c\u06c6\u0628\u0648\u06b5\u0627\u062e", "name:ar": "\u062c\u0648\u0628\u0644\u0627\u063a", "name:ar1": "\u062c\u0648\u0628\u0644\u0627\u063a", "name:de": "Ju Bulaq", "name:en": "Ju Bulaq", "name:fr": "Ju Bulaq", "place": "village", "wikidata": "Q61388155", "wikipedia": "ckb:\u062c\u06c6\u0628\u06b5\u0627\u062e"}}, {"type": "node", "id": 2488279820, "lat": 35.7657847, "lon": 44.989736, "tags": {"int_name": "Kalat Sh\u012brah, \u0643\u0644\u0629 \u0634\u064a\u0631\u0629, Kalat Shirah, \u0643\u0644\u0629 \u0634\u064a\u0631\u0629", "name": "\u06a9\u06d5\u06b5\u06d5\u0634\u06ce\u0631\u06d5\u06cc \u062e\u0648\u0627\u0631\u0648\u0648", "name:ar": "\u06a9\u0644\u0627\u0634\u06cc\u0631\u0629 \u0627\u0644\u0633\u0641\u0644\u06cc", "name:de": "Kalashera Lower", "name:en": "Kalashera Lower", "name:fr": "Kalashera Lower", "place": "village"}}, {"type": "node", "id": 2488279821, "lat": 35.9266852, "lon": 44.9210037, "tags": {"name": "\u06a9\u0644\u06a9\u06d5\u0633\u0645\u0627\u0642", "name:ar": "\u06a9\u0644\u0643\u064e\u0633\u0645\u0627\u0642", "name:ckb": "\u06a9\u0644\u06a9\u06d5\u0633\u0645\u0627\u0642", "name:en": "Klkasmaq", "name:ku": "Kilkesimaq", "place": "village"}}, {"type": "node", "id": 2488279824, "lat": 35.852187, "lon": 45.031968, "tags": {"is_in": "Iraq , \u062c\u0645\u0647\u0648\u0631\u064a\u0629 \u0627\u0644\u0639\u0631\u0627\u0642", "name": "\u06a9\u0627\u0646\u06cc \u0647\u06d5\u0646\u062c\u06cc\u0631", "name:ar": "\u0643\u0627\u0646\u064a \u0647\u0646\u062c\u064a\u0631", "name:ar1": "\u0643\u0627\u0646\u064a \u0647\u0646\u062c\u064a\u0631", "name:de": "Kani Hanjir", "name:en": "Kani Hanjir", "name:fr": "Kani Hanjir", "place": "village"}}, {"type": "node", "id": 2488279828, "lat": 35.9060609, "lon": 45.0304821, "tags": {"name": "\u0633\u06d5\u0631\u0645\u06c6\u0631\u062f", "name:ar": "\u0633\u0631\u0645\u0648\u0631\u062f", "name:ckb": "\u0633\u06d5\u0631\u0645\u06c6\u0631\u062f", "name:en": "Sarmord", "name:ku": "Sermord", "place": "village", "wikidata": "Q61388137", "wikipedia": "ckb:\u0633\u06d5\u0631\u0645\u06c6\u0631\u062f"}}, {"type": "node", "id": 2488279829, "lat": 35.98847, "lon": 45.000498, "tags": {"is_in": "Iraq , \u062c\u0645\u0647\u0648\u0631\u064a\u0629 \u0627\u0644\u0639\u0631\u0627\u0642", "name": "\u067e\u06d5\u06b5\u06a9\u06c6", "name:ar": "\u064a\u0644\u0643\u0648", "name:ar1": "\u064a\u0644\u0643\u0648", "name:de": "Palko", "name:en": "Palko", "name:fr": "Palko", "place": "village"}}, {"type": "node", "id": 2488279830, "lat": 35.7608535, "lon": 44.9927851, "tags": {"int_name": "Qal\u0101 Sh\u012brah, Qala Shirah", "name": "\u06a9\u06d5\u06b5\u06d5\u0634\u06ce\u0631\u06d5\u06cc \u0633\u06d5\u0631\u0648\u0648", "name:ar": "\u06a9\u0644\u0627\u0634\u06cc\u0631\u0629 \u0627\u0644\u0639\u0644\u06cc\u0627", "name:de": "Kalashera Upper", "name:en": "Kalashera Upper", "name:fr": "Kalashera Upper", "place": "village"}}, {"type": "node", "id": 2488279831, "lat": 35.896135, "lon": 45.0123288, "tags": {"alt_name": "\u0642\u06d5\u0645\u0686\u0648\u063a\u06d5", "is_in": "Iraq , \u062c\u0645\u0647\u0648\u0631\u064a\u0629 \u0627\u0644\u0639\u0631\u0627\u0642", "name": "\u0642\u06d5\u0645\u0686\u0648\u0648\u063a\u06d5", "name:ar": "\u0642\u0645\u062c\u0648\u063a\u0629", "name:de": "Qamchugha", "name:en": "Qamchugha", "name:fr": "Qamchugha", "name:ku": "\u0642\u06d5\u0645\u0686\u0648\u063a\u06d5", "place": "village"}}, {"type": "node", "id": 2488279835, "lat": 35.9535455, "lon": 44.9907925, "tags": {"alt_name": "\u0631\u0643\u0627\u0648\u0629", "int_name": "Rik\u0101wa, Rikawa, \u0695\u06a9\u0627\u0648\u06d5", "name": "\u0695\u06a9\u0627\u0648\u06d5", "name:de": "Rikawa", "name:en": "Rikawa", "name:fr": "Rikawa", "place": "village", "wikidata": "Q61388174", "wikipedia": "ckb:\u0695\u06a9\u0627\u0648\u0627"}}, {"type": "node", "id": 2488279837, "lat": 35.9063707, "lon": 44.9497738, "tags": {"is_in": "Iraq , \u062c\u0645\u0647\u0648\u0631\u064a\u0629 \u0627\u0644\u0639\u0631\u0627\u0642", "name": "\u0633\u0627\u0631\u062a\u06a9\u06d5", "name:ar": "\u0633\u0627\u0631\u062a\u06a9\u0629", "name:de": "Sartka", "name:en": "Sartka", "name:fr": "Sartka", "place": "village"}}, {"type": "node", "id": 2488279842, "lat": 35.8403518, "lon": 45.0192777, "tags": {"is_in": "Iraq , \u062c\u0645\u0647\u0648\u0631\u064a\u0629 \u0627\u0644\u0639\u0631\u0627\u0642", "name": "\u0633\u06ce\u06a9\u0627\u0646\u06cc\u0627\u0646", "name:ar": "\u0633\u064a \u0643\u0627\u0646\u064a\u0627\u0646", "name:ar1": "\u0633\u064a \u0643\u0627\u0646\u064a\u0627\u0646", "name:de": "Si Kanyan", "name:en": "Si Kanyan", "name:fr": "Si Kanyan", "place": "village"}}, {"type": "node", "id": 2488279843, "lat": 35.8474921, "lon": 44.9480773, "tags": {"is_in": "Iraq , \u062c\u0645\u0647\u0648\u0631\u064a\u0629 \u0627\u0644\u0639\u0631\u0627\u0642", "name": "\u0633\u0648\u0631\u0642\u0627\u0648\u0634\u0627\u0646\u06cc \u0634\u06ce\u062e\u0627\u0646", "name:ar": "\u0633\u0631\u0642\u0648\u0634\u0627\u0646\u064a \u0634\u064a\u062e\u0627\u0646", "name:ar1": "\u0643\u0648\u062a\u0644", "name:de": "Surqaoshan i Shaikhan", "name:en": "Surqaoshan i Shaikhan", "name:fr": "Surqaoshan i Shaikhan", "place": "village", "wikidata": "Q61388178", "wikipedia": "ckb:\u0633\u0648\u0631\u0642\u0627\u0648\u0634\u0627\u0646\u06cc \u0634\u06ce\u062e\u0627\u0646"}}, {"type": "node", "id": 2488279845, "lat": 36.0086273, "lon": 44.9640062, "tags": {"is_in": "Iraq , \u062c\u0645\u0647\u0648\u0631\u064a\u0629 \u0627\u0644\u0639\u0631\u0627\u0642", "name": "\u062a\u06c6\u0631\u0628\u06d5", "name:ar": "\u062a\u0648\u0631\u0628\u0629", "name:ar1": "\u062a\u0631\u0628\u0629", "name:de": "Torba", "name:en": "Torba", "name:fr": "Torba", "place": "village"}}, {"type": "node", "id": 2488279847, "lat": 35.952967, "lon": 44.98663, "tags": {"alt_name": "\u0637\u0648\u0628\u0632\u0627\u0648\u0629", "int_name": "Topz\u0101wa, \u0162\u016bpz\u0101wa, Topzawa, \u062a\u06c6\u067e\u0632\u0627\u0648\u06d5", "name": "\u062a\u06c6\u067e\u0632\u0627\u0648\u06d5", "name:de": "Topzawa", "name:en": "Topzawa", "name:fr": "Topzawa", "place": "village", "wikidata": "Q61388154", "wikipedia": "ckb:\u062a\u06c6\u067e\u0632\u0627\u0648\u0627"}}, {"type": "node", "id": 2488279857, "lat": 35.812266, "lon": 45.017302, "tags": {"alt_name": "\u0632\u0631\u0632\u064a", "int_name": "Zarz\u012b, Zarz\u012b, \u0632\u0631\u0632\u064a, Zarzi, Zarzi, \u0632\u0631\u0632\u064a", "is_in": "Iraq , \u062c\u0645\u0647\u0648\u0631\u064a\u0629 \u0627\u0644\u0639\u0631\u0627\u0642", "name": "\u0632\u06d5\u0631\u0632\u06cc", "name:ar": "\u0632\u0631\u0632\u064a", "name:ckb": "\u0632\u06d5\u0631\u0632\u06cc", "name:de": "zarzi", "name:en": "zarzi", "name:fr": "Zahrzi", "place": "village"}}, {"type": "node", "id": 2488279858, "lat": 35.9456967, "lon": 44.9634278, "tags": {"alt_name": "\u0632\u064a\u0631\u0627\u0646\u062f\u0648\u0644", "int_name": "Z\u012br\u0101nd\u016bl, \u0632\u064a\u0631\u0627\u0646\u062f\u0648\u0644, Zirandul, \u0632\u064a\u0631\u0627\u0646\u062f\u0648\u0644", "name": "\u0632\u064a\u0631\u0627\u0646\u062f\u0648\u0644", "name:ar": "\u0632\u064a\u0631\u0627\u0646\u062f\u0648\u0644", "name:ar1": "\u0632\u064a\u0631\u0627\u0646\u062f\u0648\u0644", "name:de": "Zirandul", "name:en": "Zirandul", "name:fr": "Zirandul", "place": "village"}}, {"type": "node", "id": 2488279860, "lat": 35.8443358, "lon": 44.9916632, "tags": {"alt_name": "\u0633\u0631\u0648\u0646\u0647 \u0627\u0644\u0643\u0628\u0631\u0649;\u0633\u0631\u0648\u0646\u0627 \u0643\u0648\u0631\u0629;\u0633\u0631\u0648\u0646\u0629 \u0627\u0644\u0643\u0628\u0631\u0649", "int_name": "\u0633\u0631\u0648\u0646\u0647 \u0627\u0644\u0643\u0628\u0631\u0649, \u0633\u0631\u0648\u0646\u0647 \u0627\u0644\u0643\u0628\u0631\u0649;Sar\u016bn\u0101 K\u016brah, \u0633\u0631\u0648\u0646\u0627 \u0643\u0648\u0631\u0629, Saruna Kurah, \u0633\u0631\u0648\u0646\u0627 \u0643\u0648\u0631\u0629;Sar\u016bnah al Kubr\u00e1, Sarunah al Kubra", "is_in": "Iraq , \u062c\u0645\u0647\u0648\u0631\u064a\u0629 \u0627\u0644\u0639\u0631\u0627\u0642", "name": "\u0633\u0631\u062f\u06cc \u06af\u06d5\u0648\u0631\u06d5", "name:ar": "\u0633\u0631\u062f \u0627\u0644\u06a9\u0628\u0631\u06cc", "name:ar1": "\u0633\u0631\u0648\u0646\u0647 \u0627\u0644\u0643\u0628\u0631\u0649;\u0633\u0631\u0648\u0646\u0627 \u0643\u0648\u0631\u0629;\u0633\u0631\u0648\u0646\u0629 \u0627\u0644\u0643\u0628\u0631\u0649", "name:de": "Srd Big", "name:en": "Srd Big", "name:fr": "Srd Big", "place": "village"}}, {"type": "node", "id": 2488281446, "lat": 36.0712389, "lon": 44.8958541, "tags": {"is_in": "Iraq , \u062c\u0645\u0647\u0648\u0631\u064a\u0629 \u0627\u0644\u0639\u0631\u0627\u0642", "name": "\u0639\u0627\u0644\u06cc\u0642\u06d5\u06cc \u062e\u0648\u0627\u0631\u0648\u0648", "name:ar": "\u0639\u0627\u0644\u064a\u0642\u0627 \u0633\u0641\u0644\u0649", "name:ar1": "\u0623\u0644\u064a\u0642\u0627 \u0633\u0641\u0644\u0649", "name:de": "Aliqa Lower", "name:en": "Aliqa Lower", "name:fr": "Aliqa Lower", "place": "village"}}, {"type": "node", "id": 2488281450, "lat": 36.055778, "lon": 44.913361, "tags": {"is_in": "Iraq , \u062c\u0645\u0647\u0648\u0631\u064a\u0629 \u0627\u0644\u0639\u0631\u0627\u0642", "name": "\u0628\u0646\u06af\u0631\u062f\u0627\u0646", "name:ar": "\u0628\u0646\u0643\u0631\u062f\u0627\u0646", "name:de": "Bingirdan", "name:en": "Bingirdan", "name:fr": "Bingirdan", "place": "village"}}, {"type": "node", "id": 2488281453, "lat": 36.0338185, "lon": 44.9002144, "tags": {"name": "\u0686\u0646\u0627\u0631\u0627\u0646", "name:ar": "\u062c\u0646\u0627\u0631\u0627\u0646", "name:ckb": "\u0686\u0646\u0627\u0631\u0627\u0646", "name:en": "Chnaran", "name:ku": "\u00c7inaran", "place": "village", "wikidata": "Q61388764", "wikipedia": "ckb:\u0686\u0646\u0627\u0631\u0627\u0646"}}, {"type": "node", "id": 2488281455, "lat": 36.0645544, "lon": 44.8683838, "tags": {"is_in": "Iraq , \u062c\u0645\u0647\u0648\u0631\u064a\u0629 \u0627\u0644\u0639\u0631\u0627\u0642", "name": "\u06be\u06d5\u0646\u062c\u06cc\u0631\u06c6\u06a9", "name:ar": "\u06be\u0646\u062c\u06cc\u0631\u0648\u06a9", "name:ar1": "\u0647\u0646\u062c\u064a\u0631\u0629", "name:de": "Hanjeerok", "name:en": "Hanjeerok", "name:fr": "Hanjeerok", "place": "village"}}, {"type": "node", "id": 2488281459, "lat": 36.0558461, "lon": 44.8637744, "tags": {"is_in": "Iraq , \u062c\u0645\u0647\u0648\u0631\u064a\u0629 \u0627\u0644\u0639\u0631\u0627\u0642", "name": "\u06a9\u0627\u0646\u06cc \u0626\u06d5\u0633\u067e\u0627\u0646", "name:ar": "\u0643\u0627\u0646\u064a \u0627\u0633\u0628\u0627\u0646", "name:ar1": "\u0643\u0627\u0646\u064a \u0627\u0633\u0628\u0627\u0646", "name:de": "Kani Aspan", "name:en": "Kani Aspan", "name:fr": "Kani Aspan", "place": "village"}}, {"type": "node", "id": 2488281460, "lat": 36.0266149, "lon": 44.9155306, "tags": {"is_in": "Iraq , \u062c\u0645\u0647\u0648\u0631\u064a\u0629 \u0627\u0644\u0639\u0631\u0627\u0642", "name": "\u06a9\u0627\u0646\u06cc \u0628\u0646\u0627\u0648", "name:ar": "\u0643\u0627\u0646\u064a \u0628\u0646\u0627\u0648", "name:ar1": "\u0643\u0627\u0646\u064a \u0628\u0646\u0627\u0648", "name:de": "Kani Binao", "name:en": "Kani Binao", "name:fr": "Kani Binao", "place": "village"}}, {"type": "node", "id": 2488281461, "lat": 36.0592734, "lon": 44.8818441, "tags": {"alt_name": "\u0645\u064a\u0631\u0632\u0629 \u0631\u0633\u062a\u0645;\u0645\u064a\u0631\u0632\u0627 \u0631\u0633\u062a\u0645;\u0627\u0644\u064a\u0642\u0627 \u0639\u0644\u064a\u0627", "int_name": "Mirza Rustam, Mirzah Rustum, M\u016brzah Rustam, Mirza Rustam, Mirzah Rustum, Murzah Rustam;M\u012brz\u0101 Rustum, Mirza Rustum;\u0627\u0644\u064a\u0642\u0627 \u0639\u0644\u064a\u0627, \u0627\u0644\u064a\u0642\u0627 \u0639\u0644\u064a\u0627", "is_in": "Iraq , \u062c\u0645\u0647\u0648\u0631\u064a\u0629 \u0627\u0644\u0639\u0631\u0627\u0642", "name": "\u0639\u0627\u0644\u06cc\u0642\u06d5\u06cc \u0633\u06d5\u0631\u0648\u0648", "name:ar": "\u0639\u0627\u0644\u06cc\u0642\u0629 \u0627\u0644\u0639\u0644\u06cc\u0627", "name:ar1": "\u0645\u064a\u0631\u0632\u0629 \u0631\u0633\u062a\u0645;\u0623\u0644\u064a\u0642\u0627 \u0639\u0644\u064a\u0627;\u0645\u064a\u0631\u0632\u0627 \u0631\u0633\u062a\u0645;\u0627\u0644\u064a\u0642\u0627 \u0639\u0644\u064a\u0627", "name:de": "Aliqa Upper", "name:en": "Aliqa Upper", "name:fr": "Aliqa Upper", "place": "village"}}, {"type": "node", "id": 2488281466, "lat": 36.068556, "lon": 44.856194, "tags": {"is_in": "Iraq , \u062c\u0645\u0647\u0648\u0631\u064a\u0629 \u0627\u0644\u0639\u0631\u0627\u0642", "name": "\u0634\u0648\u0634\u06a9\u06d5", "name:ar": "\u0634\u0648\u0634\u0643\u0629", "name:ar1": "\u0634\u0648\u0634\u0643\u0629", "name:de": "Shoshka", "name:en": "Shoshka", "name:fr": "Shoshka", "place": "village"}}, {"type": "node", "id": 2488281480, "lat": 35.7486987, "lon": 44.8984883, "tags": {"alt_name:ar": "\u0623\u0643\u062c\u0644\u0631", "alt_name:en": "Agjlar", "capital": "7", "int_name": "Aq Jallar, \u0100qchalar, Aq Jallar, Aqchalar\u060c \u0626\u0627\u200c\u063a\u062c\u06d5\u0644\u06d5\u0631", "is_in": "Iraq , \u062c\u0645\u0647\u0648\u0631\u064a\u0629 \u0627\u0644\u0639\u0631\u0627\u0642", "name": "\u0626\u0627\u063a\u062c\u06d5\u0644\u06d5\u0631", "name:ar": "\u0622\u063a\u062c\u0644\u0631", "name:ckb": "\u0626\u0627\u200c\u063a\u062c\u06d5\u0644\u06d5\u0631", "name:de": "Aghjalar", "name:en": "Aghjalar", "name:fr": "Aghjalar", "name:ku": "A\u1e8dceler", "place": "town", "wikidata": "Q65404183", "wikipedia": "ckb:\u0626\u0627\u063a\u062c\u06d5\u0644\u06d5\u0631"}}, {"type": "node", "id": 2488281482, "lat": 35.905899, "lon": 44.861856, "tags": {"name": "\u0628\u06c6\u06af\u062f", "name:ar": "\u0628\u0648\u0643\u062f", "name:ckb": "\u0628\u06c6\u06af\u062f", "name:en": "Bogd", "name:ku": "Bogid", "place": "village", "wikipedia": "ckb:\u0628\u06c6\u06af\u062f"}}, {"type": "node", "id": 2488281483, "lat": 35.8790389, "lon": 44.8854777, "tags": {"is_in": "Iraq , \u062c\u0645\u0647\u0648\u0631\u064a\u0629 \u0627\u0644\u0639\u0631\u0627\u0642", "name": "\u0628\u06c6\u06b5\u0642\u0627\u0645\u06cc\u0634", "name:ar": "\u0628\u0648\u0644\u0642\u0627\u0645\u06cc\u0634", "name:ar1": "\u0628\u0648\u0642\u0627\u0645\u064a\u0634", "name:de": "Bolqamish", "name:en": "Bolqamish", "name:fr": "Bolqamish", "place": "village", "wikidata": "Q65404212", "wikipedia": "ckb:\u0628\u06c6\u06b5\u0642\u0627\u0645\u06cc\u0634"}}, {"type": "node", "id": 2488281487, "lat": 35.9964315, "lon": 44.8550691, "tags": {"alt_name:ar": "\u0641\u0642\u064a \u062d\u0627\u062c\u064a", "name": "\u0634\u06ce\u062e \u062d\u0627\u062c\u06cc", "name:ar": "\u0634\u064a\u062e \u062d\u0627\u062c\u064a", "name:ckb": "\u0634\u06ce\u062e \u062d\u0627\u062c\u06cc", "name:en": "Shekh Haji", "name:ku": "\u015e\u00eax Hac\u00ee", "place": "village", "wikidata": "Q61388807", "wikipedia": "ckb:\u0634\u06ce\u062e \u062d\u0627\u062c\u06cc"}}, {"type": "node", "id": 2488281493, "lat": 35.980917, "lon": 44.867278, "tags": {"name": "\u0641\u0631\u06cc\u0632\u06d5\u06b5\u06d5", "name:ar": "\u0641\u0631\u064a\u0632\u0644\u0629", "name:ckb": "\u0641\u0631\u06cc\u0632\u06d5\u06b5\u06d5", "name:en": "Frizala", "name:ku": "Fir\u00eezele", "place": "village", "wikidata": "Q61388834", "wikipedia": "ckb:\u0641\u0631\u06cc\u0632\u06d5\u06b5\u06d5"}}, {"type": "node", "id": 2488281510, "lat": 35.8823318, "lon": 44.9128437, "tags": {"is_in": "Iraq , \u062c\u0645\u0647\u0648\u0631\u064a\u0629 \u0627\u0644\u0639\u0631\u0627\u0642", "name": "\u06a9\u06b5\u06ce\u0633\u06d5", "name:ar": "\u0643\u0644\u064a\u0633\u0629", "name:ar1": "\u0643\u0644\u064a\u0633\u0629", "name:de": "Kalisah", "name:en": "Kalisah", "name:fr": "Kalisah", "place": "village"}}, {"type": "node", "id": 2488281518, "lat": 35.9879734, "lon": 44.8727824, "tags": {"is_in": "Iraq , \u062c\u0645\u0647\u0648\u0631\u064a\u0629 \u0627\u0644\u0639\u0631\u0627\u0642", "name": "\u06a9\u0627\u0646\u06cc \u0634\u06ce\u0631\u0627\u0646", "name:ar": "\u0643\u0627\u0646\u064a \u0634\u064a\u0631\u0627\u0646", "name:ar1": "\u0643\u0627\u0646\u064a \u0634\u064a\u0631\u0627\u0646", "name:de": "Kani Shiran", "name:en": "Kani Shiran", "name:fr": "Kani Shiran", "place": "village"}}, {"type": "node", "id": 2488281530, "lat": 35.9149986, "lon": 44.8991052, "tags": {"is_in": "Iraq , \u062c\u0645\u0647\u0648\u0631\u064a\u0629 \u0627\u0644\u0639\u0631\u0627\u0642", "name": "\u06a9\u0627\u0646\u06cc \u0633\u0648\u0648\u0631", "name:ar": "\u0643\u0627\u0646\u064a \u0633\u0648\u0631", "name:ar1": "\u0643\u0627\u0646\u064a \u0633\u0648\u0631", "name:de": "Kani Sur", "name:en": "Kani Sur", "name:fr": "Kani Sur", "place": "village"}}, {"type": "node", "id": 2488281542, "lat": 35.7286905, "lon": 44.9096752, "tags": {"is_in": "Iraq , \u062c\u0645\u0647\u0648\u0631\u064a\u0629 \u0627\u0644\u0639\u0631\u0627\u0642", "name": "\u0645\u06c6\u062a\u0644\u06cc\u062c\u06d5", "name:ar": "\u0645\u0648\u062a\u0644\u06cc\u062c\u0629", "name:en": "Motlije", "place": "village", "wikidata": "Q65404386", "wikipedia": "ckb:\u0645\u06c6\u062a\u0644\u06cc\u062c\u06d5"}}, {"type": "node", "id": 2488281567, "lat": 35.960319, "lon": 44.894865, "tags": {"name": "\u0642\u06d5\u06b5\u0627\u062a", "name:ar": "\u0642\u0644\u0627\u062a", "name:ckb": "\u0642\u06d5\u06b5\u0627\u062a", "name:en": "Qalat", "name:ku": "Qelat", "place": "village", "wikidata": "Q61388842", "wikipedia": "ckb:\u0642\u06d5\u06b5\u0627\u062a\u060c \u062e\u06d5\u0644\u06d5\u06a9\u0627\u0646"}}, {"type": "node", "id": 2488281579, "lat": 35.9655137, "lon": 44.8776093, "tags": {"name": "\u0642\u0627\u0645\u06cc\u0634\u06d5", "name:ar": "\u0642\u0627\u0645\u064a\u0634\u0629", "name:ckb": "\u0642\u0627\u0645\u06cc\u0634\u06d5", "name:en": "Qamisha", "name:ku": "Qam\u00ee\u015fe", "place": "village", "wikidata": "Q61388840", "wikipedia": "ckb:\u0642\u0627\u0645\u06cc\u0634\u06d5\u060c \u062e\u06d5\u0644\u06d5\u06a9\u0627\u0646"}}, {"type": "node", "id": 2488281596, "lat": 35.7519325, "lon": 44.8732817, "tags": {"name": "\u0634\u06ce\u062e \u067e\u0627\u06b5\u06d5\u0648\u0627\u0646", "name:ar": "\u0634\u064a\u062e \u0628\u0647\u0644\u0648\u0627\u0646", "name:de": "Shaikh Phalwan", "name:en": "Shaikh Phalwan", "name:fr": "Shaikh Phalwan", "place": "village", "wikidata": "Q65404311", "wikipedia": "ckb:\u0634\u06ce\u062e \u067e\u0627\u06b5\u06d5\u0648\u0627\u0646"}}, {"type": "node", "id": 2488281654, "lat": 35.6511995, "lon": 44.8802545, "tags": {"name": "\u0628\u0627\u0648\u06d5\u0641\u06d5\u062a\u06cc \u0633\u06d5\u0631\u0648\u0648", "name:ar": "\u0628\u0627\u0648\u0629\u0641\u062a\u06cc \u0639\u0644\u06cc\u0627", "name:en": "Bawafaty Upper", "place": "village", "wikidata": "Q64211582", "wikipedia": "ckb:\u0628\u0627\u0648\u06d5\u0641\u06d5\u062a\u06cc \u0633\u06d5\u0631\u0648\u0648"}}, {"type": "node", "id": 2488281666, "lat": 35.708245, "lon": 44.9362097, "tags": {"name": "\u0686\u0646\u0627\u0631\u062a\u0648\u0648", "name:ar": "\u062c\u0646\u0627\u0631\u062a\u0648", "name:ckb": "\u0686\u0646\u0627\u0631\u062a\u0648\u0648", "name:en": "Chnartu", "name:ku": "\u00c7inart\u00fb", "place": "village", "wikidata": "Q65404406", "wikipedia": "ckb:\u0686\u0646\u0627\u0631\u062a\u0648\u0648"}}, {"type": "node", "id": 2488281667, "lat": 35.6786954, "lon": 44.848958, "tags": {"name": "\u0686\u06cc\u0627\u0633\u06d5\u0648\u0632", "name:ar": "\u062c\u06cc\u0627\u0633\u0648\u0632", "name:ckb": "\u0686\u06cc\u0627 \u0633\u06d5\u0648\u0632", "name:en": "Chya Sawz", "place": "village", "wikidata": "Q65404414", "wikipedia": "ckb:\u0686\u06cc\u0627\u0633\u06d5\u0648\u0632\u060c \u0626\u0627\u063a\u062c\u06d5\u0644\u06d5\u0631"}}, {"type": "node", "id": 2488281670, "lat": 35.7309594, "lon": 44.9289762, "tags": {"alt_name": "\u0643\u0648\u0631\u0643\u0648\u0631", "int_name": "Gargai, Gurgai, K\u016brk\u016br, \u0643\u0648\u0631\u0643\u0648\u0631, Gargai, Gurgai, Kurkur, \u0643\u0648\u0631\u0643\u0648\u0631", "is_in": "Iraq , \u062c\u0645\u0647\u0648\u0631\u064a\u0629 \u0627\u0644\u0639\u0631\u0627\u0642", "name": "\u06af\u06d5\u0695\u06af\u06d5\u0695", "name:ar": "\u06a9\u0631\u06a9\u0631", "name:ar1": "\u0643\u0648\u0631\u0643\u0648\u0631", "name:de": "Gargar", "name:en": "Gargar", "name:fr": "Gargar", "place": "village", "wikidata": "Q65404502", "wikipedia": "ckb:\u06af\u06d5\u0695\u06af\u06d5\u0695"}}, {"type": "node", "id": 2488281682, "lat": 35.6835938, "lon": 44.9637097, "tags": {"name": "\u062e\u0695\u0628\u06d5\u0646\u062f\u06d5\u0644\u0648\u0648", "name:ar": "\u062e\u0631\u0628\u0646\u062f\u0644\u0648", "name:ckb": "\u062e\u0695\u0628\u06d5\u0646\u062f\u06d5\u0644\u0648\u0648", "name:en": "Khrbandalu", "name:ku": "Xirbendel\u00fb", "place": "village", "wikidata": "Q65404269", "wikipedia": "ckb:\u062e\u0695\u0628\u06d5\u0646\u062f\u06d5\u0644\u0648\u0648"}}, {"type": "node", "id": 2488281685, "lat": 35.6945958, "lon": 44.8426675, "tags": {"name": "\u0642\u0648\u0695\u0627\u0648\u06d5", "name:ar": "\u0642\u0648\u0631\u0627\u0648\u0629", "name:de": "Qwrawa", "name:en": "Qwrawa", "name:fr": "Qwrawa", "place": "village", "wikidata": "Q65404346", "wikipedia": "ckb:\u0642\u0648\u0695\u0627\u0648\u06d5"}}, {"type": "node", "id": 2488281689, "lat": 35.669733, "lon": 44.912242, "tags": {"name": "\u0642\u0634\u06b5\u0627\u063a", "name:ar": "\u0642\u0634\u0644\u0627\u063a", "name:de": "Qashlak", "name:en": "Qashlak", "name:fr": "Qashlak", "place": "village"}}, {"type": "node", "id": 2488281691, "lat": 35.65814, "lon": 44.924483, "tags": {"name": "\u0634\u06ce\u062e \u0648\u06d5\u06cc\u0633\u06cc", "name:ar": "\u0634\u064a\u062e \u0648\u064a\u0633", "name:de": "Shaikh Waisi", "name:en": "Shaikh Waisi", "name:fr": "Shaikh Waisi", "place": "village"}}, {"type": "node", "id": 2488281692, "lat": 35.6902135, "lon": 44.8763445, "tags": {"name": "\u06a9\u0627\u0646\u06cc \u0633\u067e\u06cc\u0644\u06a9\u06d5", "name:ar": "\u0633\u0628\u064a\u0643\u0629", "name:de": "Sipikah", "name:en": "Kani Sipikah", "name:fr": "Sipikah", "place": "village", "wikidata": "Q65404433", "wikipedia": "ckb:\u06a9\u0627\u0646\u06cc \u0633\u067e\u06cc\u0644\u06a9\u06d5"}}, {"type": "node", "id": 2488281700, "lat": 35.7125863, "lon": 44.9529075, "tags": {"is_in": "Iraq , \u062c\u0645\u0647\u0648\u0631\u064a\u0629 \u0627\u0644\u0639\u0631\u0627\u0642", "name": "\u0642\u0648\u0686\u0644\u06d5\u0631", "name:ar": "\u0642\u0648\u062c\u0644\u0631", "name:ar1": "\u062a\u0648\u062c\u0644\u0631", "name:de": "Tujlar", "name:en": "Qojalar", "name:fr": "Tujlar", "name:ku-Arab": "\u0642\u0648\u062c\u0647 \u0644\u0647 \u0631", "place": "village", "wikidata": "Q65404338", "wikipedia": "ckb:\u0642\u0648\u0686\u0644\u06d5\u0631"}}, {"type": "node", "id": 2488283528, "lat": 35.7584804, "lon": 45.0791273, "tags": {"is_in": "Iraq , \u062c\u0645\u0647\u0648\u0631\u064a\u0629 \u0627\u0644\u0639\u0631\u0627\u0642", "name": "\u0628\u0627\u0648\u06d5\u0645\u06d5\u0646\u062f\u0627\u0646\u06cc \u0633\u06d5\u0631\u0648\u0648", "name:ar": "\u0628\u0627\u0648\u0645\u0646\u062f\u0627\u0646 \u0627\u0644\u0639\u0644\u06cc\u0627", "name:ar1": "\u0628\u0648\u0645\u0646\u062f\u0646", "name:de": "Bawamandan Upper", "name:en": "Bawamandan Upper", "name:fr": "Bawamandan Upper", "place": "village"}}, {"type": "node", "id": 2488283529, "lat": 35.6628344, "lon": 45.0214893, "tags": {"name": "\u0628\u0627\u0631\u06cc\u06a9\u06d5", "name:ar": "\u0628\u0627\u0631\u064a\u0643\u0629", "name:ckb": "\u0628\u0627\u0631\u06cc\u06a9\u06d5", "name:en": "Barika", "name:ku": "Bar\u00eeke", "place": "village", "wikidata": "Q61383888", "wikipedia": "ckb:\u0628\u0627\u0631\u06cc\u06a9\u06d5\u060c \u0628\u0627\u0632\u06cc\u0627\u0646"}}, {"type": "node", "id": 2488283530, "lat": 35.6497344, "lon": 45.066405, "tags": {"name": "\u0628\u06d5\u0631\u062f\u06d5\u0642\u0627\u0631\u06d5\u0645\u0627\u0646", "name:ckb": "\u0628\u06d5\u0631\u062f\u06d5\u0642\u0627\u0631\u06d5\u0645\u0627\u0646", "name:en": "Bardaqaraman", "name:ku": "Berdeqareman", "old_name": "\u0628\u0627\u06cc\u0646\u062c\u0627\u0646", "place": "town", "wikidata": "Q61383874", "wikipedia": "ckb:\u0628\u06d5\u0631\u062f\u06d5\u0642\u0627\u0631\u06d5\u0645\u0627\u0646"}}, {"type": "node", "id": 2488283531, "lat": 35.843698, "lon": 45.049063, "tags": {"is_in": "Iraq , \u062c\u0645\u0647\u0648\u0631\u064a\u0629 \u0627\u0644\u0639\u0631\u0627\u0642", "name": "\u067e\u06ce\u062f\u06d5\u0631\u06d5", "name:ar": "\u0628\u064a \u062f\u0627\u0648\u0629", "name:ar1": "\u0628\u064a \u062f\u0627\u0648\u0629", "name:de": "Bi Dawah", "name:en": "Bi Dawah", "name:fr": "Bi Dawah", "place": "village"}}, {"type": "node", "id": 2488283540, "lat": 35.9414098, "lon": 45.0699529, "tags": {"alt_name": "\u062f\u0648\u0644\u0645\u0629 \u0631\u0632\u0627", "int_name": "Dawlat Z\u0101l\u0101, Dawlmah Riz\u0101, Dolmazala, \u062f\u0648\u0644\u0645\u0629 \u0631\u0632\u0627, Dawlat Zala, Dawlmah Riza, Dolmazala, \u062f\u0648\u0644\u0645\u0629 \u0631\u0632\u0627", "is_in": "Iraq , \u062c\u0645\u0647\u0648\u0631\u064a\u0629 \u0627\u0644\u0639\u0631\u0627\u0642", "name": "\u062f\u06c6\u06b5\u0645\u0627\u0632\u06d5\u06b5\u06d5", "name:ar1": "\u062f\u0648\u0644\u0645\u0629 \u0631\u0632\u0627", "name:de": "Dolmazala", "name:en": "Dolmazala", "name:fr": "Dolmazala", "place": "village", "wikidata": "Q61388172", "wikipedia": "ckb:\u062f\u06c6\u06b5\u0645\u0627\u0632\u06d5\u06b5\u06d5"}}, {"type": "node", "id": 2488283543, "lat": 35.926775, "lon": 45.0476633, "tags": {"name": "\u0642\u06d5\u06b5\u06d5\u0645 \u067e\u0627\u0634\u0627", "name:de": "Qalam Pasha", "name:en": "Qalam Pasha", "name:fr": "Qalam Pasha", "place": "village", "wikidata": "Q61388190", "wikipedia": "ckb:\u0642\u06d5\u06b5\u06d5\u0645 \u067e\u0627\u0634\u0627"}}, {"type": "node", "id": 2488283544, "lat": 35.7206528, "lon": 45.0755635, "tags": {"is_in": "Iraq , \u062c\u0645\u0647\u0648\u0631\u064a\u0629 \u0627\u0644\u0639\u0631\u0627\u0642", "name": "\u06af\u06d5\u0628\u06d5\u06cc \u062a\u0627\u0632\u06d5", "name:ar": "\u06a9\u0628\u0629 \u062a\u0627\u0632\u0629", "name:ar1": "\u0643\u0648\u0628\u0629", "name:de": "Gabai Taza", "name:en": "Gabai Taza", "name:fr": "Gabai Taza", "place": "village"}}, {"type": "node", "id": 2488283547, "lat": 35.7388062, "lon": 45.0790933, "tags": {"alt_name": "\u0643\u0648\u0644\u062c\u0627", "int_name": "Gulija, K\u016blij\u0101, \u0643\u0648\u0644\u062c\u0627, Gulija, Kulija, \u0643\u0648\u0644\u062c\u0627", "is_in": "Iraq , \u062c\u0645\u0647\u0648\u0631\u064a\u0629 \u0627\u0644\u0639\u0631\u0627\u0642", "name": "\u06af\u0648\u0644\u06cc\u062c\u06d5", "name:ar": "\u06a9\u0648\u0644\u06cc\u062c\u0629", "name:ar1": "\u0643\u0648\u0644\u062c\u0627", "name:de": "Gulija", "name:en": "Gulija", "name:fr": "Gulija", "place": "village"}}, {"type": "node", "id": 2488283551, "lat": 35.8774389, "lon": 45.0534951, "tags": {"is_in": "Iraq , \u062c\u0645\u0647\u0648\u0631\u064a\u0629 \u0627\u0644\u0639\u0631\u0627\u0642", "name": "\u062c\u0627\u0633\u06d5\u0646\u06d5", "name:de": "Jasana", "name:en": "Jasana", "name:fr": "Jasana", "place": "village"}}, {"type": "node", "id": 2488283555, "lat": 35.7860156, "lon": 45.0626614, "tags": {"alt_name": "\u0643\u0644\u0628\u0627\u0634", "int_name": "Kalab\u0101sh, Kalab\u0101sh\u00e1, \u0643\u0644\u0628\u0627\u0634, Kalabash, Kalabasha, \u0643\u0644\u0628\u0627\u0634", "is_in": "Iraq , \u062c\u0645\u0647\u0648\u0631\u064a\u0629 \u0627\u0644\u0639\u0631\u0627\u0642", "name": "\u06a9\u06d5\u06b5\u06d5\u0628\u0627\u0634\u06cc \u0642\u0627\u062f\u0631\u0628\u06d5\u06af", "name:ar": "\u06a9\u0644\u0628\u0627\u0634\u064a \u0642\u0627\u062f\u0631\u0628\u06a9", "name:ar1": "\u0643\u0644\u0628\u0627\u0634;\u0643\u0644\u0628\u0627\u0634\u0649", "name:de": "Kalabash Qadr Bag", "name:en": "Kalabash Qadr Bag", "name:fr": "Kalabash Qadr Bag", "place": "village"}}, {"type": "node", "id": 2488283557, "lat": 35.7187248, "lon": 45.0065325, "tags": {"name": "\u06a9\u0627\u0646\u06cc \u0628\u06cc", "name:ar": "\u0643\u0627\u0646\u064a \u0628\u064a", "name:de": "Kani Bi", "name:en": "Kani Bi", "name:fr": "Kani Bi", "place": "village", "wikidata": "Q65404429", "wikipedia": "ckb:\u06a9\u0627\u0646\u06cc \u0628\u06cc\u060c \u0626\u0627\u063a\u062c\u06d5\u0644\u06d5\u0631"}}, {"type": "node", "id": 2488283560, "lat": 35.8628884, "lon": 45.043271, "tags": {"is_in": "Iraq , \u062c\u0645\u0647\u0648\u0631\u064a\u0629 \u0627\u0644\u0639\u0631\u0627\u0642", "name": "\u06a9\u0627\u0646\u06cc \u062e\u0627\u0646", "name:ar": "\u0643\u0627\u0646\u064a \u062e\u0627\u0646", "name:de": "Kani Khan", "name:en": "Kani Khan", "name:fr": "Kani Khan", "place": "village"}}, {"type": "node", "id": 2488283563, "lat": 35.9742627, "lon": 45.0494254, "tags": {"name": "\u06a9\u0648\u06ce\u0631\u06d5\u06a9\u0627\u0646\u06cc", "name:ckb": "\u06a9\u0648\u06ce\u0631\u06d5\u06a9\u0627\u0646\u06cc", "name:en": "Kwerakani", "name:ku": "Kw\u00earekan\u00ee", "place": "village", "wikidata": "Q61388658", "wikipedia": "ckb:\u06a9\u0648\u06ce\u0631\u06d5\u06a9\u0627\u0646\u06cc"}}, {"type": "node", "id": 2488283573, "lat": 35.8381429, "lon": 45.0789086, "tags": {"name": "\u06a9\u06c6\u062a\u06d5\u06b5", "name:ar": "\u0643\u0648\u062a\u0644", "name:ckb": "\u06a9\u06c6\u062a\u06d5\u06b5", "name:en": "Kotal", "name:ku": "Kotell", "place": "village"}}, {"type": "node", "id": 2488283575, "lat": 35.8089287, "lon": 45.0662533, "tags": {"name": "\u06a9\u06d5\u06b5\u06d5\u0628\u0627\u0634\u06cc \u062d\u0627\u062c\u06cc \u0646\u0627\u062f\u0631", "name:ar": "\u06a9\u0644\u0629\u0628\u0627\u0634\u064a \u062d\u0627\u062c\u064a \u0646\u0627\u062f\u0631", "name:de": "Kalabashi Haji Nadr", "name:en": "Kalabashi Haji Nadr", "name:fr": "Kalabashi Haji Nadr", "place": "village"}}, {"type": "node", "id": 2488283576, "lat": 35.6743977, "lon": 45.0322884, "tags": {"alt_name": "\u0644\u0627\u0632\u0628\u0627\u0646;\u0644\u0627\u0632\u0645\u0627\u0646", "int_name": "L\u0101zb\u0101n, L\u0101zlyan, \u0644\u0627\u0632\u0628\u0627\u0646, Lazban, Lazlyan, \u0644\u0627\u0632\u0628\u0627\u0646;L\u0101zm\u0101n, \u0644\u0627\u0632\u0645\u0627\u0646, Lazman, \u0644\u0627\u0632\u0645\u0627\u0646", "is_in": "Iraq , \u062c\u0645\u0647\u0648\u0631\u064a\u0629 \u0627\u0644\u0639\u0631\u0627\u0642", "name": "\u0644\u0627\u0632\u06cc\u0627\u0646", "name:ar": "\u0644\u0627\u0632\u06cc\u0627\u0646", "name:ar1": "\u0644\u0627\u0632\u0628\u0627\u0646;\u0644\u0627\u0632\u0645\u0627\u0646", "name:de": "Lazyan", "name:en": "Lazyan", "name:fr": "Lazyan", "place": "village", "wikidata": "Q61383999", "wikipedia": "ckb:\u0644\u0627\u0632\u06cc\u0627\u0646"}}, {"type": "node", "id": 2488283582, "lat": 35.9002999, "lon": 45.0450909, "tags": {"name": "\u0645\u06d5\u06cc\u062f\u0627\u0646", "name:ar": "\u0645\u064a\u062f\u0627\u0646", "name:ckb": "\u0645\u06d5\u06cc\u062f\u0627\u0646", "name:en": "Maydan", "name:ku": "Meydan", "place": "village", "wikidata": "Q61388268", "wikipedia": "ckb:\u0645\u06d5\u06cc\u062f\u0627\u0646\u060c \u0633\u0648\u0631\u062f\u0627\u0634"}}, {"type": "node", "id": 2488283589, "lat": 35.6981726, "lon": 45.0192929, "tags": {"name": "\u0633\u06d5\u0631\u0686\u0627\u0648\u06d5", "name:ar": "\u0633\u0631\u062c\u0627\u0648\u0629", "name:ckb": "\u0633\u06d5\u0631\u0686\u0627\u0648\u06d5", "name:en": "Sarchawa", "name:ku": "Ser\u00e7awe", "place": "village", "wikidata": "Q61383812", "wikipedia": "ckb:\u0633\u06d5\u0631\u0686\u0627\u0648\u06d5\u060c \u0628\u0627\u0632\u06cc\u0627\u0646"}}, {"type": "node", "id": 2488283592, "lat": 35.7660754, "lon": 45.0654711, "tags": {"name": "\u0634\u06cc\u0644\u06d5\u062e\u0627\u0646", "name:ar": "\u0634\u064a\u0644\u0629 \u062e\u0627\u0646", "name:ckb": "\u0634\u06cc\u0644\u06d5\u062e\u0627\u0646", "name:en": "Shilakhan", "name:ku": "\u015e\u00eelexan", "place": "village", "wikidata": "Q61388433", "wikipedia": "ckb:\u0634\u06cc\u0644\u06d5\u062e\u0627\u0646"}}, {"type": "node", "id": 2488283596, "lat": 35.7657429, "lon": 45.0447278, "tags": {"alt_name": "\u0634\u0648\u0631\u0646\u0627\u062e", "int_name": "Sh\u014drn\u0101kh, Sh\u016brn\u0101kh, \u0634\u0648\u0631\u0646\u0627\u062e, Shornakh, Shurnakh, \u0634\u0648\u0631\u0646\u0627\u062e", "is_in": "Iraq , \u062c\u0645\u0647\u0648\u0631\u064a\u0629 \u0627\u0644\u0639\u0631\u0627\u0642", "name": "\u0634\u0648\u0695\u0646\u0627\u062e", "name:ar": "\u0634\u0648\u0631\u0646\u0627\u062e", "name:ar1": "\u0634\u0648\u0631\u0646\u0627\u062e", "name:de": "Shornakh", "name:en": "Shornakh", "name:fr": "Shornakh", "place": "village"}}, {"type": "node", "id": 2488283604, "lat": 35.8574637, "lon": 45.0768222, "tags": {"name": "\u062a\u06cc\u0645\u0627\u0631", "name:ar": "\u062a\u064a\u0645\u0627\u0631", "name:ckb": "\u062a\u06cc\u0645\u0627\u0631", "name:en": "Timar", "name:ku": "T\u00eemar", "place": "village", "wikidata": "Q61388210", "wikipedia": "ckb:\u062a\u06cc\u0645\u0627\u0631\u060c \u0633\u0648\u0631\u062f\u0627\u0634"}}, {"type": "node", "id": 2488283655, "lat": 36.0161771, "lon": 44.9381592, "tags": {"is_in": "Iraq , \u062c\u0645\u0647\u0648\u0631\u064a\u0629 \u0627\u0644\u0639\u0631\u0627\u0642", "name": "\u067e\u06ce\u0633\u067e\u06cc\u0627\u0646", "name:ar": "\u0628\u064a \u0633\u0628\u064a\u0627\u0646", "name:ar1": "\u0628\u064a \u0633\u0628\u064a\u0627\u0646", "name:de": "Bay Sibiyan", "name:en": "Bay Sibiyan", "name:fr": "Bay Sibiyan", "place": "village"}}, {"type": "node", "id": 2488317378, "lat": 36.059528, "lon": 45.004306, "tags": {"name": "\u0628\u06ce\u0645\u0648\u0634\u06d5", "name:ar": "\u0628\u06cc\u0645\u0648\u0634\u0629", "name:de": "Baimusha", "name:en": "Baimusha", "name:fr": "Baimusha", "place": "village", "wikidata": "Q61388577", "wikipedia": "ckb:\u0628\u06ce\u0645\u0648\u0634\u06d5"}}, {"type": "node", "id": 2488317384, "lat": 36.066389, "lon": 45.047833, "tags": {"capital": "7", "name": "\u0628\u0646\u06af\u0631\u062f", "name:ar": "\u0628\u0646\u0643\u0631\u062f", "name:ckb": "\u0628\u0646\u06af\u0631\u062f", "name:de": "Bingird", "name:en": "Bingird", "name:fr": "Bingird", "name:ku": "Bingird", "place": "town", "wikidata": "Q61388506", "wikipedia": "ckb:\u0628\u0646\u06af\u0631\u062f"}}, {"type": "node", "id": 2488317385, "lat": 36.0797159, "lon": 45.034744, "tags": {"name": "\u0628\u06d5\u0631\u062f\u06d5\u0634\u0627\u0646 \u062e\u0648\u0627\u0631\u0648\u0648", "name:ar": "\u0628\u0631\u062f\u0634\u0627\u0646 \u0633\u0641\u0644\u06cc", "name:de": "Bardashan", "name:en": "Bardashan", "name:fr": "Bardashan", "place": "village", "wikidata": "Q61388567", "wikipedia": "ckb:\u0628\u06d5\u0631\u062f\u06d5\u0634\u0627\u0646\u06cc \u062e\u0648\u0627\u0631\u0648\u0648"}}, {"type": "node", "id": 2488317386, "lat": 36.0787033, "lon": 45.0513556, "tags": {"name": "\u0628\u06d5\u0631\u062f\u06d5\u0634\u0627\u0646 \u0633\u06d5\u0631\u0648\u0648", "name:ar": "\u0628\u0631\u062f\u0634\u0627\u0646 \u0639\u0644\u06cc\u0627", "name:de": "Bardashan", "name:en": "Bardashan", "name:fr": "Bardashan", "place": "village", "wikidata": "Q61388566", "wikipedia": "ckb:\u0628\u06d5\u0631\u062f\u06d5\u0634\u0627\u0646\u06cc \u0633\u06d5\u0631\u0648\u0648"}}, {"type": "node", "id": 2488317541, "lat": 36.013194, "lon": 45.05, "tags": {"name": "\u06be\u06d5\u0646\u062c\u06cc\u0631\u06d5", "name:ar": "\u0647\u0646\u062c\u064a\u0631\u0629", "name:ckb": "\u06be\u06d5\u0646\u062c\u06cc\u0631\u06d5", "name:en": "Hanjira", "name:ku": "Henc\u00eere", "place": "village", "wikidata": "Q61388701", "wikipedia": "ckb:\u06be\u06d5\u0646\u062c\u06cc\u0631\u06d5\u060c \u0645\u06d5\u0631\u06af\u06d5"}}, {"type": "node", "id": 2488317583, "lat": 36.0157427, "lon": 45.0175493, "tags": {"name": "\u062e\u06c6\u0634\u0627\u0648", "name:ar": "\u062e\u0648\u0634\u0627\u0648", "name:en": "Khoshaw", "place": "village", "wikidata": "Q61388605", "wikipedia": "ckb:\u062e\u06c6\u0634\u0627\u0648"}}, {"type": "node", "id": 2488318154, "lat": 36.0435217, "lon": 45.0198108, "tags": {"name": "\u0633\u06ce\u0646\u0627\u062c\u06cc\u0627\u0646", "name:ar": "\u0633\u06cc\u0646\u0627\u062c\u06cc\u0627\u0646", "name:de": "Seinadjian", "name:en": "Seinadjian", "name:fr": "Seinadjian", "place": "village", "wikidata": "Q61388627", "wikipedia": "ckb:\u0633\u06ce\u0646\u0627\u062c\u06cc\u0627\u0646"}}, {"type": "node", "id": 2488318761, "lat": 36.0316132, "lon": 45.0085213, "tags": {"is_in": "Iraq , \u062c\u0645\u0647\u0648\u0631\u064a\u0629 \u0627\u0644\u0639\u0631\u0627\u0642", "name": "\u0648\u0627\u062a\u06ce", "name:ar": "\u0648\u062a\u0629", "name:ar1": "\u0648\u062a\u0629", "name:de": "Wata", "name:en": "Wata", "name:fr": "Wata", "place": "village", "wikidata": "Q61388697", "wikipedia": "ckb:\u0648\u0627\u062a\u06ce"}}, {"type": "node", "id": 4816425421, "lat": 35.8698878, "lon": 45.0539463, "tags": {"is_in": "Iraq , \u062c\u0645\u0647\u0648\u0631\u064a\u0629 \u0627\u0644\u0639\u0631\u0627\u0642", "name": "\u06af\u06ce\u0686\u06cc\u0646\u06d5", "name:ar": "\u06af\u06ce\u0686\u06cc\u0646\u06d5", "name:de": "Gechina", "name:en": "Gechina", "name:fr": "Gechina", "place": "village", "tourism": "camp_site"}}, {"type": "node", "id": 4923494010, "lat": 35.8894266, "lon": 44.7688454}, {"type": "node", "id": 4923494011, "lat": 35.8932532, "lon": 44.7677282}, {"type": "node", "id": 4923494012, "lat": 35.8930991, "lon": 44.7668968}, {"type": "node", "id": 4923494013, "lat": 35.8927248, "lon": 44.7661798}, {"type": "node", "id": 4923494014, "lat": 35.8921752, "lon": 44.765663}, {"type": "node", "id": 4923494015, "lat": 35.8915158, "lon": 44.7654081}, {"type": "node", "id": 4996928681, "lat": 35.9792781, "lon": 44.629131, "tags": {"place": "hamlet"}}, {"type": "node", "id": 5278729972, "lat": 36.0086438, "lon": 44.9623735}, {"type": "node", "id": 5278729973, "lat": 36.0088943, "lon": 44.962688}, {"type": "node", "id": 5278729974, "lat": 36.0088147, "lon": 44.9630841}, {"type": "node", "id": 5278729975, "lat": 36.0092153, "lon": 44.9635256}, {"type": "node", "id": 5278729976, "lat": 36.0097207, "lon": 44.9643402}, {"type": "node", "id": 5278729977, "lat": 36.009404, "lon": 44.964621}, {"type": "node", "id": 5278729978, "lat": 36.0099638, "lon": 44.9654949}, {"type": "node", "id": 5278729979, "lat": 36.0099574, "lon": 44.9657045}, {"type": "node", "id": 5278729980, "lat": 36.0096983, "lon": 44.9659694}, {"type": "node", "id": 5278729981, "lat": 36.0098998, "lon": 44.9667286}, {"type": "node", "id": 5278729982, "lat": 36.0095352, "lon": 44.9670845}, {"type": "node", "id": 5278729983, "lat": 36.0092793, "lon": 44.9668591}, {"type": "node", "id": 5278729984, "lat": 36.0088346, "lon": 44.9659694}, {"type": "node", "id": 5278729985, "lat": 36.0086399, "lon": 44.9654311}, {"type": "node", "id": 5278729986, "lat": 36.0085728, "lon": 44.96466}, {"type": "node", "id": 5278729987, "lat": 36.0080546, "lon": 44.9645454}, {"type": "node", "id": 5278729988, "lat": 36.0079778, "lon": 44.9651187}, {"type": "node", "id": 5278729989, "lat": 36.0082593, "lon": 44.9654509}, {"type": "node", "id": 5278729990, "lat": 36.008013, "lon": 44.9657751}, {"type": "node", "id": 5278729991, "lat": 36.0076035, "lon": 44.9653758}, {"type": "node", "id": 5278729992, "lat": 36.0072965, "lon": 44.9654746}, {"type": "node", "id": 5278729993, "lat": 36.0068358, "lon": 44.965443}, {"type": "node", "id": 5278729994, "lat": 36.0065671, "lon": 44.9647589}, {"type": "node", "id": 5278729995, "lat": 36.0066503, "lon": 44.9640906}, {"type": "node", "id": 5278729996, "lat": 36.0076067, "lon": 44.9643437}, {"type": "node", "id": 5278729997, "lat": 36.0077603, "lon": 44.9637545}, {"type": "node", "id": 5278729998, "lat": 36.007933, "lon": 44.963106}, {"type": "node", "id": 5278729999, "lat": 36.0083265, "lon": 44.9630823}, {"type": "node", "id": 5278730000, "lat": 36.0082273, "lon": 44.9623626}, {"type": "node", "id": 5278730001, "lat": 36.008544, "lon": 44.962244}, {"type": "node", "id": 5385663997, "lat": 35.6740401, "lon": 44.7598331}, {"type": "node", "id": 5385663998, "lat": 35.6700309, "lon": 44.7551768}, {"type": "node", "id": 5385663999, "lat": 35.6682528, "lon": 44.7547262}, {"type": "node", "id": 5385664000, "lat": 35.6665444, "lon": 44.7589963}, {"type": "node", "id": 5385664001, "lat": 35.6704841, "lon": 44.7617858}, {"type": "node", "id": 6854851325, "lat": 35.9906593, "lon": 44.8843231, "tags": {"name": "\u0626\u0627\u0631\u06cc\u0634\u06d5", "name:ar": "\u0622\u0631\u064a\u0634\u0629", "name:ckb": "\u0626\u0627\u0631\u06cc\u0634\u06d5", "name:en": "Arisha", "name:ku": "Ar\u00ee\u015fe", "place": "village", "wikidata": "Q61388792", "wikipedia": "ckb:\u0626\u0627\u0631\u06cc\u0634\u06d5"}}, {"type": "node", "id": 7126618181, "lat": 36.0188191, "lon": 45.0589027, "tags": {"alt_name": "\u06a9\u0648\u0646\u06d5\u0645\u0627\u0631\u06ce", "alt_name:ku": "Kunemar\u00ea", "name": "\u06a9\u0648\u0646\u06d5\u0645\u0627\u0631\u06d5", "name:ar": "\u06a9\u0648\u0646\u0629\u0645\u0627\u0631\u0629", "name:ckb": "\u06a9\u0648\u0646\u06d5\u0645\u0627\u0631\u06d5", "name:en": "Kunamara", "name:ku": "Kunemare", "place": "village", "wikidata": "Q61388654", "wikipedia": "ckb:\u06a9\u0648\u0646\u06d5\u0645\u0627\u0631\u06d5"}}, {"type": "node", "id": 7126650650, "lat": 36.0398512, "lon": 44.9977697, "tags": {"name": "\u062a\u06d5\u0646\u06af\u0698\u06d5", "name:ar": "\u062a\u0646\u06a9\u0632\u0629", "name:en": "Tangzha", "place": "village", "wikidata": "Q61388522", "wikipedia": "ckb:\u062a\u06d5\u0646\u06af\u0698\u06d5"}}, {"type": "node", "id": 7236749756, "lat": 35.8559925, "lon": 44.950503, "tags": {"name": "\u0633\u0648\u0631\u0642\u0627\u0648\u0634\u0627\u0646", "name:ar": "\u0633\u0648\u0631\u0642\u0627\u0648\u0634\u0627\u0646", "name:en": "Surqawshan", "place": "village"}}, {"type": "node", "id": 7236805489, "lat": 35.8710827, "lon": 44.9409643, "tags": {"name": "\u062f\u0648\u0648\u0626\u0627\u0648\u0627\u0646", "name:ar": "\u062f\u0648\u0648\u0622\u0648\u0627\u0646", "name:en": "Du Awan", "place": "village"}}, {"type": "node", "id": 7236851965, "lat": 35.844767, "lon": 44.9529331, "tags": {"name": "\u0632\u06d5\u06b5\u06ce\u0646", "name:ar": "\u0632\u0644\u06cc\u0646", "name:en": "Zalen", "place": "village"}}, {"type": "node", "id": 7243296150, "lat": 35.8135811, "lon": 44.981185, "tags": {"name": "\u0628\u06cc\u0631\u0627\u0646", "name:ar": "\u0628\u064a\u0631\u0627\u0646", "name:ckb": "\u0628\u06cc\u0631\u0627\u0646", "name:en": "Biran", "name:ku": "B\u00eeran", "place": "village", "wikidata": "Q61388194", "wikipedia": "ckb:\u0628\u06cc\u0631\u0627\u0646"}}, {"type": "node", "id": 7243300861, "lat": 35.8236381, "lon": 45.0032572, "tags": {"name": "\u0634\u06ce\u062e \u0632\u06d5\u06cc\u0646\u06d5\u06b5", "name:ar": "\u0634\u06cc\u062e \u0632\u06cc\u0646\u0629\u0644", "name:en": "Shekh Zainal", "place": "village"}}, {"type": "node", "id": 7243315158, "lat": 35.8118459, "lon": 45.018169, "tags": {"name": "\u0632\u06d5\u0631\u0632\u06cc", "name:ar": "\u0632\u0631\u0632\u064a", "name:en": "Zarzi", "place": "village", "wikidata": "Q61388226", "wikipedia": "ckb:\u0632\u06d5\u0631\u0632\u06cc"}}, {"type": "node", "id": 7243364709, "lat": 35.8115698, "lon": 45.0468254, "tags": {"name": "\u0639\u06cc\u0633\u0627\u0628\u06d5\u06af\u06cc", "name:ar": "\u0639\u06cc\u0633\u06cc \u0628\u06a9\u064a", "name:en": "Isa Bagi", "place": "village"}}, {"type": "node", "id": 7243367470, "lat": 35.7979052, "lon": 45.001833, "tags": {"name": "\u0642\u0648\u0686\u0628\u06b5\u0627\u062e", "name:ar": "\u0642\u0648\u062c\u0628\u0644\u0627\u062e", "name:en": "Quchblakh", "place": "village"}}, {"type": "node", "id": 7243371869, "lat": 35.8196916, "lon": 45.0338276, "tags": {"name": "\u0633\u0631\u062f\u06cc \u0628\u0686\u0648\u06a9", "name:ar": "\u0633\u0631\u062f \u0627\u0644\u0635\u063a\u0631\u06cc", "name:en": "Srd Little", "place": "village"}}, {"type": "node", "id": 7243421273, "lat": 35.711687, "lon": 45.0757741, "tags": {"name": "\u06af\u06d5\u0628\u06d5\u06cc \u06a9\u06c6\u0646", "name:ar": "\u06a9\u0628\u0629\u064a \u06a9\u0648\u0646", "name:en": "Gabai Kon", "place": "village"}}, {"type": "node", "id": 7243421274, "lat": 35.7111469, "lon": 45.0755596}, {"type": "node", "id": 7243421275, "lat": 35.7109466, "lon": 45.0758814}, {"type": "node", "id": 7243421276, "lat": 35.711025, "lon": 45.0760853}, {"type": "node", "id": 7243421277, "lat": 35.7109291, "lon": 45.0764608}, {"type": "node", "id": 7243421278, "lat": 35.711025, "lon": 45.0766003}, {"type": "node", "id": 7243421279, "lat": 35.7112166, "lon": 45.0764822}, {"type": "node", "id": 7243421280, "lat": 35.7114344, "lon": 45.0764822}, {"type": "node", "id": 7243421281, "lat": 35.7116086, "lon": 45.0767075}, {"type": "node", "id": 7243421282, "lat": 35.7118438, "lon": 45.0763428}, {"type": "node", "id": 7243421283, "lat": 35.7118613, "lon": 45.0759351}, {"type": "node", "id": 7243421284, "lat": 35.7119658, "lon": 45.0757312}, {"type": "node", "id": 7243475385, "lat": 35.7121313, "lon": 45.07586}, {"type": "node", "id": 7243475386, "lat": 35.7123839, "lon": 45.075978}, {"type": "node", "id": 7243475387, "lat": 35.7124885, "lon": 45.0760424}, {"type": "node", "id": 7243475388, "lat": 35.7126714, "lon": 45.0758707}, {"type": "node", "id": 7243475389, "lat": 35.7128021, "lon": 45.0758385}, {"type": "node", "id": 7243475390, "lat": 35.7128021, "lon": 45.0755274}, {"type": "node", "id": 7243475391, "lat": 35.7127585, "lon": 45.075345}, {"type": "node", "id": 7243475392, "lat": 35.7127411, "lon": 45.0749158}, {"type": "node", "id": 7243475393, "lat": 35.7124449, "lon": 45.0748622}, {"type": "node", "id": 7243475394, "lat": 35.71214, "lon": 45.0748729}, {"type": "node", "id": 7243475395, "lat": 35.7120094, "lon": 45.0749373}, {"type": "node", "id": 7243475396, "lat": 35.7117741, "lon": 45.0751197}, {"type": "node", "id": 7243475397, "lat": 35.7113299, "lon": 45.0749266}, {"type": "node", "id": 7252725891, "lat": 35.995133, "lon": 44.8659152, "tags": {"name": "\u0633\u06ce\u06a9\u0627\u0646\u06cc\u0627\u0646", "name:ar": "\u0633\u06cc\u06a9\u0627\u0646\u06cc\u0627\u0646", "name:en": "Sekanyan", "place": "village"}}, {"type": "node", "id": 7252730328, "lat": 36.0028976, "lon": 44.8583652, "tags": {"name": "\u0645\u06ce\u0631\u06af\u06d5\u067e\u0627\u0634\u0627", "name:ar": "\u0645\u064a\u0631\u06a9\u0628\u0627\u0634\u0627", "name:ckb": "\u0645\u06ce\u0631\u06af\u06d5\u067e\u0627\u0634\u0627", "name:en": "Mergapasha", "name:ku": "M\u00eargepa\u015fa", "place": "village", "wikidata": "Q61388856", "wikipedia": "ckb:\u0645\u06ce\u0631\u06af\u06d5\u067e\u0627\u0634\u0627"}}, {"type": "node", "id": 7252758782, "lat": 36.0349053, "lon": 44.8070884, "tags": {"name": "\u0634\u06ce\u062e \u0639\u0648\u0628\u06ce\u062f", "name:ar": "\u0634\u06cc\u062e \u0639\u0628\u06cc\u062f", "name:en": "Shekh Ubed", "place": "village"}}, {"type": "node", "id": 7252771497, "lat": 36.0104969, "lon": 44.8548111, "tags": {"name": "\u06af\u0631\u062f\u0628\u06d5\u0695\u0648\u0648", "name:ar": "\u0643\u0631\u062f\u0628\u0631\u0648", "name:ckb": "\u200e\u06af\u0631\u062f\u0628\u06d5\u0695\u0648\u0648", "name:en": "Grdbaru", "name:ku": "Girdber\u00fb", "place": "village", "wikidata": "Q61388813", "wikipedia": "ckb:\u06af\u0631\u062f\u0628\u06d5\u0695\u0648\u0648"}}, {"type": "node", "id": 7252858122, "lat": 36.0621924, "lon": 44.7907668, "tags": {"name": "\u0695\u0648\u0648\u0628\u0627\u0631", "name:ar": "\u0631\u0648\u0628\u0627\u0631", "name:ckb": "\u0695\u0648\u0648\u0628\u0627\u0631", "name:en": "Rubar", "name:ku": "R\u00fbbar", "place": "village", "wikidata": "Q61388795", "wikipedia": "ckb:\u0695\u0648\u0648\u0628\u0627\u0631\u060c \u062e\u06d5\u0644\u06d5\u06a9\u0627\u0646"}}, {"type": "node", "id": 7309195518, "lat": 36.0490091, "lon": 44.8624001, "tags": {"name": "\u06a9\u06d5\u06b5\u06d5\u0645\u06ce\u0648\u06d5", "name:ar": "\u06a9\u0644\u0629\u0645\u06cc\u0648\u0629", "name:en": "Kalamewa", "place": "village"}}, {"type": "node", "id": 7309251161, "lat": 36.0453047, "lon": 44.8970131, "tags": {"name": "\u0626\u06d5\u062d\u0645\u06d5\u062f\u0627\u0648\u0627", "name:ar": "\u0627\u062d\u0645\u062f\u0627\u0648\u0627", "name:en": "Ahmadawa", "place": "village"}}, {"type": "node", "id": 7309265757, "lat": 36.048521, "lon": 44.8996787, "tags": {"name": "\u062a\u0648\u0648\u06d5\u0631\u06d5\u0634\u0627\u0646", "name:ar": "\u062a\u0648\u0629\u0631\u0634\u0627\u0646", "name:en": "Twarashan", "place": "village"}}, {"type": "node", "id": 7309296492, "lat": 36.0496544, "lon": 44.9319471, "tags": {"name": "\u0645\u06cc\u0631\u0632\u0627 \u0695\u06c6\u0633\u062a\u06d5\u0645\u06cc \u06af\u06d5\u0648\u0631\u06d5", "name:ar": "\u0645\u06cc\u0631\u0632\u0627\u0631\u0648\u0633\u062a\u0645 \u0627\u0644\u06a9\u0628\u0631\u06cc", "name:en": "Mirza Rostam Big", "place": "village"}}, {"type": "node", "id": 7309318407, "lat": 36.0274137, "lon": 44.9553596, "tags": {"name": "\u0645\u06cc\u0631\u0632\u0627 \u0695\u06c6\u0633\u062a\u06d5\u0645\u06cc \u0628\u0686\u0648\u06a9", "name:ar": "\u0645\u06cc\u0631\u0632\u0627 \u0631\u0648\u0633\u062a\u0645 \u0627\u0644\u0635\u063a\u0631\u06cc", "name:en": "Mirza Rostam Little", "place": "village"}}, {"type": "node", "id": 7309318453, "lat": 35.9962897, "lon": 44.9797785, "tags": {"name": "\u0626\u06d5\u0633\u06a9\u06c6\u06b5\u0627\u0646", "name:ar": "\u0627\u0633\u06a9\u0648\u0644\u0627\u0646", "name:en": "Askolan", "place": "village"}}, {"type": "node", "id": 7309358097, "lat": 35.9908564, "lon": 44.9284983, "tags": {"name": "\u06af\u0631\u062f\u06d5\u0633\u0648\u0631\u0627\u0646", "name:ar": "\u06a9\u0631\u062f\u0629\u0633\u0648\u0631\u0627\u0646", "name:en": "Grda Suran", "place": "village"}}, {"type": "node", "id": 7834745354, "lat": 35.7764637, "lon": 44.5882357}, {"type": "node", "id": 7834745355, "lat": 35.7765859, "lon": 44.5877189}, {"type": "node", "id": 7834745356, "lat": 35.7741985, "lon": 44.5867858}, {"type": "node", "id": 7834745357, "lat": 35.7740622, "lon": 44.5872563}, {"type": "node", "id": 7834745358, "lat": 35.7765596, "lon": 44.5871815}, {"type": "node", "id": 7834745359, "lat": 35.7763878, "lon": 44.5866865}, {"type": "node", "id": 7834745360, "lat": 35.7760908, "lon": 44.5862918}, {"type": "node", "id": 7834745361, "lat": 35.7757031, "lon": 44.5860437}, {"type": "node", "id": 7834745362, "lat": 35.7752703, "lon": 44.5859712},