{"version": 0.6, "generator": "Overpass API 0.7.61.5 4133829e", "osm3s": {"timestamp_osm_base": "2024-03-06T11:02:15Z", "copyright": "The data included in this document is from www.openstreetmap.org. The data is made available under ODbL."}, "elements": [{"type": "node", "id": 1480172007, "lat": -3.9156822, "lon": 39.0556231, "tags": {"amenity": "school", "contact:phone": "0713958510", "education:data_collection": "plan", "education:funders": "worlvision", "education:program_counseling": "yes", "education:program_feeding": "yes", "education:program_scouting": "yes", "education:program_sports": "yes", "education:staff_female": "1", "education:staff_male": "2", "education:student_age_range": "2.5-18 years", "education:students": "569", "education:students_female": "271", "education:students_male": "298", "education:teachers": "14", "education:teachers_female": "5", "education:teachers_male": "9", "education:teachers_trained": "8", "education:teachers_tsc": "8", "education:teachers_untrained": "5", "education:type": "primary", "name": "Busho PRIMARY SCHOOL", "opening_hours": "Mo-Fr 08:15-16:00", "operational_status": "operational", "operational_status:electricity": "never", "operator:type": "government", "watsan:female_toilets_per_location": "9", "watsan:male_toilets_per_location": "6", "watsan:toilets_per_location": "15", "watsan:type": "pit_latrine", "watsan:water_availability": "no"}}, {"type": "node", "id": 1480172017, "lat": -3.9157371, "lon": 39.0555852, "tags": {"amenity": "school", "contact:phone": "0727497786", "education:data_collection": "plan", "education:dropout_early_marriage": "yes", "education:dropout_ignorance": "yes", "education:dropout_peer_pressure": "yes", "education:dropout_poverty": "yes", "education:dropout_pregnancy": "yes", "education:female_student_pupil_dropout_2010_2011": "36", "education:female_student_pupil_returnees_2010_2011": "1", "education:male_student_pupil_dropout_2010_2011": "30", "education:male_student_pupil_returnees_2010_2011": "1", "education:pregnant_girls_at_school": "6", "education:program_counseling": "yes", "education:program_feeding": "yes", "education:program_scouting": "yes", "education:program_specialneeds": "yes", "education:program_sports": "yes", "education:staff_female": "1", "education:staff_male": "1", "education:student_age_range": "3-19 years", "education:student_pupil_dropout_2010_2011": "66", "education:student_pupil_returnees_2010_2011": "2", "education:students": "610", "education:students_female": "299", "education:students_male": "311", "education:teachers": "11", "education:teachers_female": "1", "education:teachers_male": "10", "education:teachers_trained": "9", "education:teachers_tsc": "8", "education:teachers_untrained": "2", "education:type": "primary", "name": "kilibasi primary school", "opening_hours": "Mo-Fr 07:00-17:00", "operational_status": "operational", "operational_status:electricity": "never", "operator:type": "government", "watsan:female_toilets_per_location": "8", "watsan:male_toilets_per_location": "2", "watsan:toilets_per_location": "10", "watsan:type": "pit_latrine", "watsan:water_availability": "no"}}, {"type": "node", "id": 1480172023, "lat": -3.9769544, "lon": 39.1843954, "tags": {"amenity": "school", "contact:phone": "0723707323", "education:data_collection": "plan", "education:dropout_pregnancy": "no", "education:female_student_pupil_dropout_2008_2009": "0", "education:female_student_pupil_dropout_2009_2010": "0", "education:female_student_pupil_dropout_2010_2011": "0", "education:female_student_pupil_returnees_2008_2009": "0", "education:female_student_pupil_returnees_2009_2010": "0", "education:female_student_pupil_returnees_2010_2011": "0", "education:male_student_pupil_dropout_2008_2009": "0", "education:male_student_pupil_dropout_2009_2010": "0", "education:male_student_pupil_dropout_2010_2011": "0", "education:male_student_pupil_returnees_2008_2009": "0", "education:male_student_pupil_returnees_2009_2010": "0", "education:male_student_pupil_returnees_2010_2011": "0", "education:pregnant_girls_at_school": "0", "education:program_description": "debate club", "education:program_feeding": "yes", "education:program_orphans": "yes", "education:program_sports": "yes", "education:staff_female": "2", "education:staff_male": "1", "education:student_age_range": "6-16 years", "education:student_pupil_dropout_2008_2009": "0", "education:student_pupil_dropout_2009_2010": "0", "education:student_pupil_dropout_2010_2011": "0", "education:student_pupil_returnees_2008_2009": "0", "education:student_pupil_returnees_2009_2010": "0", "education:student_pupil_returnees_2010_2011": "0", "education:students": "709", "education:students_female": "327", "education:students_male": "382", "education:teachers": "11", "education:teachers_female": "3", "education:teachers_male": "8", "education:teachers_trained": "11", "education:teachers_tsc": "10", "education:teachers_untrained": "0", "education:type": "primary", "name": "Mulunguni primary school", "opening_hours": "Mo-Fr 08:00-16:10", "operational_status": "operational", "operational_status:electricity": "never", "operator:type": "government", "watsan:female_toilets_per_location": "2", "watsan:male_toilets_per_location": "0", "watsan:toilets_per_location": "2", "watsan:type": "pit_latrine", "watsan:water_availability": "no"}}, {"type": "node", "id": 1480172027, "lat": -3.8706947, "lon": 39.2255431, "tags": {"amenity": "school", "contact:phone": "0717168001", "education:data_collection": "plan", "education:dropout_early_marriage": "yes", "education:dropout_ignorance": "yes", "education:dropout_poverty": "yes", "education:dropout_pregnancy": "yes", "education:fees": "no", "education:female_student_pupil_dropout_2010_2011": "3", "education:funders": "community/government", "education:male_student_pupil_dropout_2010_2011": "2", "education:male_student_pupil_returnees_2010_2011": "1", "education:program_counseling": "yes", "education:program_feeding": "yes", "education:program_scouting": "yes", "education:program_sports": "yes", "education:staff_female": "2", "education:staff_male": "3", "education:student_age_range": "14-24 years", "education:student_pupil_dropout_2010_2011": "5", "education:student_pupil_returnees_2010_2011": "1", "education:students": "209", "education:students_female": "174", "education:students_male": "135", "education:teachers": "8", "education:teachers_female": "0", "education:teachers_male": "8", "education:teachers_trained": "3", "education:teachers_tsc": "3", "education:teachers_untrained": "5", "education:type": "secondary", "name": "Kinagoni Secondary school", "opening_hours": "07:00-17:00", "operational_status": "operational", "operational_status:electricity": "never", "operator:type": "government", "watsan:female_toilets_per_location": "2", "watsan:male_toilets_per_location": "4", "watsan:toilets_per_location": "6", "watsan:type": "pit_latrine", "watsan:water_availability": "no"}}, {"type": "node", "id": 1481004572, "lat": -3.7304386, "lon": 39.0484542, "tags": {"amenity": "school", "contact:phone": "0725270614", "education:data_collection": "plan", "education:dropout_early_marriage": "yes", "education:dropout_ignorance": "yes", "education:dropout_poverty": "yes", "education:dropout_pregnancy": "yes", "education:fees": "Government -CDF", "education:female_student_pupil_dropout_2008_2009": "7", "education:female_student_pupil_dropout_2009_2010": "1", "education:female_student_pupil_returnees_2010_2011": "10", "education:male_student_pupil_dropout_2008_2009": "12", "education:male_student_pupil_dropout_2009_2010": "1", "education:male_student_pupil_returnees_2010_2011": "10", "education:pregnant_girls_at_school": "2", "education:program_counseling": "yes", "education:program_feeding": "no", "education:program_orphans": "yes", "education:program_scouting": "yes", "education:program_sports": "yes", "education:staff_male": "2", "education:student_age_range": "4-20 years", "education:student_pupil_dropout_2008_2009": "19", "education:student_pupil_dropout_2009_2010": "2", "education:student_pupil_returnees_2010_2011": "20", "education:students": "553", "education:students_female": "290", "education:students_male": "263", "education:teachers": "13", "education:teachers_female": "4", "education:teachers_male": "9", "education:teachers_trained": "13", "education:teachers_tsc": "13", "education:teachers_untrained": "5", "education:type": "primary", "name": "Jaffery centre primary School", "opening_hours": "08:00-16:30", "operational_status": "not_operatonal", "operational_status:electricity": "never", "operator:type": "government", "watsan:female_toilets_per_location": "8", "watsan:male_toilets_per_location": "8", "watsan:toilets_per_location": "16", "watsan:type": "pit_latrine", "watsan:water_availability": "yes"}}, {"type": "node", "id": 1481004605, "lat": -3.9554183, "lon": 39.2018053, "tags": {"amenity": "school", "contact:phone": "0722561811", "education:data_collection": "plan", "education:dropout_early_marriage": "yes", "education:dropout_ignorance": "yes", "education:dropout_peer_pressure": "yes", "education:dropout_poverty": "yes", "education:dropout_pregnancy": "yes", "education:female_student_pupil_returnees_2010_2011": "3", "education:male_student_pupil_returnees_2010_2011": "4", "education:pregnant_girls_at_school": "1", "education:program_counseling": "yes", "education:program_feeding": "yes", "education:program_scouting": "yes", "education:program_sports": "yes", "education:staff_female": "3", "education:staff_male": "2", "education:student_age_range": "7-18 years", "education:student_pupil_returnees_2010_2011": "7", "education:students": "664", "education:students_female": "351", "education:students_male": "313", "education:teachers": "11", "education:teachers_female": "2", "education:teachers_male": "9", "education:teachers_trained": "8", "education:teachers_tsc": "8", "education:teachers_untrained": "3", "education:type": "primary", "name": "Chigutu Primary School", "opening_hours": "08:25-15:40", "operational_status": "operational", "operational_status:electricity": "never", "operator:type": "government", "watsan:female_toilets_per_location": "10", "watsan:male_toilets_per_location": "4", "watsan:toilets_per_location": "14", "watsan:type": "pit_latrine", "watsan:water_availability": "no"}}, {"type": "node", "id": 1481004634, "lat": -3.7979953, "lon": 39.0943317, "tags": {"amenity": "school", "contact:phone": "0721255077", "education:data_collection": "plan", "education:dropout_early_marriage": "yes", "education:dropout_ignorance": "yes", "education:dropout_poverty": "yes", "education:dropout_pregnancy": "yes", "education:female_student_pupil_dropout_2008_2009": "1", "education:funders": "Government grants", "education:male_student_pupil_returnees_2010_2011": "1", "education:program_counseling": "yes", "education:program_feeding": "yes", "education:program_scouting": "yes", "education:program_sports": "yes", "education:staff_female": "1", "education:staff_male": "1", "education:student_age_range": "3-19 years", "education:student_pupil_dropout_2008_2009": "1", "education:student_pupil_returnees_2010_2011": "1", "education:students": "481", "education:students_female": "193", "education:students_male": "194", "education:teachers": "13", "education:teachers_female": "10", "education:teachers_male": "3", "education:teachers_trained": "10", "education:teachers_tsc": "10", "education:teachers_untrained": "3", "education:type": "primary", "name": "Mbele Primary School", "opening_hours": "07:00-17:00", "operational_status": "operational", "operational_status:electricity": "never", "operator:type": "government", "watsan:female_toilets_per_location": "8", "watsan:male_toilets_per_location": "11", "watsan:toilets_per_location": "19", "watsan:type": "pit_latrine", "watsan:water_availability": "yes"}}, {"type": "node", "id": 1481004655, "lat": -3.739531, "lon": 39.0351441, "tags": {"amenity": "school", "contact:phone": "0720811362", "education:data_collection": "plan", "education:dropout_early_marriage": "no", "education:dropout_pregnancy": "no", "education:fees": "lunch,", "education:funders": "Government grants", "education:pregnant_girls_at_school": "2", "education:program_computers": "yes", "education:program_feeding": "yes", "education:program_scouting": "yes", "education:program_sports": "yes", "education:staff_female": "3", "education:staff_male": "6", "education:student_age_range": "15-25 years", "education:students": "352", "education:students_female": "117", "education:students_male": "235", "education:teachers": "14", "education:teachers_female": "3", "education:teachers_male": "11", "education:teachers_trained": "7", "education:teachers_tsc": "7", "education:teachers_untrained": "7", "education:type": "secondary", "name": "Mackinnon Secondary School", "opening_hours": "07:00-17:00", "operational_status": "operational", "operational_status:electricity": "always", "operator:type": "government", "watsan:female_toilets_per_location": "10", "watsan:male_toilets_per_location": "10", "watsan:toilets_per_location": "20", "watsan:type": "pit_latrine", "watsan:water_availability": "yes"}}, {"type": "node", "id": 1481004709, "lat": -3.7570892, "lon": 39.1302103, "tags": {"amenity": "school", "contact:email": "tarusecondary@yahoo.com", "contact:phone": "0721222355", "education:data_collection": "plan", "education:dropout_poverty": "yes", "education:fees": "2,300 per year", "education:female_student_pupil_dropout_2010_2011": "2", "education:funders": "community/government,kenya key,latif", "education:male_student_pupil_dropout_2010_2011": "4", "education:pregnant_girls_at_school": "2", "education:program_counseling": "yes", "education:program_feeding": "yes", "education:program_scouting": "yes", "education:program_sports": "yes", "education:staff_female": "4", "education:staff_male": "12", "education:student_age_range": "14-22 years", "education:student_pupil_dropout_2010_2011": "6", "education:students": "558", "education:students_female": "158", "education:students_male": "400", "education:teachers": "23", "education:teachers_female": "8", "education:teachers_male": "15", "education:teachers_trained": "17", "education:teachers_tsc": "15", "education:teachers_untrained": "6", "education:type": "secondary", "name": "Taru Secondary School", "opening_hours": "Mo-Fr 06:00-17:00", "operational_status": "operational", "operational_status:electricity": "always", "operator:type": "government", "watsan:female_toilets_per_location": "5", "watsan:male_toilets_per_location": "6", "watsan:toilets_per_location": "11", "watsan:type": "pit_latrine", "watsan:type_description": "asian style", "watsan:water_availability": "yes"}}, {"type": "node", "id": 1481004727, "lat": -3.7413265, "lon": 39.1469877, "tags": {"amenity": "school", "contact:phone": "0725283116", "education:data_collection": "plan", "education:dropout_early_marriage": "yes", "education:dropout_poverty": "yes", "education:dropout_pregnancy": "yes", "education:female_student_pupil_dropout_2010_2011": "13", "education:female_student_pupil_returnees_2010_2011": "1", "education:funders": "governments grants", "education:male_student_pupil_dropout_2010_2011": "15", "education:male_student_pupil_returnees_2010_2011": "2", "education:program_counseling": "yes", "education:program_feeding": "yes", "education:program_orphans": "yes", "education:program_scouting": "yes", "education:program_sports": "yes", "education:staff_male": "4", "education:student_age_range": "3-18 years", "education:student_pupil_dropout_2010_2011": "28", "education:student_pupil_returnees_2010_2011": "3", "education:students": "1010", "education:students_female": "499", "education:students_male": "511", "education:teachers": "17", "education:teachers_female": "9", "education:teachers_male": "8", "education:teachers_trained": "13", "education:teachers_tsc": "12", "education:teachers_untrained": "7", "education:type": "primary", "name": "Taru Primary School", "opening_hours": "08:15-16:10", "operational_status": "operational", "operational_status:electricity": "sometimes", "operator:type": "government", "watsan:female_toilets_per_location": "4", "watsan:male_toilets_per_location": "4", "watsan:toilets_per_location": "8", "watsan:type": "pit_latrine", "watsan:water_availability": "yes"}}, {"type": "node", "id": 1487177510, "lat": -3.7694482, "lon": 39.1519595, "tags": {"amenity": "school", "contact:phone": "0721943630/ 0787497695", "education:data_collection": "plan", "education:dropout_drugs": "yes", "education:dropout_ignorance": "yes", "education:dropout_peer_pressure": "yes", "education:dropout_poverty": "yes", "education:dropout_pregnancy": "yes", "education:female_student_pupil_dropout_2008_2009": "19", "education:female_student_pupil_dropout_2009_2010": "12", "education:female_student_pupil_dropout_2010_2011": "9", "education:female_student_pupil_returnees_2010_2011": "3", "education:male_student_pupil_dropout_2008_2009": "15", "education:male_student_pupil_dropout_2009_2010": "9", "education:male_student_pupil_dropout_2010_2011": "7", "education:male_student_pupil_returnees_2010_2011": "5", "education:pregnant_girls_at_school": "1", "education:program_counseling": "yes", "education:program_description": "Children in christ", "education:program_feeding": "yes", "education:program_other": "yes", "education:program_specialneeds": "yes", "education:staff_female": "1", "education:staff_male": "3", "education:student_age_range": "5-15 years", "education:student_pupil_dropout_2008_2009": "34", "education:student_pupil_dropout_2009_2010": "21", "education:student_pupil_dropout_2010_2011": "16", "education:student_pupil_returnees_2010_2011": "8", "education:students": "391", "education:students_female": "86", "education:students_male": "305", "education:teachers": "14", "education:teachers_female": "9", "education:teachers_male": "5", "education:teachers_trained": "10", "education:teachers_tsc": "10", "education:teachers_untrained": "4", "education:type": "primary", "name": "Fuleye primary school", "opening_hours": "07:20-17:00", "operational_status": "operational", "operational_status:electricity": "never", "operator:type": "government", "watsan:female_toilets_per_location": "6", "watsan:male_toilets_per_location": "4", "watsan:toilets_per_location": "10", "watsan:type": "pit_latrine", "watsan:water_availability": "no"}}, {"type": "node", "id": 1487177559, "lat": -3.7081648, "lon": 39.2070266, "tags": {"amenity": "school", "contact:phone": "0720974138", "education:data_collection": "plan", "education:dropout_ignorance": "yes", "education:dropout_peer_pressure": "yes", "education:dropout_poverty": "yes", "education:dropout_pregnancy": "yes", "education:female_student_pupil_dropout_2010_2011": "14", "education:female_student_pupil_returnees_2010_2011": "1", "education:male_student_pupil_dropout_2010_2011": "5", "education:male_student_pupil_returnees_2010_2011": "3", "education:program_description": "Wildlife club & Debate", "education:program_feeding": "yes", "education:program_other": "yes", "education:program_scouting": "yes", "education:program_sports": "yes", "education:staff_female": "1", "education:staff_male": "1", "education:student_age_range": "3-18 years", "education:student_pupil_dropout_2010_2011": "19", "education:student_pupil_returnees_2010_2011": "4", "education:students": "364", "education:students_female": "150", "education:students_male": "194", "education:teachers": "11", "education:teachers_female": "4", "education:teachers_male": "7", "education:teachers_trained": "3", "education:teachers_tsc": "7", "education:teachers_untrained": "4", "education:type": "primary", "name": "Nyari primary school", "opening_hours": "07:30-16:10", "operational_status": "operational", "operational_status:electricity": "never", "operator:type": "government", "watsan:female_toilets_per_location": "7", "watsan:male_toilets_per_location": "6", "watsan:toilets_per_location": "13", "watsan:type": "pit_latrine", "watsan:water_availability": "no"}}, {"type": "node", "id": 1489366369, "lat": -3.7878087, "lon": 39.0942927, "tags": {"amenity": "school", "education:data_collection": "plan", "education:dropout_early_marriage": "yes", "education:dropout_ghosts": "yes", "education:dropout_poverty": "yes", "education:dropout_pregnancy": "yes", "education:female_student_pupil_dropout_2009_2010": "2", "education:female_student_pupil_dropout_2010_2011": "1", "education:funders": "government,kenya keys", "education:male_student_pupil_dropout_2010_2011": "2", "education:male_student_pupil_returnees_2010_2011": "1", "education:program_counseling": "yes", "education:program_feeding": "yes", "education:program_scouting": "yes", "education:program_sports": "yes", "education:staff_female": "1", "education:staff_male": "1", "education:student_age_range": "3-20 years", "education:student_pupil_dropout_2009_2010": "2", "education:student_pupil_dropout_2010_2011": "3", "education:student_pupil_returnees_2010_2011": "1", "education:students": "583", "education:students_female": "277", "education:students_male": "306", "education:teachers": "13", "education:teachers_female": "2", "education:teachers_male": "11", "education:teachers_trained": "7", "education:teachers_tsc": "7", "education:teachers_untrained": "6", "education:type": "Primary", "name": "Bahakwenu Primary School", "opening_hours": "Mo-Fr 08:00-16:10", "operational_status": "operational", "operational_status:electricity": "never", "operator:type": "government", "watsan:female_toilets_per_location": "13", "watsan:male_toilets_per_location": "9", "watsan:toilets_per_location": "22", "watsan:type": "Pit_latrine", "watsan:water_availability": "yes"}}, {"type": "node", "id": 1489366371, "lat": -3.6793111, "lon": 39.1351403, "tags": {"amenity": "school", "contact:phone": "0726984580", "education:data_collection": "Plan", "education:dropout_early_marriage": "yes", "education:dropout_poverty": "yes", "education:dropout_pregnancy": "yes", "education:female_student_pupil_dropout_2008_2009": "7", "education:female_student_pupil_dropout_2009_2010": "17", "education:female_student_pupil_dropout_2010_2011": "8", "education:female_student_pupil_returnees_2010_2011": "4", "education:funders": "Government", "education:male_student_pupil_dropout_2008_2009": "4", "education:male_student_pupil_dropout_2009_2010": "3", "education:male_student_pupil_dropout_2010_2011": "5", "education:pregnant_girls_at_school": "1", "education:program_counseling": "yes", "education:program_feeding": "yes", "education:program_scouting": "yes", "education:program_sports": "yes", "education:staff_female": "1", "education:staff_male": "1", "education:student_age_range": "3yrs-21yrs", "education:student_pupil_dropout_2008_2009": "11", "education:student_pupil_dropout_2009_2010": "20", "education:student_pupil_dropout_2010_2011": "13", "education:student_pupil_returnees_2010_2011": "4", "education:students": "790", "education:students_female": "412", "education:students_male": "378", "education:teachers": "14", "education:teachers_female": "2", "education:teachers_male": "12", "education:teachers_trained": "10", "education:teachers_tsc": "10", "education:teachers_untrained": "4", "education:type": "Primary", "name": "Egu Primary School", "opening_hours": "06:30-16:10", "operational_status": "operational", "operational_status:electricity": "never", "operator:type": "government", "watsan:female_toilets_per_location": "7", "watsan:male_toilets_per_location": "5", "watsan:toilets_per_location": "12", "watsan:type": "Pit_latrine", "watsan:water_availability": "No"}}, {"type": "node", "id": 1489366372, "lat": -3.812941, "lon": 39.1053143, "tags": {"amenity": "school", "contact:phone": "0720227982", "education:data_collection": "Plan", "education:dropout_ghosts": "yes", "education:dropout_ignorance": "yes", "education:dropout_poverty": "yes", "education:dropout_pregnancy": "yes", "education:female_student_pupil_dropout_2010_2011": "2", "education:female_student_pupil_returnees_2010_2011": "3", "education:funders": "Government,Kenya keys and Plan international kenya", "education:male_student_pupil_dropout_2010_2011": "2", "education:male_student_pupil_returnees_2010_2011": "1", "education:program_feeding": "no", "education:program_scouting": "yes", "education:program_sports": "yes", "education:staff_female": "1", "education:staff_male": "1", "education:student_age_range": "3years-17 years", "education:student_pupil_dropout_2010_2011": "4", "education:student_pupil_returnees_2010_2011": "4", "education:students": "319", "education:students_female": "191", "education:students_male": "228", "education:teachers": "7", "education:teachers_female": "3", "education:teachers_male": "4", "education:teachers_trained": "4", "education:teachers_tsc": "4", "education:teachers_untrained": "3", "education:type": "Primary", "name": "Magale Primary School", "opening_hours": "Mo-Fr 08:20-16:10", "operational_status": "operational", "operational_status:electricity": "never", "operator:type": "government", "watsan:female_toilets_per_location": "3", "watsan:male_toilets_per_location": "2", "watsan:toilets_per_location": "4", "watsan:type": "Pit_latrine", "watsan:water_availability": "yes"}}, {"type": "node", "id": 1491221824, "lat": -3.9464633, "lon": 39.0593769, "tags": {"amenity": "school", "contact:phone": "0720092853", "education:data_collection": "plan", "education:dropout_ignorance": "yes", "education:dropout_poverty": "yes", "education:fees": "PTA fees", "education:female_student_pupil_dropout_2010_2011": "4", "education:male_student_pupil_dropout_2010_2011": "2", "education:program_counseling": "yes", "education:program_description": "debate club,science club", "education:program_feeding": "yes", "education:program_other": "yes", "education:program_scouting": "yes", "education:program_sports": "yes", "education:staff_female": "1", "education:staff_male": "1", "education:student_age_range": "3years-17years", "education:student_pupil_dropout_2010_2011": "6", "education:students": "194", "education:students_female": "97", "education:students_male": "77", "education:teachers": "6", "education:teachers_female": "2", "education:teachers_male": "4", "education:teachers_trained": "2", "education:teachers_tsc": "2", "education:teachers_untrained": "4", "education:type": "Primary", "name": "Dzisuhuni Primary School", "opening_hours": "7:30-16:30", "operational_status": "operational", "operational_status:electricity": "never", "operator:type": "government", "watsan:female_toilets_per_location": "1", "watsan:male_toilets_per_location": "1", "watsan:toilets_per_location": "2", "watsan:type": "pit_latrine", "watsan:water_availability": "no"}}, {"type": "node", "id": 1491221876, "lat": -3.8123316, "lon": 39.1056753, "tags": {"amenity": "school", "contact:phone": "0728856657", "education:data_collection": "plan", "education:dropout_ignorance": "yes", "education:dropout_pregnancy": "yes", "education:dropout_school_fees": "yes", "education:fees": "yes", "education:female_student_pupil_dropout_2010_2011": "2", "education:male_student_pupil_dropout_2010_2011": "2", "education:staff_male": "2", "education:student_age_range": "16Years-27Years", "education:student_pupil_dropout_2010_2011": "4", "education:students": "24", "education:students_female": "8", "education:students_male": "16", "education:teachers": "4", "education:teachers_male": "4", "education:teachers_trained": "1", "education:teachers_tsc": "1", "education:teachers_untrained": "3", "education:type": "Secondary", "name": "Makamini Secondary School", "opening_hours": "8:00-16:00", "operational_status": "operational", "operational_status:electricity": "never", "operator:type": "government", "watsan:female_toilets_per_location": "1", "watsan:male_toilets_per_location": "1", "watsan:toilets_per_location": "2", "watsan:type": "pit_latrine", "watsan:water_availability": "no"}}, {"type": "node", "id": 1491221877, "lat": -3.7714991, "lon": 39.1922364, "tags": {"amenity": "school", "contact:phone": "0720410632", "education:data_collection": "Plan", "education:staff_female": "2", "education:staff_male": "1", "education:student_age_range": "3yrs-17yrs", "education:students": "385", "education:students_female": "177", "education:students_male": "186", "education:teachers": "10", "education:teachers_female": "5", "education:teachers_male": "5", "education:teachers_trained": "5", "education:teachers_tsc": "5", "education:teachers_untrained": "5", "education:type": "Primary", "name": "Mwembeni Primary School", "opening_hours": "Mo-Fr 08:00-16:00", "operator:type": "government"}}, {"type": "node", "id": 4916624344, "lat": -3.6739802, "lon": 38.9439878}, {"type": "node", "id": 4916624345, "lat": -3.6740157, "lon": 38.9445671}, {"type": "node", "id": 4916624616, "lat": -3.9541364, "lon": 38.9274743}, {"type": "node", "id": 4916624617, "lat": -3.953908, "lon": 38.9282407}, {"type": "node", "id": 4916625048, "lat": -3.9534397, "lon": 38.927584}, {"type": "node", "id": 4916625049, "lat": -3.9536685, "lon": 38.9282078}, {"type": "node", "id": 5059976497, "lat": -3.6755542, "lon": 38.9432726}, {"type": "node", "id": 5059976498, "lat": -3.6762277, "lon": 38.9444801}, {"type": "node", "id": 5059976499, "lat": -3.6754771, "lon": 38.94485}, {"type": "node", "id": 5059976500, "lat": -3.6753026, "lon": 38.944602}, {"type": "node", "id": 5059976501, "lat": -3.6748726, "lon": 38.9448297}, {"type": "node", "id": 5059976502, "lat": -3.6742543, "lon": 38.9449423}, {"type": "node", "id": 5062832086, "lat": -3.9539594, "lon": 38.9278485}, {"type": "node", "id": 5062832088, "lat": -3.9541911, "lon": 38.9270956}, {"type": "node", "id": 5062832089, "lat": -3.9534156, "lon": 38.9273742}, {"type": "node", "id": 5224750110, "lat": -3.7305803, "lon": 39.0479964}, {"type": "node", "id": 5224750235, "lat": -3.730239, "lon": 39.0480554}, {"type": "node", "id": 5224750238, "lat": -3.7299767, "lon": 39.0481627}, {"type": "node", "id": 5224750239, "lat": -3.7301695, "lon": 39.049021}, {"type": "node", "id": 5224750245, "lat": -3.7307461, "lon": 39.0483399}, {"type": "node", "id": 5224750246, "lat": -3.7304612, "lon": 39.0486831}, {"type": "node", "id": 5224750247, "lat": -3.7303648, "lon": 39.048962}, {"type": "node", "id": 5226665228, "lat": -3.7864961, "lon": 39.0932308}, {"type": "node", "id": 5226665229, "lat": -3.7865817, "lon": 39.0944217}, {"type": "node", "id": 5226665230, "lat": -3.7867476, "lon": 39.0953337}, {"type": "node", "id": 5226665231, "lat": -3.7875345, "lon": 39.095264}, {"type": "node", "id": 5226665232, "lat": -3.7881822, "lon": 39.0950762}, {"type": "node", "id": 5226665233, "lat": -3.7883427, "lon": 39.0950172}, {"type": "node", "id": 5226665234, "lat": -3.7885943, "lon": 39.0944271}, {"type": "node", "id": 5226665235, "lat": -3.7877807, "lon": 39.0937136}, {"type": "node", "id": 5226665236, "lat": -3.7873953, "lon": 39.0933167}, {"type": "node", "id": 5226665237, "lat": -3.787042, "lon": 39.0932416}, {"type": "node", "id": 5226665238, "lat": -3.7867958, "lon": 39.0932255}, {"type": "node", "id": 5232560803, "lat": -3.8693106, "lon": 39.226168}, {"type": "node", "id": 5232560804, "lat": -3.8694605, "lon": 39.2244085}, {"type": "node", "id": 5232560805, "lat": -3.8708895, "lon": 39.2241295}, {"type": "node", "id": 5232560806, "lat": -3.8712695, "lon": 39.2258998}, {"type": "node", "id": 5232560807, "lat": -3.8700546, "lon": 39.2260768}, {"type": "node", "id": 5232645502, "lat": -3.9010868, "lon": 39.2250024}, {"type": "node", "id": 5232645504, "lat": -3.9014436, "lon": 39.22499}, {"type": "node", "id": 5232645531, "lat": -3.9020024, "lon": 39.2249896}, {"type": "node", "id": 5232645540, "lat": -3.9004715, "lon": 39.2249953}, {"type": "node", "id": 5232645541, "lat": -3.9003486, "lon": 39.2244141}, {"type": "node", "id": 5232645542, "lat": -3.9000756, "lon": 39.2238562}, {"type": "node", "id": 5232645543, "lat": -3.9000328, "lon": 39.2234967}, {"type": "node", "id": 5232645544, "lat": -3.90037, "lon": 39.2230086}, {"type": "node", "id": 5232645545, "lat": -3.9007179, "lon": 39.2227028}, {"type": "node", "id": 5232645546, "lat": -3.9010658, "lon": 39.2226813}, {"type": "node", "id": 5232645547, "lat": -3.9015314, "lon": 39.2228959}, {"type": "node", "id": 5232645548, "lat": -3.9016438, "lon": 39.22303}, {"type": "node", "id": 5232645549, "lat": -3.9019007, "lon": 39.2237596}, {"type": "node", "id": 5232645550, "lat": -3.9019381, "lon": 39.224001}, {"type": "node", "id": 5232645551, "lat": -3.9020398, "lon": 39.2242585}, {"type": "node", "id": 6235677112, "lat": -3.7537174, "lon": 39.1391304, "tags": {"addr:city": "Taru", "addr:street": "Mombasa Road", "amenity": "school", "name": "Rock Of Ages Acadamy"}}, {"type": "node", "id": 9854224234, "lat": -3.7425346, "lon": 39.1462361}, {"type": "node", "id": 9854224235, "lat": -3.7426582, "lon": 39.1481224}, {"type": "node", "id": 9854224236, "lat": -3.7408935, "lon": 39.1483288}, {"type": "node", "id": 9854224237, "lat": -3.7408817, "lon": 39.1473208}, {"type": "node", "id": 9854224238, "lat": -3.7404288, "lon": 39.1470319}, {"type": "node", "id": 9854224239, "lat": -3.7410759, "lon": 39.1463776}, {"type": "node", "id": 9854224240, "lat": -3.7415405, "lon": 39.1461359}, {"type": "way", "id": 518794986, "nodes": [4916624344, 5059976497, 5059976498, 5059976499, 5059976500, 5059976501, 5059976502, 4916624345, 4916624344], "tags": {"addr:city": "Batchuma", "addr:street": "Mombasa Road", "amenity": "school", "name": "Miasenyi Primary School", "source": "Kenya Open Data Initiative"}}, {"type": "way", "id": 519155730, "nodes": [5062832089, 5062832088, 4916624616, 5062832086, 4916624617, 4916625049, 4916625048, 5062832089], "tags": {"amenity": "school", "name": "Zungulukani Primary", "source": "Kenya Open Data Initiative"}}, {"type": "way", "id": 540003679, "nodes": [5224750238, 5224750235, 5224750110, 5224750245, 5224750246, 5224750247, 5224750239, 5224750238], "tags": {"amenity": "school"}}, {"type": "way", "id": 540214627, "nodes": [5226665228, 5226665229, 5226665230, 5226665231, 5226665232, 5226665233, 5226665234, 5226665235, 5226665236, 5226665237, 5226665238, 5226665228], "tags": {"amenity": "school"}}, {"type": "way", "id": 541019614, "nodes": [5232560803, 5232560804, 5232560805, 5232560806, 5232560807, 5232560803], "tags": {"amenity": "school"}}, {"type": "way", "id": 541031975, "nodes": [5232645540, 5232645541, 5232645542, 5232645543, 5232645544, 5232645545, 5232645546, 5232645547, 5232645548, 5232645549, 5232645550, 5232645551, 5232645531, 5232645504, 5232645502, 5232645540], "tags": {"amenity": "school"}}, {"type": "way", "id": 1074324684, "nodes": [9854224234, 9854224235, 9854224236, 9854224237, 9854224238, 9854224239, 9854224240, 9854224234], "tags": {"amenity": "school"}}]}