{"version": 0.6, "generator": "Overpass API 0.7.61.5 4133829e", "osm3s": {"timestamp_osm_base": "2024-03-05T14:38:15Z", "copyright": "The data included in this document is from www.openstreetmap.org. The data is made available under ODbL."}, "elements": [{"type": "node", "id": 23286487, "lat": 58.2374005, "lon": 11.5436321, "tags": {"amenity": "ferry_terminal", "ferry": "yes", "name": "\u00c4ng\u00f6 brygga"}}, {"type": "node", "id": 26580369, "lat": 58.3001315, "lon": 11.5349539, "tags": {"amenity": "ferry_terminal", "cargo": "passengers;vehicle", "ferry": "yes", "name": "Sk\u00e5r"}}, {"type": "node", "id": 26580493, "lat": 58.3025606, "lon": 11.5043244, "tags": {"amenity": "ferry_terminal", "cargo": "passengers;vehicle", "ferry": "yes", "name": "Finnsbo f\u00e4rjel\u00e4ge"}}, {"type": "node", "id": 26580494, "lat": 58.3024908, "lon": 11.5061885}, {"type": "node", "id": 26580500, "lat": 58.3020957, "lon": 11.5139302}, {"type": "node", "id": 26580509, "lat": 58.3017665, "lon": 11.5245006}, {"type": "node", "id": 26580511, "lat": 58.3013665, "lon": 11.5303603}, {"type": "node", "id": 26580512, "lat": 58.3011646, "lon": 11.5321257}, {"type": "node", "id": 26580513, "lat": 58.3008729, "lon": 11.5336435}, {"type": "node", "id": 26580514, "lat": 58.3005262, "lon": 11.5343786}, {"type": "node", "id": 295780246, "lat": 58.2386571, "lon": 11.5448861, "tags": {"amenity": "ferry_terminal", "ferry": "yes", "name": "Fruvik"}}, {"type": "node", "id": 295780802, "lat": 58.1959433, "lon": 11.4852442, "tags": {"amenity": "ferry_terminal", "ferry": "yes", "name": "Mal\u00f6"}}, {"type": "node", "id": 295780811, "lat": 58.1951828, "lon": 11.4889162, "tags": {"amenity": "ferry_terminal", "ferry": "yes", "name": "Fr\u00f6jdendal"}}, {"type": "node", "id": 6274603762, "lat": 58.3010223, "lon": 11.5331179}, {"type": "way", "id": 4361073, "nodes": [26580493, 26580494, 26580500, 26580509, 26580511, 26580512, 6274603762, 26580513, 26580514, 26580369], "tags": {"alt_name": "V\u00e4gf\u00e4rja Finnsbo - Sk\u00e5r", "bicycle": "yes", "duration": "00:10", "ferry": "secondary", "foot": "yes", "hazmat": "designated", "motor_vehicle": "yes", "motorcar": "yes", "name": "Gullmarsleden", "operator": "Trafikverket F\u00e4rjerederiet", "ref": "161", "route": "ferry", "toll": "no", "website": "https://www.trafikverket.se/resa-och-trafik/trafikinformation/farjetrafik/gullmarsleden/"}}, {"type": "way", "id": 26984572, "nodes": [295780246, 23286487], "tags": {"alt_name": "V\u00e4gf\u00e4rja Fruvik och \u00c4ng\u00f6n", "contact:website": "http://www.trafikverket.se/farjerederiet/farjeleder/farjeleder-i-vastra-gotalands-lan/Angoleden/", "description": "Fruvik - \u00c4ng\u00f6n - Fruvik", "duration": "0:03", "ferry": "tertiary", "ferry:cable": "yes", "foot": "yes", "motor_vehicle": "yes", "name": "\u00c4ng\u00f6leden", "operator": "Trafikverket F\u00e4rjerederiet", "ref": "O 751", "route": "ferry", "toll": "no"}}, {"type": "way", "id": 26984575, "nodes": [295780802, 295780811], "tags": {"alt_name": "V\u00e4gf\u00e4rja Mal\u00f6-Fr\u00f6jendal - Mal\u00f6", "contact:website": "http://www.trafikverket.se/farjerederiet/farjeleder/farjeleder-i-vastra-gotalands-lan/Maloleden/", "duration": "00:03", "ferry": "tertiary", "foot": "yes", "motor_vehicle": "yes", "motorcar": "yes", "name": "Mal\u00f6leden", "operator": "Trafikverket F\u00e4rjerederiet", "ref": "O 751", "route": "ferry"}}, {"type": "relation", "id": 7840251, "members": [{"type": "node", "ref": 295780802, "role": "stop"}, {"type": "node", "ref": 295780811, "role": "stop"}, {"type": "way", "ref": 26984575, "role": ""}], "tags": {"name": "V\u00e4gf\u00e4rja Mal\u00f6leden", "operator": "F\u00e4rjerederiet Trafikverket", "public_transport:version": "2", "ref": "O 0751", "route": "ferry", "type": "route"}}, {"type": "relation", "id": 7840256, "members": [{"type": "node", "ref": 23286487, "role": "stop"}, {"type": "node", "ref": 295780246, "role": "stop"}, {"type": "way", "ref": 26984572, "role": ""}], "tags": {"name": "V\u00e4gf\u00e4rja \u00c4ng\u00f6leden", "operator": "Trafikverket F\u00e4rjerederiet", "public_transport:version": "2", "ref": "O 0751", "route": "ferry", "type": "route"}}, {"type": "relation", "id": 7841117, "members": [{"type": "node", "ref": 26580369, "role": "stop"}, {"type": "node", "ref": 26580493, "role": "stop"}, {"type": "way", "ref": 4361073, "role": ""}], "tags": {"duration": "00:10", "name": "V\u00e4gf\u00e4rja Gullmarsleden", "operator": "Trafikverket F\u00e4rjerederiet", "public_transport:version": "2", "ref": "161", "route": "ferry", "type": "route"}}]}