{"version": 0.6, "generator": "Overpass API 0.7.61.5 4133829e", "osm3s": {"timestamp_osm_base": "2024-03-06T11:32:59Z", "copyright": "The data included in this document is from www.openstreetmap.org. The data is made available under ODbL."}, "elements": [{"type": "node", "id": 2877920993, "lat": -0.799496, "lon": 37.5865916, "tags": {"amenity": "hospital", "contact:mobile": "0721603803", "contact:postal": "box 141 kiritiri", "facility:fund_source": "cdf", "facility:project_quality": "good", "facility:project_status": "not_complete", "facility:project_type": "staff housing", "name": "makima dispensary", "place:district": "mbeere south", "place:division": "makima", "place:location": "makima", "place:sub_location": "mwea", "place:village": "makima", "project:description": "ccc-aphia plus", "project:number": "2"}}, {"type": "node", "id": 2877935320, "lat": -0.9150613, "lon": 37.861249, "tags": {"amenity": "hospital", "contact:postal": "147 mwingi", "facility:fund_source": "cdf", "facility:operator": "public", "facility:project_quality": "good", "facility:project_status": "complete", "name": "Kyusyani dispensary", "place:district": "migwani", "place:division": "nguutani", "place:location": "thaananzau", "place:sub_location": "kyusyani", "place:village": "kyusyani"}}, {"type": "node", "id": 2877935323, "lat": -0.9516448, "lon": 37.8731477}, {"type": "node", "id": 2877935353, "lat": -0.8260946, "lon": 37.8605712, "tags": {"amenity": "clinic", "contact:mobile": "0723147907", "contact:postal": "16 mwingi", "facility:operator": "public", "facility:project_quality": "good", "facility:project_status": "complete", "facility:project_type": "yes", "name": "Thaananzau dispensary", "place:district": "migwani", "place:division": "nguutani", "place:location": "thaananzau", "place:sub_location": "thaana", "place:village": "thaana", "project:description": "maternity built by cdf", "project:fund_money_allocated": "500,000", "project:fund_money_used": "500,000", "project:fund_source": "county_council", "project:number": "1"}}, {"type": "node", "id": 2877935363, "lat": -0.8929881, "lon": 37.9013746, "tags": {"amenity": "hospital", "facility:operator": "public", "name": "Wikivuvwa dispensary", "place:district": "migwani", "place:division": "nguutani", "place:location": "thaananzau", "place:sub_location": "wikivuvwa", "place:village": "wimathendu"}}, {"type": "node", "id": 2885939513, "lat": -0.7502155, "lon": 37.5467729, "tags": {"amenity": "hospital", "facility:operator": "private", "name": "Thiba dispensary", "place:district": "mbeere south", "place:division": "makima", "place:location": "makima", "place:sub_location": "makima", "place:village": "mashamba"}}, {"type": "node", "id": 3283879885, "lat": -0.8167062, "lon": 37.5485657, "tags": {"amenity": "hospital", "contact:postal": "box 1380 embu", "facility:operator": "private", "facility:project_quality": "needs_improvement", "facility:project_status": "stopped", "name": "consolata dispensary", "place:district": "mbeere south", "place:division": "makima", "place:location": "makima", "place:sub_location": "mwea", "place:village": "kitololoni"}}, {"type": "node", "id": 3283879900, "lat": -0.7829811, "lon": 37.5810869, "tags": {"amenity": "hospital", "contact:mobile": "9040-00300", "facility:operator": "private", "name": "makima clinic", "place:district": "mbeere south", "place:division": "makima", "place:location": "makima", "place:sub_location": "makima", "place:village": "makima"}}, {"type": "node", "id": 3283879911, "lat": -0.8356615, "lon": 37.5432728, "tags": {"amenity": "hospital", "contact:mobile": "0724145228", "contact:postal": "box 141 kiritiri", "facility:fund_source": "ngo", "facility:operator": "public", "facility:project_quality": "good", "facility:project_status": "complete", "facility:project_type": "watertank", "name": "mbondoni dispensary", "place:district": "mbeere south", "place:division": "makima", "place:location": "makima", "place:sub_location": "mbondoni", "place:village": "mbondoni", "project:description": "drink store-cdf,watertank-aod,construction-plan,", "project:number": "4"}}, {"type": "node", "id": 3283879919, "lat": -0.8327221, "lon": 37.4763961, "tags": {"amenity": "hospital", "facility:fund_source": "cdf", "facility:operator": "public", "facility:project_quality": "good", "facility:project_status": "not_complete", "name": "mulukusi dispensary", "place:district": "mbeere south", "place:division": "makima", "place:location": "makima", "place:sub_location": "mbondoni", "place:village": "mulukusi"}}, {"type": "node", "id": 7453295906, "lat": -0.9516242, "lon": 37.8734599}, {"type": "node", "id": 7453295907, "lat": -0.9517851, "lon": 37.8734705}, {"type": "node", "id": 7453295908, "lat": -0.9518043, "lon": 37.8731799}, {"type": "node", "id": 7453295909, "lat": -0.9517055, "lon": 37.8731734}, {"type": "node", "id": 7453295910, "lat": -0.951707, "lon": 37.8731518}, {"type": "node", "id": 9487237401, "lat": -0.5767222, "lon": 37.6425112, "tags": {"amenity": "hospital", "healthcare": "hospital", "name": "Mbeere subcounty Hospital"}}, {"type": "way", "id": 796943124, "nodes": [2877935323, 7453295906, 7453295907, 7453295908, 7453295909, 7453295910, 2877935323], "tags": {"amenity": "hospital", "contact:postal": "639 mwingi", "facility:fund_source": "cdf", "facility:operator": "public", "healthcare": "hospital", "name": "Mavui dispensary", "place:district": "migwani", "place:division": "nguutani", "place:location": "thaananzau", "place:sub_location": "yenzuva", "place:village": "mavui"}}]}