{"version": 0.6, "generator": "Overpass API 0.7.61.5 4133829e", "osm3s": {"timestamp_osm_base": "2024-03-05T15:08:00Z", "copyright": "The data included in this document is from www.openstreetmap.org. The data is made available under ODbL."}, "elements": [{"type": "node", "id": 61100017, "lat": 60.889389, "lon": 16.7173614, "tags": {"name": "Ockelbo", "name:ru": "\u041e\u043a\u043a\u0435\u043b\u044c\u0431\u0443", "name:sv": "Ockelbo", "place": "town", "population": "2724", "ref:se:pts:postort": "OCKELBO", "ref:se:scb": "7236"}}, {"type": "node", "id": 112442922, "lat": 60.972199, "lon": 16.9098575, "tags": {"name": "Viksj\u00f6", "place": "hamlet"}}, {"type": "node", "id": 281710359, "lat": 60.9286755, "lon": 16.5808905, "tags": {"name": "Vallsbo", "place": "hamlet"}}, {"type": "node", "id": 281710370, "lat": 60.9159765, "lon": 16.6454819, "tags": {"name": "Str\u00f6msborg", "place": "hamlet"}}, {"type": "node", "id": 285032199, "lat": 61.0488035, "lon": 16.6941699, "tags": {"name": "Lingbo", "place": "village", "ref:se:pts:postort": "LINGBO", "ref:se:scb": "7180"}}, {"type": "node", "id": 286644597, "lat": 60.929974, "lon": 17.1406678, "tags": {"name": "Norrsundet", "place": "village", "ref:se:pts:postort": "NORRSUNDET", "ref:se:scb": "7228"}}, {"type": "node", "id": 287439403, "lat": 61.0910866, "lon": 17.1950757, "tags": {"name": "Trollharen", "place": "hamlet"}}, {"type": "node", "id": 287439404, "lat": 61.0470257, "lon": 17.1442705, "tags": {"name": "Axmar bruk", "place": "hamlet"}}, {"type": "node", "id": 287439405, "lat": 61.0016245, "lon": 17.1188447, "tags": {"name": "Axmarby", "place": "hamlet", "ref:se:pts:postort": "AXMAR"}}, {"type": "node", "id": 308902839, "lat": 60.8513649, "lon": 16.9470467, "tags": {"name": "Vittersj\u00f6n", "place": "hamlet"}}, {"type": "node", "id": 308903281, "lat": 60.9161029, "lon": 16.568394, "tags": {"name": "Gammelf\u00e4bodarna", "place": "hamlet"}}, {"type": "node", "id": 367869321, "lat": 60.8968325, "lon": 17.0642699, "tags": {"name": "Hamr\u00e5ngefj\u00e4rden", "place": "village", "ref:se:pts:postort": "HAMR\u00c5NGEFJ\u00c4RDEN", "ref:se:scb": "7092"}}, {"type": "node", "id": 367869638, "lat": 60.9171984, "lon": 17.0874442, "tags": {"name": "Totra", "place": "village", "ref:se:scb": "7336"}}, {"type": "node", "id": 367869735, "lat": 60.9122751, "lon": 17.028221, "tags": {"name": "Hagsta", "place": "village"}}, {"type": "node", "id": 367870080, "lat": 60.9290646, "lon": 17.0410031, "tags": {"name": "Bergby", "place": "village", "ref:se:pts:postort": "BERGBY", "ref:se:scb": "7016"}}, {"type": "node", "id": 367885617, "lat": 61.2666933, "lon": 16.6450524, "tags": {"name": "Segersta", "place": "village", "ref:se:pts:postort": "SEGERSTA", "ref:se:scb": "7276"}}, {"type": "node", "id": 367885660, "lat": 61.228627, "lon": 16.5671181, "tags": {"name": "Kilafors", "place": "village", "ref:se:pts:postort": "KILAFORS", "ref:se:scb": "7156"}}, {"type": "node", "id": 367885674, "lat": 61.2164351, "lon": 16.6042109, "tags": {"name": "Sibo", "place": "hamlet", "ref:se:scb": "7280"}}, {"type": "node", "id": 367887198, "lat": 61.2136308, "lon": 17.1281545, "tags": {"name": "Ljusne", "place": "village", "population": "1993", "ref:se:pts:postort": "LJUSNE", "ref:se:scb": "7188", "wikipedia": "sv:Ljusne"}}, {"type": "node", "id": 367887361, "lat": 61.1843656, "lon": 17.1763444, "tags": {"name": "Vallvik", "place": "village", "population": "231", "ref:se:pts:postort": "VALLVIK", "ref:se:scb": "7352", "wikipedia": "sv:Vallvik"}}, {"type": "node", "id": 367887518, "lat": 61.1645988, "lon": 16.8207211, "tags": {"name": "Skog", "place": "village", "ref:se:scb": "7284"}}, {"type": "node", "id": 367887769, "lat": 61.2553522, "lon": 16.8325443, "tags": {"name": "Bergvik", "place": "village", "ref:se:pts:postort": "BERGVIK", "ref:se:scb": "7024"}}, {"type": "node", "id": 367887928, "lat": 61.2608002, "lon": 16.788084, "tags": {"name": "Vanns\u00e4tter", "place": "village", "ref:se:scb": "7356"}}, {"type": "node", "id": 458762720, "lat": 61.0062571, "lon": 17.2389694, "tags": {"name": "G\u00e5sholma", "place": "hamlet"}}, {"type": "node", "id": 503029105, "lat": 61.1316679, "lon": 16.6675519, "tags": {"name": "H\u00e5kanbo", "place": "hamlet"}}, {"type": "node", "id": 635293058, "lat": 61.1161942, "lon": 16.7237366, "tags": {"name": "Holmsveden", "place": "hamlet", "ref:se:pts:postort": "HOLMSVEDEN"}}, {"type": "node", "id": 1364141154, "lat": 60.8438602, "lon": 16.8510039, "tags": {"name": "Kolforsen", "place": "hamlet"}}, {"type": "node", "id": 2236207088, "lat": 61.1668955, "lon": 16.8439303, "tags": {"name": "Str\u00e5tj\u00e4ra", "place": "village", "ref:se:pts:postort": "STR\u00c5TJ\u00c4RA"}}, {"type": "node", "id": 2618468597, "lat": 61.2473234, "lon": 16.9969591, "tags": {"name": "Askesta", "place": "hamlet"}}, {"type": "node", "id": 2618468598, "lat": 61.2490514, "lon": 17.0250237, "tags": {"name": "Karmor", "place": "hamlet"}}, {"type": "node", "id": 2618468599, "lat": 61.2500953, "lon": 17.0185502, "tags": {"name": "Ons\u00e4ng", "place": "hamlet"}}, {"type": "node", "id": 2681385006, "lat": 60.8473865, "lon": 16.6089643, "tags": {"name": "M\u00e5ngelsbodarna", "place": "hamlet"}}, {"type": "node", "id": 2685273616, "lat": 60.8437365, "lon": 16.6671262, "tags": {"name": "Brattfors", "place": "hamlet"}}, {"type": "node", "id": 2856422075, "lat": 60.8525386, "lon": 16.5743755, "tags": {"name": "L\u00e5ngbron", "place": "hamlet"}}, {"type": "node", "id": 2856608361, "lat": 60.8423223, "lon": 16.5693196, "tags": {"name": "Flaxbodarna", "place": "hamlet"}}, {"type": "node", "id": 2870927883, "lat": 60.8595172, "lon": 16.538089, "tags": {"name": "Herratj\u00e4rnf\u00e4bodarna", "place": "village"}}, {"type": "node", "id": 2875114040, "lat": 60.8473619, "lon": 16.7061378, "tags": {"name": "\u00c5bron", "place": "hamlet"}}, {"type": "node", "id": 2875118492, "lat": 60.8466223, "lon": 16.7098338, "tags": {"name": "Fyrbo", "place": "hamlet"}}, {"type": "node", "id": 2875196593, "lat": 60.8753684, "lon": 16.739542, "tags": {"name": "Masbo", "place": "hamlet"}}, {"type": "node", "id": 2878971532, "lat": 60.8344432, "lon": 16.7246204, "tags": {"name": "R\u00f6nnlunds", "place": "hamlet"}}, {"type": "node", "id": 2884756112, "lat": 61.250657, "lon": 16.5539393, "tags": {"name": "Norrbyn", "place": "hamlet"}}, {"type": "node", "id": 3004693410, "lat": 60.919128, "lon": 17.045077, "tags": {"name": "\u00c5byn", "place": "hamlet"}}, {"type": "node", "id": 3054263394, "lat": 60.9195535, "lon": 17.1122283, "tags": {"name": "Epa", "place": "hamlet"}}, {"type": "node", "id": 3054263395, "lat": 60.9042424, "lon": 17.0711116, "tags": {"name": "Hagalund", "place": "hamlet"}}, {"type": "node", "id": 3524372452, "lat": 60.9056808, "lon": 16.7398032, "tags": {"name": "Klockarbacken", "place": "hamlet"}}, {"type": "node", "id": 3524372470, "lat": 60.8934887, "lon": 16.7672624, "tags": {"name": "Stenb\u00e4cken", "place": "hamlet"}}, {"type": "node", "id": 3991712695, "lat": 61.2083155, "lon": 17.1104057, "tags": {"name": "\u00c5\u00e4nge", "place": "hamlet"}}, {"type": "node", "id": 4343008496, "lat": 60.8740496, "lon": 17.1679056, "tags": {"name": "Katrineholm", "place": "hamlet"}}, {"type": "node", "id": 4343008497, "lat": 61.1587392, "lon": 17.145835, "tags": {"name": "Mar\u00e5ker", "place": "hamlet"}}, {"type": "node", "id": 4343008498, "lat": 61.1092026, "lon": 17.1262281, "tags": {"name": "Sunn\u00e4s", "place": "hamlet"}}, {"type": "node", "id": 4399837837, "lat": 61.213654, "lon": 17.0607371, "tags": {"name": "S\u00f6rljusne", "place": "hamlet"}}, {"type": "node", "id": 4406466293, "lat": 61.2135305, "lon": 17.0934647, "tags": {"name": "Askers", "place": "hamlet"}}, {"type": "node", "id": 4406471291, "lat": 61.219213, "lon": 17.1466583, "tags": {"name": "Ala", "place": "hamlet"}}, {"type": "node", "id": 4743763233, "lat": 60.876438, "lon": 17.2506521, "tags": {"name": "Sm\u00e5muren", "place": "hamlet"}}, {"type": "node", "id": 4743763234, "lat": 60.872955, "lon": 17.2891794, "tags": {"name": "Igg\u00f6n", "place": "hamlet"}}, {"type": "node", "id": 7465694950, "lat": 60.8296296, "lon": 17.0251299, "tags": {"name": "V\u00e4stra V\u00e4sterberg", "place": "hamlet"}}, {"type": "node", "id": 7465759285, "lat": 61.2649595, "lon": 16.6489505, "tags": {"name": "Landafors", "place": "hamlet"}}, {"type": "node", "id": 7465890535, "lat": 61.2043984, "lon": 16.560312, "tags": {"name": "S\u00f6derberget", "place": "hamlet"}}, {"type": "node", "id": 7465923046, "lat": 61.0236831, "lon": 16.5893875, "tags": {"name": "V\u00e4stra Fall\u00e5sen", "place": "hamlet"}}, {"type": "node", "id": 7466715039, "lat": 60.8288413, "lon": 17.0004898, "tags": {"name": "Nya R\u00e5h\u00e4llan", "place": "hamlet"}}, {"type": "node", "id": 7466744650, "lat": 60.8942496, "lon": 17.0763952, "tags": {"name": "R\u00e5n", "place": "hamlet"}}, {"type": "node", "id": 7466746312, "lat": 60.8590372, "lon": 16.8185171, "tags": {"name": "Konstdalen", "place": "hamlet"}}, {"type": "node", "id": 7466748930, "lat": 60.8906391, "lon": 17.1200902, "tags": {"name": "Djupvik", "place": "hamlet"}}, {"type": "node", "id": 7466750173, "lat": 60.9303624, "lon": 17.0186193, "tags": {"name": "Sj\u00f6kalla", "place": "hamlet"}}, {"type": "node", "id": 7466750623, "lat": 60.850317, "lon": 16.9159469, "tags": {"name": "Sj\u00f6vik", "place": "hamlet"}}, {"type": "node", "id": 7466754767, "lat": 60.9128085, "lon": 17.0805161, "tags": {"name": "Duvbacken", "place": "hamlet"}}, {"type": "node", "id": 7466757050, "lat": 60.8899577, "lon": 17.1257783, "tags": {"name": "Fagervik", "place": "hamlet"}}, {"type": "node", "id": 7466763348, "lat": 60.8955096, "lon": 17.0979981, "tags": {"name": "Sveaborg", "place": "hamlet"}}, {"type": "node", "id": 7466766072, "lat": 60.9003375, "lon": 17.0277064, "tags": {"name": "Storvadsbro", "place": "hamlet"}}, {"type": "node", "id": 7466767646, "lat": 60.9263436, "lon": 17.0153498, "tags": {"name": "Berg", "place": "hamlet"}}, {"type": "node", "id": 7466783235, "lat": 60.9269164, "lon": 17.0589678, "tags": {"name": "H\u00e4ckels\u00e4ng", "place": "hamlet"}}, {"type": "node", "id": 7466797997, "lat": 60.8961727, "lon": 17.0590927, "tags": {"name": "L\u00f6tvallen", "place": "hamlet"}}, {"type": "node", "id": 7466805658, "lat": 61.0104423, "lon": 16.9795747, "tags": {"name": "H\u00f6gbacka", "place": "hamlet"}}, {"type": "node", "id": 7466807518, "lat": 61.022762, "lon": 16.865161, "tags": {"name": "Romsen", "place": "hamlet"}}, {"type": "node", "id": 7466809631, "lat": 60.956595, "lon": 16.8400713, "tags": {"name": "Karlsviken", "place": "hamlet"}}, {"type": "node", "id": 7466810179, "lat": 60.9818828, "lon": 17.1687107, "tags": {"name": "Hari", "place": "hamlet"}}, {"type": "node", "id": 7466814626, "lat": 60.9994489, "lon": 17.1401417, "tags": {"name": "Gr\u00e4svik", "place": "hamlet"}}, {"type": "node", "id": 7466823970, "lat": 61.0515053, "lon": 17.1153888, "tags": {"name": "\u00d6verhammaren", "place": "hamlet"}}, {"type": "node", "id": 7466823981, "lat": 61.0944516, "lon": 17.1753024, "tags": {"name": "Gran\u00f6n", "place": "hamlet"}}, {"type": "node", "id": 7466825239, "lat": 60.9630689, "lon": 16.9529015, "tags": {"name": "Skjortn\u00e4s", "place": "hamlet"}}, {"type": "node", "id": 7466827875, "lat": 60.9932251, "lon": 16.9940294, "tags": {"name": "Veda", "place": "hamlet"}}, {"type": "node", "id": 7466829217, "lat": 61.0539943, "lon": 16.9626094, "tags": {"name": "T\u00f6nnebro", "place": "hamlet"}}, {"type": "node", "id": 7466834755, "lat": 61.057674, "lon": 16.8647388, "tags": {"name": "Sm\u00e5str\u00f6mmarna", "place": "hamlet"}}, {"type": "node", "id": 7466847435, "lat": 61.0834268, "lon": 17.1305317, "tags": {"name": "Sillvik", "place": "hamlet"}}, {"type": "node", "id": 7467043274, "lat": 60.8277436, "lon": 17.2453931, "tags": {"name": "Silverb\u00e4ckarna", "place": "hamlet"}}, {"type": "node", "id": 7467051224, "lat": 60.8637292, "lon": 17.2477801, "tags": {"name": "S\u00e4ljemar", "place": "hamlet"}}, {"type": "node", "id": 7467733419, "lat": 60.8755375, "lon": 16.6888746, "tags": {"name": "B\u00f6lsbacken", "place": "hamlet"}}, {"type": "node", "id": 7467741717, "lat": 60.8589497, "lon": 16.7543816, "tags": {"name": "Gruvan", "place": "hamlet"}}, {"type": "node", "id": 7467758754, "lat": 60.919299, "lon": 16.619567, "tags": {"name": "Nordan\u00e5sbo", "place": "hamlet"}}, {"type": "node", "id": 7467764842, "lat": 60.8973739, "lon": 16.7436977, "tags": {"name": "Murg\u00e5rden", "place": "hamlet"}}, {"type": "node", "id": 7467766737, "lat": 60.9129528, "lon": 16.6358831, "tags": {"name": "Sunnan\u00e5sbo", "place": "hamlet"}}, {"type": "node", "id": 7467768482, "lat": 60.9071982, "lon": 16.7139667, "tags": {"name": "Byn", "place": "hamlet"}}, {"type": "node", "id": 7467772674, "lat": 60.9105378, "lon": 16.7452638, "tags": {"name": "\u00d6sterbacken", "place": "hamlet"}}, {"type": "node", "id": 7467788415, "lat": 60.8844908, "lon": 16.6871325, "tags": {"name": "B\u00f6le", "place": "hamlet"}}, {"type": "node", "id": 7467789147, "lat": 60.889956, "lon": 16.6886646, "tags": {"name": "\u00c5kerby", "place": "hamlet"}}, {"type": "node", "id": 7467790789, "lat": 60.8902893, "lon": 16.7437039, "tags": {"name": "\u00d6stby", "place": "hamlet"}}, {"type": "node", "id": 7467791631, "lat": 60.9200622, "lon": 16.6782321, "tags": {"name": "\u00c5krarna", "place": "hamlet"}}, {"type": "node", "id": 7467795218, "lat": 60.891084, "lon": 16.6555774, "tags": {"name": "Ulvsta", "place": "hamlet"}}, {"type": "node", "id": 7467795224, "lat": 60.9133975, "lon": 16.6509363, "tags": {"name": "\u00c5byggeby", "place": "hamlet"}}, {"type": "node", "id": 7467797149, "lat": 60.9029884, "lon": 16.6801803, "tags": {"name": "Vreten", "place": "hamlet"}}, {"type": "node", "id": 7467800328, "lat": 60.9389645, "lon": 16.6499895, "tags": {"name": "Tomtn\u00e4s", "place": "hamlet"}}, {"type": "node", "id": 7467806703, "lat": 60.9691528, "lon": 16.615782, "tags": {"name": "Svartsbo", "place": "hamlet"}}, {"type": "node", "id": 7467812869, "lat": 60.9320717, "lon": 16.545086, "tags": {"name": "Gnupen", "place": "hamlet"}}, {"type": "node", "id": 7467819130, "lat": 60.9289064, "lon": 16.6466439, "tags": {"name": "Bladmuren", "place": "hamlet"}}, {"type": "node", "id": 7467820296, "lat": 60.9278806, "lon": 16.6725999, "tags": {"name": "Sjulsbo", "place": "hamlet"}}, {"type": "node", "id": 7467823133, "lat": 60.9645855, "lon": 16.6388155, "tags": {"name": "L\u00e5ng\u00e4nget", "place": "hamlet"}}, {"type": "node", "id": 7467824353, "lat": 60.9399115, "lon": 16.6258849, "tags": {"name": "Norrbo", "place": "hamlet"}}, {"type": "node", "id": 7467842267, "lat": 60.9314232, "lon": 16.6923019, "tags": {"name": "Mo", "place": "hamlet"}}, {"type": "node", "id": 7467851125, "lat": 60.9639579, "lon": 16.7793871, "tags": {"name": "Storr\u00f6nningen", "place": "hamlet"}}, {"type": "node", "id": 7467855074, "lat": 60.9798733, "lon": 16.8084481, "tags": {"name": "Sk\u00e4rpan", "place": "hamlet"}}, {"type": "node", "id": 7467862034, "lat": 60.985017, "lon": 16.8214316, "tags": {"name": "F\u00e4bodarna", "place": "hamlet"}}, {"type": "node", "id": 7467864916, "lat": 61.0392256, "lon": 16.7420164, "tags": {"name": "\u00d6stervik", "place": "hamlet"}}, {"type": "node", "id": 7467865002, "lat": 60.9786433, "lon": 16.7925625, "tags": {"name": "M\u00f6rtebo", "place": "hamlet"}}, {"type": "node", "id": 7467874948, "lat": 60.9981544, "lon": 16.7449478, "tags": {"name": "Ekbo", "place": "hamlet"}}, {"type": "node", "id": 7467876210, "lat": 61.0325459, "lon": 16.7728844, "tags": {"name": "Klubb\u00e4cken", "place": "hamlet"}}, {"type": "node", "id": 7467878071, "lat": 61.0861733, "lon": 16.7905214, "tags": {"name": "V\u00e4stby", "place": "hamlet"}}, {"type": "node", "id": 7467882342, "lat": 61.0427418, "lon": 16.701218, "tags": {"name": "N\u00e4set", "place": "hamlet"}}, {"type": "node", "id": 7467882754, "lat": 61.0203702, "lon": 16.6967223, "tags": {"name": "Gr\u00f6nviken", "place": "hamlet"}}, {"type": "node", "id": 7467891246, "lat": 61.0552204, "lon": 16.6798082, "tags": {"name": "Sl\u00e5ttlandet", "place": "hamlet"}}, {"type": "node", "id": 7467898598, "lat": 61.1001423, "lon": 16.846924, "tags": {"name": "\u00c4lgn\u00e4s", "place": "hamlet"}}, {"type": "node", "id": 7467918128, "lat": 61.0887007, "lon": 16.8219347, "tags": {"name": "L\u00e5ngviken", "place": "hamlet"}}, {"type": "node", "id": 7467922898, "lat": 61.0819517, "lon": 16.8255911, "tags": {"name": "T\u00f6nnfors", "place": "hamlet"}}, {"type": "node", "id": 7467935585, "lat": 61.1097462, "lon": 16.724143, "tags": {"name": "L\u00e5ngberget", "place": "hamlet"}}, {"type": "node", "id": 7468155348, "lat": 61.2119497, "lon": 16.602079, "tags": {"name": "Svedja", "place": "hamlet"}}, {"type": "node", "id": 7468171847, "lat": 61.2389188, "lon": 16.5903681, "tags": {"name": "Ed", "place": "hamlet"}}, {"type": "node", "id": 7468173905, "lat": 61.2496196, "lon": 16.579632, "tags": {"name": "Innantj\u00e4ra", "place": "hamlet"}}, {"type": "node", "id": 7468183713, "lat": 61.1211414, "lon": 16.6687013, "tags": {"name": "Per-Ols", "place": "hamlet"}}, {"type": "node", "id": 7468206534, "lat": 61.098585, "lon": 16.6927089, "tags": {"name": "L\u00e5ngbo", "place": "hamlet"}}, {"type": "node", "id": 7468219898, "lat": 61.2083328, "lon": 16.5804432, "tags": {"name": "B\u00e4lse", "place": "hamlet"}}, {"type": "node", "id": 7468221967, "lat": 61.2129342, "lon": 16.548757, "tags": {"name": "Hallen", "place": "hamlet"}}, {"type": "node", "id": 7468230895, "lat": 61.1186625, "lon": 16.6591467, "tags": {"name": "Hemstan\u00e4s", "place": "hamlet"}}, {"type": "node", "id": 7468238328, "lat": 61.2106005, "lon": 16.6384748, "tags": {"name": "Lilltj\u00e4ra", "place": "hamlet"}}, {"type": "node", "id": 7469027864, "lat": 61.250711, "lon": 16.8633749, "tags": {"name": "Sunnan\u00e5", "place": "hamlet"}}, {"type": "node", "id": 7469029116, "lat": 61.1595936, "lon": 16.8123231, "tags": {"name": "Kallb\u00e4ck", "place": "hamlet"}}, {"type": "node", "id": 7469030101, "lat": 61.1748475, "lon": 16.7980896, "tags": {"name": "Strand", "place": "hamlet"}}, {"type": "node", "id": 7469030102, "lat": 61.1643914, "lon": 16.7959989, "tags": {"name": "Bodarna", "place": "hamlet"}}, {"type": "node", "id": 7469031440, "lat": 61.1203982, "lon": 16.7980899, "tags": {"name": "T\u00f6nn\u00e5nger", "place": "hamlet"}}, {"type": "node", "id": 7469031445, "lat": 61.1845465, "lon": 16.8345356, "tags": {"name": "Norrbo", "place": "hamlet"}}, {"type": "node", "id": 7469038397, "lat": 61.1532487, "lon": 16.8737443, "tags": {"name": "Bastn\u00e4s", "place": "hamlet"}}, {"type": "node", "id": 7469040433, "lat": 61.1333137, "lon": 16.9266412, "tags": {"name": "Sj\u00e4lstuga", "place": "hamlet"}}, {"type": "node", "id": 7469046867, "lat": 61.1633439, "lon": 16.8710767, "tags": {"name": "Nyg\u00e5rden", "place": "hamlet"}}, {"type": "node", "id": 7469046953, "lat": 61.1556066, "lon": 16.8376059, "tags": {"name": "L\u00f6ten", "place": "hamlet"}}, {"type": "node", "id": 7469053334, "lat": 61.2079914, "lon": 16.749122, "tags": {"name": "Hamn\u00e4s", "place": "hamlet"}}, {"type": "node", "id": 7469056239, "lat": 61.2336009, "lon": 16.829736, "tags": {"name": "Verkmyra", "place": "hamlet"}}, {"type": "node", "id": 7469056785, "lat": 61.1314537, "lon": 16.7369584, "tags": {"name": "H\u00e4rnebo", "place": "hamlet"}}, {"type": "node", "id": 7469059070, "lat": 61.177769, "lon": 16.8430137, "tags": {"name": "B\u00f6le", "place": "hamlet"}}, {"type": "node", "id": 7469062188, "lat": 61.2198524, "lon": 16.7206205, "tags": {"name": "Smedboningarna", "place": "hamlet"}}, {"type": "node", "id": 7469062344, "lat": 61.2488338, "lon": 16.6310083, "tags": {"name": "Hullsta", "place": "hamlet"}}, {"type": "node", "id": 7469066093, "lat": 61.1834923, "lon": 16.8550626, "tags": {"name": "L\u00f6vtj\u00e4ra", "place": "hamlet"}}, {"type": "node", "id": 7469096088, "lat": 61.2503034, "lon": 16.8242104, "tags": {"name": "Lyn\u00e4s", "place": "hamlet"}}, {"type": "node", "id": 7469110269, "lat": 61.2377905, "lon": 16.8607803, "tags": {"name": "D\u00e5bo", "place": "hamlet"}}, {"type": "node", "id": 7469119682, "lat": 61.2118921, "lon": 16.6558874, "tags": {"name": "Gusbo", "place": "hamlet"}}, {"type": "node", "id": 7469127634, "lat": 61.2401618, "lon": 16.7912061, "tags": {"name": "Lyn\u00e4s", "place": "hamlet"}}, {"type": "node", "id": 7469194371, "lat": 61.2333266, "lon": 16.8850605, "tags": {"name": "Eds\u00e4ng", "place": "hamlet"}}, {"type": "node", "id": 7469209823, "lat": 61.2134134, "lon": 17.0056141, "tags": {"name": "H\u00e5", "place": "hamlet"}}, {"type": "node", "id": 7469218249, "lat": 61.2198684, "lon": 16.6525429, "tags": {"name": "Valls\u00e4nge", "place": "hamlet"}}, {"type": "node", "id": 7469280486, "lat": 61.2559467, "lon": 16.7820909, "tags": {"name": "Pell-Pers", "place": "hamlet"}}, {"type": "node", "id": 7469321016, "lat": 61.1073346, "lon": 17.1067902, "tags": {"name": "Sunn\u00e4sbruk", "place": "hamlet"}}, {"type": "node", "id": 7469333725, "lat": 61.2196081, "lon": 17.1919734, "tags": {"name": "L\u00f6vsk\u00e4r", "place": "hamlet"}}, {"type": "node", "id": 7469337194, "lat": 61.2353793, "lon": 17.0427757, "tags": {"name": "Renskalla", "place": "hamlet"}}, {"type": "node", "id": 7469338426, "lat": 61.2410479, "lon": 17.0345853, "tags": {"name": "H\u00f6ljebro", "place": "hamlet"}}, {"type": "node", "id": 7469339532, "lat": 61.2437377, "lon": 17.148539, "tags": {"name": "Gammels\u00e5gen", "place": "hamlet"}}, {"type": "node", "id": 7469503482, "lat": 61.2609393, "lon": 16.6569998, "tags": {"name": "G\u00e4versta", "place": "hamlet"}}, {"type": "node", "id": 7469516376, "lat": 61.2623111, "lon": 16.5666382, "tags": {"name": "Rotemo", "place": "hamlet"}}]}