{"version": 0.6, "generator": "Overpass API 0.7.61.5 4133829e", "osm3s": {"timestamp_osm_base": "2024-03-05T14:58:45Z", "copyright": "The data included in this document is from www.openstreetmap.org. The data is made available under ODbL."}, "elements": [{"type": "node", "id": 252725781, "lat": 55.7312429, "lon": 12.4388756}, {"type": "node", "id": 279090264, "lat": 55.6467852, "lon": 12.4625982}, {"type": "node", "id": 279090265, "lat": 55.6480581, "lon": 12.4721583}, {"type": "node", "id": 279090266, "lat": 55.6508314, "lon": 12.4709838}, {"type": "node", "id": 279090267, "lat": 55.6505632, "lon": 12.4690424}, {"type": "node", "id": 279090268, "lat": 55.650321, "lon": 12.4682356}, {"type": "node", "id": 279090270, "lat": 55.649481, "lon": 12.4640567}, {"type": "node", "id": 279090272, "lat": 55.6491926, "lon": 12.4628111}, {"type": "node", "id": 279090273, "lat": 55.6489214, "lon": 12.4617409}, {"type": "node", "id": 282970923, "lat": 55.7309565, "lon": 12.4461791}, {"type": "node", "id": 282970924, "lat": 55.7311385, "lon": 12.4397042}, {"type": "node", "id": 282970925, "lat": 55.7311357, "lon": 12.4394832}, {"type": "node", "id": 282971140, "lat": 55.7334601, "lon": 12.4395205}, {"type": "node", "id": 282971142, "lat": 55.733469, "lon": 12.4385903}, {"type": "node", "id": 282971144, "lat": 55.7332583, "lon": 12.43826}, {"type": "node", "id": 282971146, "lat": 55.7323584, "lon": 12.4382486}, {"type": "node", "id": 288932319, "lat": 55.9297632, "lon": 12.326528}, {"type": "node", "id": 356013687, "lat": 55.9324419, "lon": 12.3299565}, {"type": "node", "id": 470343454, "lat": 55.7615701, "lon": 12.4525068, "tags": {"amenity": "pharmacy", "check_date": "2021-11-01", "fvst:navnelbnr": "96339", "name": "Bagsv\u00e6rd Apotek", "opening_hours": "Mo-Th 09:00-17:30; Fr 09:00-18:00; Sa 09:30-13:30", "ref:DK:cvr": "31230918", "wheelchair": "limited"}}, {"type": "node", "id": 529742378, "lat": 55.8118879, "lon": 12.4716582, "tags": {"amenity": "pharmacy", "dispensing": "yes", "drive_through": "yes", "email": "holte@apotekeren.dk", "healthcare": "pharmacy", "name": "Holte Apotek", "opening_hours": "Mo-Fr 09:30-18:00; Sa 09:00-15:00", "payment:cash": "yes", "payment:credit_cards": "yes", "phone": "+45 45420076", "website": "https://www.holte-apotek.dk/"}}, {"type": "node", "id": 549756238, "lat": 55.7241564, "lon": 12.4388846, "tags": {"amenity": "pharmacy", "dispensing": "yes", "fvst:navnelbnr": "121626", "name": "Herlev Apotek", "ref:DK:cvr": "32912842", "wheelchair": "yes", "wheelchair:description": "no toilet"}}, {"type": "node", "id": 600572503, "lat": 55.7428845, "lon": 12.4233675, "tags": {"amenity": "pharmacy", "fvst:name": "Herlev Apoteksudsalg", "fvst:navnelbnr": "95136", "name": "Hjortespring", "operator": "Herlev Apotek", "ref:DK:cvr": "32912842", "ref:DK:cvr:pnummer": "1016158778", "website": "https://www.herlev-apotek.dk/kontakt"}}, {"type": "node", "id": 1308973269, "lat": 55.8625665, "lon": 12.3365259}, {"type": "node", "id": 1308973271, "lat": 55.8628662, "lon": 12.3364379}, {"type": "node", "id": 1308973286, "lat": 55.8630168, "lon": 12.3368613}, {"type": "node", "id": 1308973339, "lat": 55.863088, "lon": 12.3370607}, {"type": "node", "id": 1588948081, "lat": 55.7313547, "lon": 12.4385967}, {"type": "node", "id": 1588948090, "lat": 55.7316711, "lon": 12.4382667}, {"type": "node", "id": 1588948113, "lat": 55.7341848, "lon": 12.4395488}, {"type": "node", "id": 1591001117, "lat": 55.7318365, "lon": 12.4382399}, {"type": "node", "id": 1606918981, "lat": 55.9320566, "lon": 12.3233853}, {"type": "node", "id": 1609207527, "lat": 55.9297003, "lon": 12.3101144, "tags": {"amenity": "doctors"}}, {"type": "node", "id": 1612941388, "lat": 55.8710935, "lon": 12.3557789, "tags": {"amenity": "pharmacy", "dispensing": "yes", "fvst:navnelbnr": "699654", "healthcare": "pharmacy", "name": "Aller\u00f8d Apotek", "payment:cash": "yes", "payment:credit_cards": "yes", "phone": "+45 48172585", "ref:DK:cvr": "31227305", "website": "https://www.aller\u00f8dapotek.dk/"}}, {"type": "node", "id": 1673766157, "lat": 55.8386227, "lon": 12.4317118, "tags": {"amenity": "pharmacy", "check_date": "2023-07-12", "fvst:navnelbnr": "558689", "healthcare": "pharmacy", "name": "Birker\u00f8d Apotek", "ref:DK:cvr": "31227305"}}, {"type": "node", "id": 1920840922, "lat": 55.9304336, "lon": 12.2998563, "tags": {"alt_name": "Hiller\u00f8d Frederiksborg Apotek", "amenity": "pharmacy", "fvst:navnelbnr": "1218919", "healthcare": "pharmacy", "name": "Frederiksborg Apotek", "ref:DK:cvr": "40649824", "ref:DK:cvr:pnummer": "1028058582", "wheelchair": "yes"}}, {"type": "node", "id": 1960910899, "lat": 55.9310123, "lon": 12.3243049}, {"type": "node", "id": 2325440580, "lat": 55.8624435, "lon": 12.3367952}, {"type": "node", "id": 2325440581, "lat": 55.8626215, "lon": 12.3374275}, {"type": "node", "id": 2401621429, "lat": 55.9301199, "lon": 12.3044219, "tags": {"alt_name": "Hiller\u00f8d Krone Apotek", "amenity": "pharmacy", "fvst:navnelbnr": "921574", "healthcare": "pharmacy", "name": "Krone Apotek", "opening_hours": "Mo-Th 09:00-17:30; Fr 09:00-18:00; Sa 09:00-14:00", "ref:DK:cvr": "40649824", "ref:DK:cvr:pnummer": "1024867826", "website": "https://hilleroedkrone.apotekeren.dk/"}}, {"type": "node", "id": 2506312752, "lat": 55.6634521, "lon": 12.4572902, "tags": {"amenity": "doctors", "healthcare": "doctor", "name": "L\u00e6ge J\u00f8rgen Rem", "phone": "+45 36 75 91 35", "source": "http://www.laegerem.dk", "website": "http://www.laegerem.dk"}}, {"type": "node", "id": 2538078198, "lat": 55.9297126, "lon": 12.3286721, "tags": {"amenity": "clinic", "name": "Psykiatrisk ambulatorium"}}, {"type": "node", "id": 2554218673, "lat": 55.929884, "lon": 12.328904, "tags": {"amenity": "hospital", "emergency": "yes", "name": "Psykiatrisk akutmodtagelse"}}, {"type": "node", "id": 2555458683, "lat": 55.7281943, "lon": 12.4395922}, {"type": "node", "id": 2555458684, "lat": 55.7292331, "lon": 12.4435962}, {"type": "node", "id": 2555458686, "lat": 55.7283895, "lon": 12.4429659}, {"type": "node", "id": 2555458689, "lat": 55.7287059, "lon": 12.4432703}, {"type": "node", "id": 2555458691, "lat": 55.7276339, "lon": 12.4414351}, {"type": "node", "id": 2555458692, "lat": 55.7275393, "lon": 12.4417621}, {"type": "node", "id": 2555458693, "lat": 55.727476, "lon": 12.4422673}, {"type": "node", "id": 2555467859, "lat": 55.7325929, "lon": 12.4459248}, {"type": "node", "id": 2555467863, "lat": 55.7343761, "lon": 12.4428327}, {"type": "node", "id": 2555467864, "lat": 55.7323029, "lon": 12.4461126}, {"type": "node", "id": 2555467866, "lat": 55.7341928, "lon": 12.4423529}, {"type": "node", "id": 2555467867, "lat": 55.7328978, "lon": 12.4455032}, {"type": "node", "id": 2555467868, "lat": 55.7338341, "lon": 12.4448112}, {"type": "node", "id": 2555467869, "lat": 55.7333871, "lon": 12.4453637}, {"type": "node", "id": 2555467870, "lat": 55.7342313, "lon": 12.4396499}, {"type": "node", "id": 2555467871, "lat": 55.7343618, "lon": 12.4433423}, {"type": "node", "id": 2555467872, "lat": 55.7339729, "lon": 12.4449677}, {"type": "node", "id": 2555467873, "lat": 55.7330458, "lon": 12.4453852}, {"type": "node", "id": 2555467874, "lat": 55.7342667, "lon": 12.4440557}, {"type": "node", "id": 2555467875, "lat": 55.7341436, "lon": 12.4445265}, {"type": "node", "id": 2555467876, "lat": 55.7343263, "lon": 12.4437325}, {"type": "node", "id": 2555467877, "lat": 55.7318799, "lon": 12.446163}, {"type": "node", "id": 2555467878, "lat": 55.7329854, "lon": 12.4454281}, {"type": "node", "id": 2555467879, "lat": 55.7333576, "lon": 12.4383063}, {"type": "node", "id": 2555467880, "lat": 55.7335292, "lon": 12.4453294}, {"type": "node", "id": 2713621508, "lat": 55.9290151, "lon": 12.3307344}, {"type": "node", "id": 2713621513, "lat": 55.9285466, "lon": 12.3305639}, {"type": "node", "id": 2713621524, "lat": 55.9302154, "lon": 12.3304499}, {"type": "node", "id": 2713621545, "lat": 55.9305044, "lon": 12.3290012}, {"type": "node", "id": 2713621548, "lat": 55.9305153, "lon": 12.3297892}, {"type": "node", "id": 2713621550, "lat": 55.9305357, "lon": 12.3280428}, {"type": "node", "id": 2713621552, "lat": 55.9305541, "lon": 12.3304522}, {"type": "node", "id": 2713621554, "lat": 55.9305905, "lon": 12.3274756}, {"type": "node", "id": 2713621556, "lat": 55.9311993, "lon": 12.3230106}, {"type": "node", "id": 2713621570, "lat": 55.933264, "lon": 12.3239131}, {"type": "node", "id": 3202788621, "lat": 55.8625641, "lon": 12.3365452}, {"type": "node", "id": 3202788622, "lat": 55.8625124, "lon": 12.3366058}, {"type": "node", "id": 3202788623, "lat": 55.8625416, "lon": 12.3367015}, {"type": "node", "id": 3268505550, "lat": 55.6801304, "lon": 12.4556313, "tags": {"amenity": "pharmacy", "fvst:navnelbnr": "109722", "name": "R\u00f8dovre Apotek", "ref:DK:cvr": "29541795", "wheelchair": "yes"}}, {"type": "node", "id": 3334575881, "lat": 55.8626358, "lon": 12.337472}, {"type": "node", "id": 3334576194, "lat": 55.8628593, "lon": 12.3372643}, {"type": "node", "id": 3488518171, "lat": 55.8146642, "lon": 12.3818516, "tags": {"amenity": "pharmacy", "check_date": "2024-02-13", "dispensing": "yes", "fvst:navnelbnr": "706078", "healthcare": "pharmacy", "name": "Farum Apotek", "ref:DK:cvr": "36128763"}}, {"type": "node", "id": 3725667182, "lat": 55.9305307, "lon": 12.3281776}, {"type": "node", "id": 3802593293, "lat": 55.93351, "lon": 12.317, "tags": {"amenity": "clinic", "healthcare": "clinic", "name": "Nordsj\u00e6llands Misbrugscenter", "website": "https://www.densocialevirksomhed.dk/nordsjaellandsmisbrugscenter"}}, {"type": "node", "id": 4036067081, "lat": 55.7311863, "lon": 12.4391411}, {"type": "node", "id": 4036067082, "lat": 55.7314838, "lon": 12.4383915}, {"type": "node", "id": 4036067088, "lat": 55.7334279, "lon": 12.438419}, {"type": "node", "id": 4175998538, "lat": 55.7953101, "lon": 12.4729392, "tags": {"amenity": "pharmacy", "healthcare": "pharmacy", "name": "Virum Apotek", "opening_hours": "Mo-Th 09:00-17:30;Fr 09:00-18:00;Sa 09:30-13:30"}}, {"type": "node", "id": 4436827669, "lat": 55.740302, "lon": 12.4334204, "tags": {"amenity": "clinic", "fvst:navnelbnr": "91698", "name": "L\u00e6rkeg\u00e5rd Center", "ref:DK:cvr": "63640719", "ref:DK:cvr:pnummer": "1003981332"}}, {"type": "node", "id": 4521017839, "lat": 55.7343541, "lon": 12.442367}, {"type": "node", "id": 4581580113, "lat": 55.933476, "lon": 12.317002, "tags": {"amenity": "clinic", "fvst:navnelbnr": "95632", "healthcare": "clinic", "name": "Nordsj\u00e6llands Misbrugcenter", "ref:DK:cvr": "29190623", "ref:DK:cvr:pnummer": "1003275320"}}, {"type": "node", "id": 4730889201, "lat": 55.6800558, "lon": 12.4570196, "tags": {"amenity": "clinic", "fvst:navnelbnr": "911913", "name": "Mit L\u00e6gehus R\u00f8dovre", "ref:DK:cvr": "33514239", "ref:DK:cvr:pnummer": "1016713240"}}, {"type": "node", "id": 4842387610, "lat": 55.6795331, "lon": 12.4574692, "tags": {"amenity": "clinic", "health_facility:type": "medical_clinic", "health_speciality": "ophthalmology", "level": "1", "name": "Copenhagen Eye Clinic", "phone": "+45 70254004", "website": "http://c-eye.dk/"}}, {"type": "node", "id": 4885708839, "lat": 55.6719386, "lon": 12.4632303, "tags": {"amenity": "clinic", "healthcare": "clinic", "name": "Speciall\u00e6geklinikken Centralen", "source": "Kaart Ground Survey 2017"}}, {"type": "node", "id": 4885773782, "lat": 55.7119667, "lon": 12.4726808, "tags": {"amenity": "pharmacy", "fvst:navnelbnr": "112491", "healthcare": "pharmacy", "name": "Husum Apotek", "ref:DK:cvr": "29102252", "source": "Kaart Ground Survey 2017"}}, {"type": "node", "id": 5744177620, "lat": 55.8612376, "lon": 12.3432961, "tags": {"amenity": "doctors", "email": "lisesklinik@gmail.com", "healthcare": "doctor", "name": "L\u00e6ge Lise Svendsen og Hans Haneh\u00f8", "phone": "+45 25 94 01 00", "source": "local knowledge", "website": "http://www.xn--lgelisesvendsen-xlb.dk/"}}, {"type": "node", "id": 6158183386, "lat": 55.8708683, "lon": 12.3487999, "tags": {"amenity": "doctors", "healthcare": "doctor", "healthcare:speciality": "general", "name": "Frederiksborgvej L\u00e6gerne", "opening_hours": "Mo-Fr 08:00-16:00", "phone": "+45 48172090", "website": "https://pboks.dk/frederiksborgvejlaegerne/"}}, {"type": "node", "id": 6269225068, "lat": 55.7316899, "lon": 12.4461616}, {"type": "node", "id": 6305200679, "lat": 55.8681864, "lon": 12.3483542}, {"type": "node", "id": 6305200906, "lat": 55.8680091, "lon": 12.3482494}, {"type": "node", "id": 6305202957, "lat": 55.8680291, "lon": 12.3484143}, {"type": "node", "id": 6305203324, "lat": 55.8680565, "lon": 12.3482314}, {"type": "node", "id": 6305205509, "lat": 55.8681897, "lon": 12.348302}, {"type": "node", "id": 6305207856, "lat": 55.8681805, "lon": 12.3483055}, {"type": "node", "id": 6305208943, "lat": 55.8681687, "lon": 12.3481274}, {"type": "node", "id": 6305213068, "lat": 55.8680494, "lon": 12.3481729}, {"type": "node", "id": 6434723810, "lat": 55.8405219, "lon": 12.4317258, "tags": {"amenity": "doctors", "healthcare": "doctor", "name": "Birker\u00f8d Gyn\u00e6kologiske Klinik", "website": "https://www.majklinik.dk/?id=1"}}, {"type": "node", "id": 6434723811, "lat": 55.8404942, "lon": 12.4317305, "tags": {"amenity": "doctors", "healthcare": "doctor", "name": "\u00d8re, n\u00e6se, halsklinikken Birker\u00f8d", "website": "http://www.xn--rensehalsklinikkenbirkerd-4fc69bza.dk/"}}, {"type": "node", "id": 6466472150, "lat": 55.8432546, "lon": 12.432615, "tags": {"amenity": "doctors", "healthcare": "doctor", "name": "L\u00e6gerne Dupont og Johansen"}}, {"type": "node", "id": 6466472151, "lat": 55.8432147, "lon": 12.4327398, "tags": {"amenity": "doctors", "healthcare": "doctor", "name": "L\u00e6ge Peter S\u00f8ndergaard"}}, {"type": "node", "id": 6466472152, "lat": 55.8431002, "lon": 12.4325909, "tags": {"amenity": "doctors", "healthcare": "doctor", "name": "L\u00e6ge Jan Andersen"}}, {"type": "node", "id": 6466472153, "lat": 55.8431605, "lon": 12.4338046, "tags": {"amenity": "doctors", "healthcare": "doctor", "name": "L\u00e6gerne S\u00f8rensen og Sachs"}}, {"type": "node", "id": 6466472154, "lat": 55.8430822, "lon": 12.4341694, "tags": {"amenity": "doctors", "healthcare": "doctor", "name": "Psykiater Preben Freitag"}}, {"type": "node", "id": 6466472156, "lat": 55.8441815, "lon": 12.4351377, "tags": {"amenity": "doctors", "healthcare": "doctor", "name": "Klinik for Fodterapi"}}, {"type": "node", "id": 6466472157, "lat": 55.8420151, "lon": 12.4329767, "tags": {"amenity": "doctors", "healthcare": "doctor", "name": "L\u00e6ge Anders Peter Winther"}}, {"type": "node", "id": 6466472158, "lat": 55.842078, "lon": 12.4331145, "tags": {"amenity": "doctors", "healthcare": "doctor", "name": "L\u00e6gerne Jakob Vammen & Mikkel Vammen"}}, {"type": "node", "id": 6466472159, "lat": 55.8418787, "lon": 12.4325471, "tags": {"amenity": "doctors", "healthcare": "doctor", "name": "L\u00e6gerne Mygind \u00d8gaard og J\u00f8rgensen"}}, {"type": "node", "id": 6466472160, "lat": 55.8407564, "lon": 12.4315383, "tags": {"amenity": "doctors", "healthcare": "doctor", "name": "L\u00e6ge Lars Ditlev Andersen"}}, {"type": "node", "id": 6466472161, "lat": 55.8404614, "lon": 12.4317345, "tags": {"amenity": "doctors", "healthcare": "doctor", "name": "L\u00e6ge Jesper Stjernholm Micheelsen"}}, {"type": "node", "id": 6466472163, "lat": 55.8408757, "lon": 12.4304993, "tags": {"amenity": "doctors", "healthcare": "doctor", "name": "L\u00e6ge Susanne Garne"}}, {"type": "node", "id": 6943265448, "lat": 55.9787899, "lon": 12.3988357, "tags": {"amenity": "clinic", "fax": "+45 48484002", "healthcare": "clinic", "name": "Fredensborg Sundhedscenter", "phone": "+45 4848 0276", "website": "https://fredensborgsundhedscenter.dk/"}}, {"type": "node", "id": 7117870639, "lat": 55.8682688, "lon": 12.351258, "tags": {"amenity": "clinic", "email": "organicskin3450@hotmail.com", "healthcare": "clinic", "level": "1", "name": "Organic Skin", "phone": "+45 23 23 20 47"}}, {"type": "node", "id": 7508184178, "lat": 55.7279408, "lon": 12.4405682}, {"type": "node", "id": 7508184182, "lat": 55.7291567, "lon": 12.4436259}, {"type": "node", "id": 7508184184, "lat": 55.7301195, "lon": 12.44479}, {"type": "node", "id": 8623072284, "lat": 55.8170691, "lon": 12.3769157, "tags": {"amenity": "clinic", "healthcare": "clinic", "name": "Sygeplejeklinikken"}}, {"type": "node", "id": 8756871292, "lat": 55.6958846, "lon": 12.4586476, "tags": {"amenity": "pharmacy", "fvst:navnelbnr": "736314", "name": "Islev Apotek", "opening_hours": "09:30-17:30; Sa 09:15-13:45; Su off; PH off", "phone": "+45 36704781", "ref:DK:cvr": "29541795", "ref:DK:cvr:pnummer": "1023303155", "website": "https://www.apoteket.dk/apoteker/roedovre-apotek/islev-apotek"}}, {"type": "node", "id": 9041616213, "lat": 55.6267717, "lon": 12.484625, "tags": {"amenity": "pharmacy", "fvst:navnelbnr": "789452", "name": "Friheden Apotek", "ref:DK:cvr": "26456487", "ref:DK:cvr:pnummer": "1021509279"}}, {"type": "node", "id": 9051008845, "lat": 55.6535967, "lon": 12.4740228, "tags": {"amenity": "pharmacy", "drive_through": "no", "fvst:fixme": "fvst:no_pos", "fvst:navnelbnr": "1277872", "healthcare": "pharmacy", "name": "Hvidovre Apotek", "opening_hours": "Mo,We,Th 09:00-17:30; Tu,Fr 08:45-17:30; Sa 09:00-13:00; PH,Su off", "ref:DK:cvr": "41061324", "ref:DK:cvr:pnummer": "1028961193", "website": "https://www.apoteket.dk/apoteker/hvidovre-apotek"}}, {"type": "node", "id": 9072338881, "lat": 55.663633, "lon": 12.4746755, "tags": {"amenity": "pharmacy", "fvst:navnelbnr": "670148", "name": "Hvidovre Stationsapotek", "operator": "Friheden Apotek", "phone": "+45 36784433", "ref:DK:cvr": "26456487", "ref:DK:cvr:pnummer": "1021739347", "website": "https://www.apoteket.dk/apoteker/friheden-apotek/hvidovre-stationsapotek"}}, {"type": "node", "id": 9159435752, "lat": 55.710524, "lon": 12.4780841, "tags": {"amenity": "pharmacy", "fvst:navnelbnr": "915541", "name": "Husum Bypark Apotek", "ref:DK:cvr": "32038506", "ref:DK:cvr:pnummer": "1022535745"}}, {"type": "node", "id": 9217106971, "lat": 55.7604495, "lon": 12.4560647, "tags": {"amenity": "pharmacy", "name": "Bagsv\u00e6rd Svale Apotek", "ref:DK:cvr": "39567644", "website": "https://www.apoteket.dk/apoteker/skovlunde-apotek/bagsvaerd-svale-apotek"}}, {"type": "node", "id": 9416764430, "lat": 55.930911, "lon": 12.3344704, "tags": {"amenity": "pharmacy", "fvst:navnelbnr": "921605", "healthcare": "pharmacy", "name": "Apoteksudsalg \u00d8st Hiller\u00f8d Krone Apotek", "ref:DK:cvr": "40649824", "ref:DK:cvr:pnummer": "1024877627"}}, {"type": "node", "id": 10301012112, "lat": 55.9333252, "lon": 12.3138263, "tags": {"amenity": "doctors", "name": "L\u00e6gehuset K\u00f8benhavnsvej", "phone": "+45 32224340", "website": "https://xn--lgehusetkbenhavnsvej-i0b81b.dk/"}}, {"type": "node", "id": 10301012113, "lat": 55.9358461, "lon": 12.2947513, "tags": {"amenity": "doctors", "name": "L\u00e6gerne Frederiksv\u00e6rksgade", "phone": "+45 48267999", "website": "https://www.48267999.dk/"}}, {"type": "node", "id": 11119159881, "lat": 55.7271743, "lon": 12.4754101, "tags": {"amenity": "hospital", "branch": "K\u00f8benhavn", "brand": "Aleris", "emergency": "no", "healthcare": "hospital", "name": "Aleris K\u00f8benhavn", "operator": "Aleris", "operator:type": "private", "phone": "+45 38170700", "website": "https://www.aleris.dk/her-finder-du-os/kobenhavn/aleris-kobenhavn/"}}, {"type": "node", "id": 11230095457, "lat": 55.7234993, "lon": 12.4408707, "tags": {"alt_name": "Apotek Herlev Ugle", "amenity": "pharmacy", "amenity:2023-": "pharmacy", "fvst:navnelbnr": "957303", "level": "0", "name": "Apotek Ugle", "name:2023-": "Apotek Ugle", "note": "Ugle apotek is first occupant of this shop space after major mall enlargemet in 2023 . This is within the old enlarged supermarket area", "ref:DK:cvr": "32164889", "ref:DK:cvr:pnummer": "1015330593"}}, {"type": "node", "id": 11530605949, "lat": 55.7582392, "lon": 12.4494254, "tags": {"amenity": "hospital", "healthcare": "hospital", "healthcare:speciality": "general", "name": "L\u00e6gerne Bagsv\u00e6rd Nord"}}, {"type": "node", "id": 11554192140, "lat": 55.9305504, "lon": 12.3268335}, {"type": "node", "id": 11554192141, "lat": 55.9303039, "lon": 12.3290789}, {"type": "node", "id": 11554192142, "lat": 55.9291299, "lon": 12.3276817}, {"type": "way", "id": 25605254, "nodes": [279090264, 279090265, 279090266, 279090267, 279090268, 279090270, 279090272, 279090273, 279090264], "tags": {"amenity": "hospital", "emergency": "yes", "healthcare": "hospital", "name": "Hvidovre Hospital", "wheelchair": "yes", "wikidata": "Q3374772", "wikipedia": "da:Hvidovre Hospital"}}, {"type": "way", "id": 110552653, "nodes": [11554192140, 288932319, 11554192142, 2713621513, 2713621508, 2713621524, 11554192141, 11554192140], "tags": {"amenity": "hospital", "name": "Psykiatrisk Center Nordsj\u00e6lland - Afdeling Hiller\u00f8d", "wheelchair": "yes"}}, {"type": "way", "id": 248662608, "nodes": [2713621556, 1606918981, 2713621570, 356013687, 2713621552, 2713621548, 2713621545, 3725667182, 2713621550, 2713621554, 1960910899, 2713621556], "tags": {"amenity": "hospital", "emergency": "yes", "healthcare": "hospital", "name": "Hiller\u00f8d Hospital", "operator": "Nordsj\u00e6llands Hospital", "website": "https://www.nordsjaellandshospital.dk/", "wheelchair": "yes", "wikidata": "Q63057948", "wikipedia": "da:Hiller\u00f8d Hospital"}}, {"type": "way", "id": 248811583, "nodes": [1588948113, 2555467870, 2555467866, 4521017839, 2555467863, 2555467871, 2555467876, 2555467874, 2555467875, 2555467872, 2555467868, 2555467880, 2555467869, 2555467873, 2555467878, 2555467867, 2555467859, 2555467864, 2555467877, 6269225068, 282970923, 7508184184, 2555458684, 7508184182, 2555458689, 2555458686, 2555458693, 2555458692, 2555458691, 7508184178, 2555458683, 282970924, 282970925, 4036067081, 252725781, 1588948081, 4036067082, 1588948090, 1591001117, 282971146, 282971144, 2555467879, 4036067088, 282971142, 282971140, 1588948113], "tags": {"amenity": "hospital", "emergency": "yes", "healthcare": "hospital", "name": "Herlev Hospital", "name:etymology:wikidata": "Q3646715", "old_name": "Herlev Sygehus", "operator": "Region Hovedstaden", "website": "https://www.herlevhospital.dk/", "wheelchair": "yes", "wikidata": "Q3375948", "wikipedia": "da:Herlev Hospital"}}, {"type": "way", "id": 673287608, "nodes": [6305208943, 6305205509, 6305207856, 6305200679, 6305202957, 6305200906, 6305203324, 6305213068, 6305208943], "tags": {"amenity": "doctors", "building": "yes", "healthcare": "doctor", "name": "L\u00e6ge Mikkel Granlien", "phone": "+45 48170100"}}, {"type": "way", "id": 927122780, "nodes": [3334575881, 2325440581, 2325440580, 3202788623, 3202788622, 3202788621, 1308973269, 1308973271, 1308973286, 1308973339, 3334576194, 3334575881], "tags": {"amenity": "doctors", "healthcare": "doctor", "healthcare:speciality": "general;clinic", "name": "L\u00e6gerne p\u00e5 Tingvej", "opening_hours": "Mo-Tu 08:00-16:00; We 08:00-17:00; Fr 08:00-16:00", "phone": "+45 48 17 26 23", "website": "https://www.tingvej.dk/"}}]}