{"version": 0.6, "generator": "Overpass API 0.7.61.5 4133829e", "osm3s": {"timestamp_osm_base": "2024-03-05T11:24:46Z", "copyright": "The data included in this document is from www.openstreetmap.org. The data is made available under ODbL."}, "elements": [{"type": "node", "id": 892383029, "lat": 6.6085804, "lon": 0.8720741, "tags": {"name": "Agobaba", "place": "village"}}, {"type": "node", "id": 892383036, "lat": 6.5137381, "lon": 0.8931333, "tags": {"name": "Alassin-Kope", "place": "village"}}, {"type": "node", "id": 892383090, "lat": 6.5361613, "lon": 0.8857538, "tags": {"name": "Atse-Kope", "place": "village"}}, {"type": "node", "id": 1919272641, "lat": 6.3643787, "lon": 1.1571956, "tags": {"name": "Assom\u00e9", "name:ru": "\u0410\u0441\u043e\u043c\u0435", "place": "village"}}, {"type": "node", "id": 1935829699, "lat": 6.5389968, "lon": 1.139188, "tags": {"name": "Dono", "place": "village"}}, {"type": "node", "id": 1936242965, "lat": 6.430292, "lon": 0.930962, "tags": {"admin_level": "6", "is_in:country": "Togo", "is_in:county": "Av\u00e9", "is_in:state": "Region Maritime", "name": "K\u00e9v\u00e9", "name:hu": "Keve", "name:ru": "\u041a\u0435\u0432\u0435", "place": "village", "population": "4500", "source:population": "Approximated from numbers in Direction G\u00e9n\u00e9rale de la Statistique et de la Comptabilit\u00e9 Nationale, R\u00e9publique Togolaise 2010 (web)", "wikidata": "Q3201171"}}, {"type": "node", "id": 1936266504, "lat": 6.4546171, "lon": 0.9096065, "tags": {"name": "Assahoun", "name:ru": "\u0410\u0441\u0430\u0445\u0443\u043d", "place": "village"}}, {"type": "node", "id": 1936266540, "lat": 6.4825246, "lon": 1.0110312, "tags": {"name": "Yomechin", "place": "village"}}, {"type": "node", "id": 1936266541, "lat": 6.448269, "lon": 0.9812537, "tags": {"name": "Zogb\u00e9pim\u00e9", "place": "village"}}, {"type": "node", "id": 1967828478, "lat": 6.3637787, "lon": 0.9165112, "tags": {"name": "Batoum\u00e9", "place": "village"}}, {"type": "node", "id": 1967828643, "lat": 6.3756189, "lon": 0.8910498, "tags": {"name": "Zolo", "place": "village"}}, {"type": "node", "id": 2163283338, "lat": 6.5573135, "lon": 0.908291, "tags": {"place": "hamlet"}}, {"type": "node", "id": 2163283358, "lat": 6.5672811, "lon": 0.8813758, "tags": {"place": "hamlet"}}, {"type": "node", "id": 2163283361, "lat": 6.569418, "lon": 0.9206006, "tags": {"place": "hamlet"}}, {"type": "node", "id": 2163283391, "lat": 6.6020101, "lon": 0.8894636, "tags": {"place": "hamlet"}}, {"type": "node", "id": 2163283397, "lat": 6.6071505, "lon": 0.8962473, "tags": {"place": "hamlet"}}, {"type": "node", "id": 2163283407, "lat": 6.6147962, "lon": 0.8945079, "tags": {"place": "hamlet"}}, {"type": "node", "id": 2163283413, "lat": 6.6166104, "lon": 0.9198162, "tags": {"name": "H\u00e9kp\u00e9", "place": "village"}}, {"type": "node", "id": 2163283426, "lat": 6.6236512, "lon": 0.8894201, "tags": {"place": "hamlet"}}, {"type": "node", "id": 2163283434, "lat": 6.6271931, "lon": 0.9230776, "tags": {"place": "hamlet"}}, {"type": "node", "id": 2163283449, "lat": 6.6309079, "lon": 0.8758093, "tags": {"place": "hamlet"}}, {"type": "node", "id": 2163283458, "lat": 6.6331472, "lon": 0.9115027, "tags": {"place": "hamlet"}}, {"type": "node", "id": 2163283468, "lat": 6.6348817, "lon": 0.9441678, "tags": {"place": "hamlet"}}, {"type": "node", "id": 2163283493, "lat": 6.6417063, "lon": 0.955126, "tags": {"place": "hamlet"}}, {"type": "node", "id": 2163283516, "lat": 6.6453345, "lon": 0.8882025, "tags": {"place": "hamlet"}}, {"type": "node", "id": 2163283628, "lat": 6.6498697, "lon": 0.9419501, "tags": {"place": "hamlet"}}, {"type": "node", "id": 2163283633, "lat": 6.6502153, "lon": 0.8919857, "tags": {"place": "hamlet"}}, {"type": "node", "id": 2163283648, "lat": 6.6522021, "lon": 0.8708955, "tags": {"place": "hamlet"}}, {"type": "node", "id": 2163283651, "lat": 6.6527636, "lon": 0.9173375, "tags": {"place": "hamlet"}}, {"type": "node", "id": 2163283657, "lat": 6.6541026, "lon": 0.8820277, "tags": {"place": "hamlet"}}, {"type": "node", "id": 2163283697, "lat": 6.6580762, "lon": 0.898378, "tags": {"place": "hamlet"}}, {"type": "node", "id": 2163283729, "lat": 6.6599335, "lon": 0.8701562, "tags": {"place": "hamlet"}}, {"type": "node", "id": 2163283792, "lat": 6.6691764, "lon": 0.9244256, "tags": {"place": "hamlet"}}, {"type": "node", "id": 2163283817, "lat": 6.6701266, "lon": 0.8747222, "tags": {"place": "hamlet"}}, {"type": "node", "id": 2163283819, "lat": 6.6707744, "lon": 0.9426893, "tags": {"place": "hamlet"}}, {"type": "node", "id": 2163283834, "lat": 6.6747048, "lon": 0.9045529, "tags": {"place": "hamlet"}}, {"type": "node", "id": 2163285796, "lat": 6.5681918, "lon": 0.8969406, "tags": {"name": "Tovegan", "place": "village"}}, {"type": "node", "id": 3716063472, "lat": 6.3264528, "lon": 1.162822, "tags": {"place": "hamlet", "source": "bing"}}, {"type": "node", "id": 4023087969, "lat": 6.7275894, "lon": 1.0967451, "tags": {"place": "village", "source": "Mapbox"}}, {"type": "node", "id": 4023096811, "lat": 6.5760452, "lon": 1.0819167, "tags": {"fixme": "name+residential area", "place": "village", "source": "Mapbox"}}, {"type": "node", "id": 4108734718, "lat": 6.689002, "lon": 1.0060026, "tags": {"fixme": "name+residential area", "place": "village", "source": "Mapbox"}}, {"type": "node", "id": 4108734744, "lat": 6.6986081, "lon": 0.98587, "tags": {"fixme": "name+residential area", "place": "town", "source": "Mapbox"}}, {"type": "node", "id": 4108734760, "lat": 6.7010695, "lon": 0.9966525, "tags": {"fixme": "name+residential area", "place": "village", "source": "Mapbox"}}, {"type": "node", "id": 4108734779, "lat": 6.7204409, "lon": 1.0870482, "tags": {"place": "village"}}, {"type": "node", "id": 4108735114, "lat": 6.7328593, "lon": 0.9892228, "tags": {"place": "village"}}, {"type": "node", "id": 4108735138, "lat": 6.7349849, "lon": 1.0591533, "tags": {"place": "hamlet"}}, {"type": "node", "id": 4164130702, "lat": 6.3736171, "lon": 0.9841044, "tags": {"name": "Badja", "place": "village"}}, {"type": "node", "id": 4719345523, "lat": 6.7365612, "lon": 0.8779667, "tags": {"name": "Atiyi", "place": "village"}}, {"type": "node", "id": 5164144304, "lat": 6.341698, "lon": 1.108805, "tags": {"name": "Kovi\u00e9", "place": "village", "population": "12497"}}, {"type": "node", "id": 5164150233, "lat": 6.3226885, "lon": 1.1182237, "tags": {"name": "Mission-Tov\u00e9", "place": "village", "population": "9040"}}, {"type": "node", "id": 5457209541, "lat": 6.5508707, "lon": 0.8810421, "tags": {"name": "Woatsinou", "place": "village"}}, {"type": "node", "id": 5457312380, "lat": 6.5512372, "lon": 0.8685865, "tags": {"name": "Ati Atovou", "place": "village"}}, {"type": "node", "id": 5574061088, "lat": 6.5298558, "lon": 0.9376895}, {"type": "node", "id": 5574061089, "lat": 6.5297119, "lon": 0.9372604}, {"type": "node", "id": 5574061090, "lat": 6.5299091, "lon": 0.9366918}, {"type": "node", "id": 5574061091, "lat": 6.5304261, "lon": 0.9366649}, {"type": "node", "id": 5574061092, "lat": 6.5306392, "lon": 0.9369117}, {"type": "node", "id": 5574061093, "lat": 6.5306392, "lon": 0.9373355}, {"type": "node", "id": 5574061094, "lat": 6.5303994, "lon": 0.9377968}, {"type": "node", "id": 5574061095, "lat": 6.5299837, "lon": 0.9378183}, {"type": "node", "id": 6564911524, "lat": 6.2987726, "lon": 0.9074312, "tags": {"name": "Ave Xevi", "place": "village"}}, {"type": "node", "id": 6701006271, "lat": 6.5079678, "lon": 0.9829207, "tags": {"name": "Agnron", "place": "village"}}, {"type": "node", "id": 6701025791, "lat": 6.4990819, "lon": 0.9696797, "tags": {"name": "Gadjatoe", "place": "village"}}, {"type": "node", "id": 6701028748, "lat": 6.5165319, "lon": 0.995569, "tags": {"name": "Afiadenyiban", "place": "village"}}, {"type": "node", "id": 6701032835, "lat": 6.4909168, "lon": 0.9570178, "tags": {"name": "Ana", "place": "village"}}, {"type": "node", "id": 6701034109, "lat": 6.4904203, "lon": 0.9598138, "tags": {"name": "Amilassim\u00e9", "place": "village"}}, {"type": "node", "id": 6822070569, "lat": 6.5130246, "lon": 1.0901517, "tags": {"place": "village"}}, {"type": "node", "id": 6918897285, "lat": 6.6020777, "lon": 1.103475, "tags": {"name": "Gap\u00e9 Centre", "place": "village"}}, {"type": "node", "id": 7255692407, "lat": 6.6914814, "lon": 0.8782891, "tags": {"name": "Segbedzi kope", "place": "village"}}, {"type": "node", "id": 7255692424, "lat": 6.6896699, "lon": 0.8805958, "tags": {"name": "Agbo Kope 2", "place": "village"}}, {"type": "node", "id": 8570257230, "lat": 6.4108847, "lon": 0.9168327, "tags": {"name": "YOPE", "place": "village"}}, {"type": "node", "id": 8606839859, "lat": 6.3863557, "lon": 0.9434761, "tags": {"name": "Vodome", "place": "village"}}, {"type": "node", "id": 8611696815, "lat": 6.3735619, "lon": 0.9502315, "tags": {"name": "Todome", "place": "village"}}, {"type": "node", "id": 8968488748, "lat": 6.3324073, "lon": 1.0236057, "tags": {"name": "Gbav\u00e9", "place": "village"}}, {"type": "node", "id": 8972421598, "lat": 6.3578374, "lon": 1.033165, "tags": {"name": "Aba Kop\u00e9", "place": "hamlet"}}, {"type": "node", "id": 8985322534, "lat": 6.3287432, "lon": 1.0488567, "tags": {"name": "Dzemeke", "place": "village"}}, {"type": "node", "id": 9010446163, "lat": 6.3339647, "lon": 1.0439658, "tags": {"name": "Alagbadja", "place": "village"}}, {"type": "node", "id": 9010637652, "lat": 6.3151418, "lon": 1.0546066, "tags": {"name": "Koepedo", "place": "village"}}, {"type": "node", "id": 9016140911, "lat": 6.3154449, "lon": 1.051353, "tags": {"name": "Dogbla kop\u00e9", "place": "hamlet"}}, {"type": "node", "id": 9016154233, "lat": 6.3172308, "lon": 1.0511865, "tags": {"name": "Tsrukpo kope", "place": "hamlet"}}, {"type": "node", "id": 9016155624, "lat": 6.3167928, "lon": 1.06379, "tags": {"name": "Tekpolo kop\u00e9", "place": "hamlet"}}, {"type": "node", "id": 9017888707, "lat": 6.3113014, "lon": 1.0469241, "tags": {"name": "Galey amadoto kop\u00e9", "place": "hamlet"}}, {"type": "node", "id": 9017892173, "lat": 6.3120254, "lon": 1.0487416, "tags": {"name": "Mego kope", "place": "hamlet"}}, {"type": "node", "id": 9017893527, "lat": 6.3143912, "lon": 1.0505619, "tags": {"name": "Zavon modzro kope", "place": "hamlet"}}, {"type": "node", "id": 9017896154, "lat": 6.3104017, "lon": 1.0509353, "tags": {"name": "Sovon kope", "place": "hamlet"}}, {"type": "node", "id": 9017902330, "lat": 6.3092452, "lon": 1.0531492, "tags": {"name": "Atigli kop\u00e9", "place": "hamlet"}}, {"type": "node", "id": 9017902417, "lat": 6.3109367, "lon": 1.0599233, "tags": {"name": "Atra kope", "place": "hamlet"}}, {"type": "node", "id": 9020778986, "lat": 6.3060725, "lon": 1.075592, "tags": {"name": "T\u00e9do ananissim\u00e9", "place": "village"}}, {"type": "node", "id": 9020787166, "lat": 6.3017006, "lon": 1.0812252, "tags": {"name": "Sevagbl\u00e9", "place": "village"}}, {"type": "node", "id": 9020795680, "lat": 6.3355385, "lon": 1.0682803, "tags": {"name": "Dzogb\u00e9to", "place": "village"}}, {"type": "node", "id": 9033530893, "lat": 6.3121003, "lon": 1.0847639, "tags": {"name": "Alikope", "place": "hamlet"}}, {"type": "node", "id": 9051887998, "lat": 6.2977082, "lon": 1.06779, "tags": {"name": "Atid\u00e8", "place": "village"}}, {"type": "node", "id": 9052560980, "lat": 6.3245766, "lon": 1.0951507, "tags": {"name": "Wousika kop\u00e9", "place": "hamlet"}}, {"type": "node", "id": 9054273119, "lat": 6.3291984, "lon": 1.0953135, "tags": {"name": "Ntcham\u00e9", "place": "hamlet"}}, {"type": "node", "id": 9060477344, "lat": 6.3220949, "lon": 1.0697379, "tags": {"name": "Awagnin", "place": "hamlet"}}, {"type": "node", "id": 9062879024, "lat": 6.3319608, "lon": 1.092218, "tags": {"name": "Gbo kope", "place": "hamlet"}}, {"type": "node", "id": 9062879786, "lat": 6.3295714, "lon": 1.0951674, "tags": {"name": "Passa kop\u00e9", "place": "hamlet"}}, {"type": "node", "id": 9062892450, "lat": 6.3415785, "lon": 1.0934369, "tags": {"name": "Sanvi kope", "place": "hamlet"}}, {"type": "node", "id": 9062896883, "lat": 6.3415504, "lon": 1.0887914, "tags": {"name": "Azassou kope", "place": "hamlet"}}, {"type": "node", "id": 9062914348, "lat": 6.34631, "lon": 1.0872292, "tags": {"name": "Ativon kope", "place": "hamlet"}}, {"type": "node", "id": 9062914567, "lat": 6.3345846, "lon": 1.0941549, "tags": {"name": "Hego kope", "place": "hamlet"}}, {"type": "node", "id": 9069440157, "lat": 6.3343052, "lon": 1.0899079, "tags": {"name": "Kpedzi", "place": "village"}}, {"type": "node", "id": 9069455623, "lat": 6.3961319, "lon": 1.0585711, "tags": {"name": "Bali kope", "place": "hamlet"}}, {"type": "node", "id": 9071270097, "lat": 6.3273795, "lon": 1.0822792, "tags": {"name": "Ago kop\u00e9", "place": "hamlet"}}, {"type": "node", "id": 9071279300, "lat": 6.3323853, "lon": 1.0752236, "tags": {"name": "Tsiv\u00e9", "place": "village"}}, {"type": "node", "id": 9071291456, "lat": 6.3249569, "lon": 1.0661238, "tags": {"name": "Mogede kope", "place": "hamlet"}}, {"type": "node", "id": 9074473293, "lat": 6.3295482, "lon": 1.0951694, "tags": {"name": "Awougno kop\u00e9", "place": "hamlet"}}, {"type": "node", "id": 9074473636, "lat": 6.3046375, "lon": 1.0658897, "tags": {"name": "Gbafa kope", "place": "hamlet"}}, {"type": "node", "id": 9076728665, "lat": 6.3699082, "lon": 1.1010229, "tags": {"name": "Ablotsi", "place": "village"}}, {"type": "node", "id": 9076856560, "lat": 6.3709124, "lon": 1.1131946, "tags": {"name": "Togbl\u00e9", "place": "hamlet"}}, {"type": "node", "id": 9092673798, "lat": 6.3357969, "lon": 1.0718437, "tags": {"name": "Godonou kope", "place": "hamlet"}}, {"type": "node", "id": 9108978957, "lat": 6.3338423, "lon": 1.0601857, "tags": {"name": "Sedjro kope", "place": "hamlet"}}, {"type": "node", "id": 9108990599, "lat": 6.3404015, "lon": 1.0613951, "tags": {"name": "Abayavo kope", "place": "hamlet"}}, {"type": "node", "id": 9109004803, "lat": 6.3344738, "lon": 1.0623816, "tags": {"name": "Wedji kop\u00e9", "place": "hamlet"}}, {"type": "node", "id": 9109006461, "lat": 6.3410771, "lon": 1.0638266, "tags": {"name": "Aziabo kope", "place": "hamlet"}}, {"type": "node", "id": 9109010456, "lat": 6.3313204, "lon": 1.06575, "tags": {"name": "Atigan kop\u00e9", "place": "hamlet"}}, {"type": "node", "id": 9111670572, "lat": 6.3278291, "lon": 1.066325, "tags": {"name": "Dara kop\u00e9", "place": "hamlet"}}, {"type": "node", "id": 9115244594, "lat": 6.3338301, "lon": 1.0784163, "tags": {"name": "Takplayi kop\u00e9", "place": "hamlet"}}, {"type": "node", "id": 9199948754, "lat": 6.3945318, "lon": 1.1122253, "tags": {"name": "Wli Hededzi", "place": "village"}}, {"type": "node", "id": 9199961020, "lat": 6.3929136, "lon": 1.111466, "tags": {"name": "Wli-Ziapeme", "place": "village"}}, {"type": "node", "id": 9204888415, "lat": 6.4016128, "lon": 1.1126576, "tags": {"name": "Wli-Mivakpo", "place": "village"}}, {"type": "node", "id": 9204949118, "lat": 6.4076418, "lon": 1.1121575, "tags": {"name": "Wli-kouaxo\u00e8", "place": "village"}}, {"type": "node", "id": 9217479082, "lat": 6.3879098, "lon": 1.0819798, "tags": {"name": "Gbegam\u00e9", "place": "village"}}, {"type": "node", "id": 9218665320, "lat": 6.3855297, "lon": 1.1586493, "tags": {"name": "Wli-kouv\u00e9", "place": "village"}}, {"type": "node", "id": 9220761040, "lat": 6.3737085, "lon": 1.1333583, "tags": {"name": "Wli- Bolougb\u00e9", "place": "village"}}, {"type": "node", "id": 9222135603, "lat": 6.3712235, "lon": 1.1340455, "tags": {"name": "Akoto kop\u00e9", "place": "hamlet"}}, {"type": "node", "id": 9222296830, "lat": 6.3840569, "lon": 1.1362494, "tags": {"name": "Dzogb\u00e9 kop\u00e9", "place": "hamlet"}}, {"type": "node", "id": 9226652557, "lat": 6.3925038, "lon": 1.0848981, "tags": {"name": "Wli- Gb\u00e9gam\u00e9", "place": "village"}}, {"type": "node", "id": 9234781828, "lat": 6.4233683, "lon": 1.1464337, "tags": {"description": "village du canton de Wli", "name": "Wli - H\u00e9v\u00e9 Djogb\u00e9", "place": "village"}}, {"type": "node", "id": 9275532328, "lat": 6.4519494, "lon": 1.147981, "tags": {"name": "Vavati", "place": "village"}}, {"type": "node", "id": 9309680076, "lat": 6.410251, "lon": 1.1545579, "tags": {"name": "Megbe", "place": "hamlet"}}, {"type": "node", "id": 9693760932, "lat": 6.4781266, "lon": 1.066678, "tags": {"name": "Klokpoe", "note": "the name is given by buildings named", "place": "village", "source:name": "sign"}}, {"type": "node", "id": 9693760937, "lat": 6.4437462, "lon": 1.0845847, "tags": {"name": "Alokoegbe", "note": "the name of the village is given by named buildings", "place": "village"}}, {"type": "node", "id": 9726105306, "lat": 6.4880852, "lon": 1.0990394, "tags": {"name": "Tsati", "place": "village"}}, {"type": "node", "id": 9726111553, "lat": 6.5506952, "lon": 1.1341084, "tags": {"name": "Toumale", "place": "village"}}, {"type": "node", "id": 9726111896, "lat": 6.5256055, "lon": 1.0572997, "tags": {"name": "Djogbedji", "place": "village"}}, {"type": "node", "id": 9726116269, "lat": 6.4783789, "lon": 1.1295597, "tags": {"name": "Watara Kope", "place": "village"}}, {"type": "node", "id": 9726120517, "lat": 6.5217887, "lon": 1.0478863, "tags": {"name": "Kpoguere Dafolegname", "place": "village"}}, {"type": "node", "id": 9726877207, "lat": 6.7260224, "lon": 1.0968031, "tags": {"name": "Tsito", "place": "village"}}, {"type": "node", "id": 10246931087, "lat": 6.3340404, "lon": 1.023508, "tags": {"name": "Gbav\u00e9", "place": "village"}}, {"type": "node", "id": 10583871533, "lat": 6.5970398, "lon": 0.8786924, "tags": {"name": "Azicop\u00e9", "place": "village"}}, {"type": "node", "id": 10583989106, "lat": 6.5829617, "lon": 0.8751717, "tags": {"name": "Atti-Elio", "place": "village"}}, {"type": "node", "id": 10586164628, "lat": 6.528175, "lon": 0.89734, "tags": {"name": "Fokpo", "place": "village"}}, {"type": "node", "id": 10588491075, "lat": 6.63476, "lon": 0.9436933, "tags": {"name": "Gabie", "place": "village"}}, {"type": "node", "id": 10588518603, "lat": 6.6497883, "lon": 0.94195, "tags": {"name": "Klobave", "place": "village"}}, {"type": "node", "id": 10588777317, "lat": 6.67062, "lon": 0.943385, "tags": {"name": "Edoh kop\u00e9", "place": "village"}}, {"type": "node", "id": 10588831870, "lat": 6.6395583, "lon": 0.9502467, "tags": {"name": "Fialalonou", "place": "village"}}, {"type": "node", "id": 10588866180, "lat": 6.6415283, "lon": 0.955515, "tags": {"name": "Alokpa", "place": "village"}}, {"type": "node", "id": 10588940916, "lat": 6.6226517, "lon": 0.9517983, "tags": {"name": "Hav\u00e9", "place": "village"}}, {"type": "node", "id": 10589006915, "lat": 6.5918405, "lon": 0.9155092, "tags": {"name": "Ego kop\u00e9", "place": "village"}}, {"type": "node", "id": 10589018584, "lat": 6.5703567, "lon": 0.9203949, "tags": {"name": "Agbessia", "place": "village"}}, {"type": "node", "id": 10589113152, "lat": 6.5837283, "lon": 0.95692, "tags": {"name": "Avego", "place": "village"}}, {"type": "node", "id": 10608534638, "lat": 6.3243017, "lon": 1.0434267, "tags": {"name": "Kleve", "place": "village"}}, {"type": "node", "id": 10616771932, "lat": 6.6578517, "lon": 0.940225, "tags": {"name": "Makoumavo", "place": "village"}}, {"type": "node", "id": 10783819133, "lat": 6.6568096, "lon": 0.9725093, "tags": {"name": "Gape yerodo", "place": "village"}}, {"type": "node", "id": 10783834793, "lat": 6.6529405, "lon": 0.9987342, "tags": {"name": "Gape akpakedome", "place": "village"}}, {"type": "node", "id": 10783835260, "lat": 6.7015424, "lon": 1.0018862, "tags": {"name": "Nyative", "place": "village"}}, {"type": "node", "id": 10783836491, "lat": 6.6632173, "lon": 0.9768437, "tags": {"name": "Gape Agotsideke", "place": "village"}}, {"type": "node", "id": 10783838253, "lat": 6.7267928, "lon": 1.0659189, "tags": {"name": "Datiho", "place": "village"}}, {"type": "node", "id": 10783849617, "lat": 6.675551, "lon": 0.9732298, "tags": {"name": "Gape kodje", "place": "village"}}, {"type": "node", "id": 10783849826, "lat": 6.7266124, "lon": 1.0219533, "tags": {"name": "Kodje", "place": "village"}}, {"type": "node", "id": 11012398068, "lat": 6.4417828, "lon": 0.8961597, "tags": {"name": "Apedoko\u00e8", "place": "village"}}, {"type": "node", "id": 11012412491, "lat": 6.4261219, "lon": 0.8751191, "tags": {"place": "village"}}, {"type": "node", "id": 11012421988, "lat": 6.4324544, "lon": 0.8835446, "tags": {"name": "Ando Centre", "place": "village"}}, {"type": "node", "id": 11012425105, "lat": 6.427876, "lon": 0.8677647, "tags": {"place": "village"}}, {"type": "way", "id": 582968567, "nodes": [5574061095, 5574061094, 5574061093, 5574061092, 5574061091, 5574061090, 5574061089, 5574061088, 5574061095], "tags": {"landuse": "residential", "place": "hamlet"}}]}