{"version": 0.6, "generator": "Overpass API 0.7.61.5 4133829e", "osm3s": {"timestamp_osm_base": "2024-03-05T13:45:59Z", "copyright": "The data included in this document is from www.openstreetmap.org. The data is made available under ODbL."}, "elements": [{"type": "node", "id": 3972722984, "lat": 35.8026565, "lon": 70.8259328, "tags": {"name": "Tili", "place": "hamlet"}}, {"type": "node", "id": 3972726601, "lat": 35.8389588, "lon": 70.8502244, "tags": {"name": "Panam", "name:ru": "\u041f\u0430\u043d\u0430\u043c", "place": "village"}}, {"type": "node", "id": 3972779546, "lat": 35.9065671, "lon": 70.8972449, "tags": {"name": "Shahi Pari", "place": "village"}}, {"type": "node", "id": 3972780978, "lat": 35.8449704, "lon": 70.8455511, "tags": {"name": "Yeghdak", "place": "village"}}, {"type": "node", "id": 3972780983, "lat": 35.855839, "lon": 70.8612066, "tags": {"name": "Meyandeh", "place": "village"}}, {"type": "node", "id": 3972800865, "lat": 35.8771722, "lon": 70.8710108, "tags": {"name": "Sarjangal", "place": "village"}}]}