{"version": 0.6, "generator": "Overpass API 0.7.61.5 4133829e", "osm3s": {"timestamp_osm_base": "2024-03-05T15:06:00Z", "copyright": "The data included in this document is from www.openstreetmap.org. The data is made available under ODbL."}, "elements": [{"type": "node", "id": 288088961, "lat": 64.2241193, "lon": 13.8340413, "tags": {"name": "S\u00f8rli", "place": "village", "ssr:stedsnr": "195888"}}, {"type": "node", "id": 288088962, "lat": 64.1762095, "lon": 13.8358349, "tags": {"name": "Jule", "place": "hamlet", "ssr:stedsnr": "196958"}}, {"type": "node", "id": 288088963, "lat": 64.164465, "lon": 13.8728039, "tags": {"name": "Sk\u00e5le", "place": "hamlet", "ssr:stedsnr": "75970"}}, {"type": "node", "id": 288088964, "lat": 64.0674022, "lon": 14.1346138, "tags": {"name": "Valsj\u00f6byn", "place": "village", "ref:se:pts:postort": "VALSJ\u00d6BYN", "source": "survey, roadsign"}}, {"type": "node", "id": 288088965, "lat": 63.9870036, "lon": 14.2188358, "tags": {"name": "Hotagen", "place": "village", "source": "survey, roadsign"}}, {"type": "node", "id": 288088966, "lat": 63.9750664, "lon": 14.1600893, "tags": {"name": "R\u00f6tviken", "place": "village", "source": "survey, roadsign"}}, {"type": "node", "id": 288088967, "lat": 63.9315925, "lon": 14.2068291, "tags": {"name": "Norrviken", "place": "hamlet", "source": "survey, roadsign"}}, {"type": "node", "id": 288088968, "lat": 63.9108181, "lon": 14.2110778, "tags": {"name": "H\u00e4ggsj\u00f6vik", "place": "hamlet", "source": "survey, roadsign"}}, {"type": "node", "id": 5907639863, "lat": 64.2722406, "lon": 14.4477832, "tags": {"name": "Munsvattnet", "place": "hamlet"}}, {"type": "node", "id": 9819653877, "lat": 64.2256277, "lon": 13.8350556, "tags": {"name": "Estil", "place": "hamlet", "ssr:stedsnr": "439861"}}, {"type": "node", "id": 9819653898, "lat": 64.2247203, "lon": 13.8310292, "tags": {"name": "Mebygda", "place": "hamlet", "ssr:stedsnr": "135880"}}, {"type": "node", "id": 9819665551, "lat": 64.2263816, "lon": 13.8256399, "tags": {"name": "\u00d8stnor", "place": "hamlet", "ssr:stedsnr": "742797"}}, {"type": "node", "id": 9819665572, "lat": 64.127385, "lon": 13.889665, "tags": {"name": "Sundvika", "place": "hamlet", "ssr:stedsnr": "378986"}}, {"type": "node", "id": 9819665642, "lat": 64.1392583, "lon": 13.8794862, "tags": {"name": "Str\u00f8mnes", "place": "hamlet", "ssr:stedsnr": "803998"}}, {"type": "node", "id": 9819665652, "lat": 64.1510944, "lon": 14.0172444, "tags": {"alt_name": "S\u00f8rneset", "loc_name": "Stugguneset", "name": "Stugguneset", "place": "hamlet", "ssr:stedsnr": "499994"}}, {"type": "node", "id": 9819665702, "lat": 64.0434361, "lon": 13.9867249, "tags": {"name": "Nyborg", "place": "hamlet", "ssr:stedsnr": "134824"}}, {"type": "node", "id": 9819665704, "lat": 64.156828, "lon": 14.0566225, "tags": {"name": "Endset", "place": "hamlet", "ssr:stedsnr": "121917"}}, {"type": "node", "id": 9819665717, "lat": 64.063904, "lon": 14.0146513, "tags": {"name": "Linneset", "place": "hamlet", "ssr:stedsnr": "620776"}}, {"type": "node", "id": 9819665720, "lat": 64.1017267, "lon": 14.0099423, "tags": {"name": "Storbergvika", "place": "hamlet", "ssr:stedsnr": "620738"}}, {"type": "node", "id": 9819665743, "lat": 64.1087914, "lon": 13.9820067, "tags": {"name": "\u00d8stborg", "place": "hamlet", "ssr:stedsnr": "242920"}}]}