{"version": 0.6, "generator": "Overpass API 0.7.61.5 4133829e", "osm3s": {"timestamp_osm_base": "2024-03-06T11:45:15Z", "copyright": "The data included in this document is from www.openstreetmap.org. The data is made available under ODbL."}, "elements": [{"type": "node", "id": 44931428, "lat": 2.8833, "lon": 35.25, "tags": {"is_in": "Turkana,Kenya", "name": "Lorugumu", "place": "village", "wikidata": "Q6681772"}}, {"type": "node", "id": 45005877, "lat": 2.73647, "lon": 35.367927, "tags": {"is_in": "Turkana,Kenya", "name": "Angorangora", "place": "village", "wikidata": "Q4763856"}}, {"type": "node", "id": 45006214, "lat": 2.6333, "lon": 35.65, "tags": {"created_by": "JOSM", "name": "Changamatak", "place": "village"}}, {"type": "node", "id": 2139441833, "lat": 2.4770056, "lon": 35.6554449, "tags": {"place": "village"}}, {"type": "node", "id": 2139441872, "lat": 2.6049224, "lon": 35.6522387, "tags": {"place": "village"}}, {"type": "node", "id": 2139441941, "lat": 2.7549841, "lon": 35.643751, "tags": {"place": "village"}}, {"type": "node", "id": 2141124483, "lat": 2.8038697, "lon": 35.619768, "tags": {"place": "hamlet"}}, {"type": "node", "id": 3237804270, "lat": 2.5180278, "lon": 35.3743568, "tags": {"name": "Naipa", "place": "village"}}, {"type": "node", "id": 10865216047, "lat": 2.8878915, "lon": 35.2637846, "tags": {"name": "Lorugum", "place": "town"}}, {"type": "node", "id": 10866244611, "lat": 2.7332132, "lon": 35.3685818, "tags": {"name": "Kalemunyang", "place": "village"}}, {"type": "node", "id": 10866244642, "lat": 2.7635595, "lon": 35.3670087, "tags": {"name": "Kotela", "place": "village"}}, {"type": "node", "id": 10866244647, "lat": 2.8151179, "lon": 35.37311, "tags": {"name": "Kabulokor", "place": "village"}}]}