{"version": 0.6, "generator": "Overpass API 0.7.61.5 4133829e", "osm3s": {"timestamp_osm_base": "2024-02-29T13:47:24Z", "copyright": "The data included in this document is from www.openstreetmap.org. The data is made available under ODbL."}, "elements": [{"type": "node", "id": 8596927418, "lat": 10.2740565, "lon": -1.9530451}, {"type": "node", "id": 8596927419, "lat": 10.2751017, "lon": -1.9505882}, {"type": "node", "id": 8596927430, "lat": 10.279195, "lon": -1.9560304}, {"type": "node", "id": 8596927431, "lat": 10.2802005, "lon": -1.9566929}, {"type": "node", "id": 8596927432, "lat": 10.2761151, "lon": -1.9541663}, {"type": "node", "id": 8596927433, "lat": 10.2816257, "lon": -1.952616}, {"type": "node", "id": 9597851317, "lat": 10.2772499, "lon": -1.954869}, {"type": "node", "id": 9597851318, "lat": 10.2789628, "lon": -1.955899}, {"type": "node", "id": 9597851319, "lat": 10.2808075, "lon": -1.9568861}, {"type": "way", "id": 926402205, "nodes": [9597851319, 8596927431, 8596927430, 9597851318, 9597851317, 8596927432, 8596927418, 8596927419, 8596927433, 9597851319], "tags": {"addr:country": "GH", "addr:district": "Wa East", "addr:place": "Funsi", "addr:region": "Upper West", "amenity": "school", "description": "Funsi Senior High School was established on 12th January, 2014. It is the only senior high school in the Wa- East District of the upper west region of Ghana, and is situated 120kms north-east of the regional capital Wa.", "email": "funsishs@ges.gov.gh", "isced:level": "3", "name": "Funsi Senior High School", "operator": "Ghana Education Service", "operator:short": "GES", "operator:type": "public", "operator:wikidata": "Q30263788", "start_date": "2014-01-12", "wikidata": "Q114836974"}}]}