{"version": 0.6, "generator": "Overpass API 0.7.61.5 4133829e", "osm3s": {"timestamp_osm_base": "2024-03-05T11:05:12Z", "copyright": "The data included in this document is from www.openstreetmap.org. The data is made available under ODbL."}, "elements": [{"type": "node", "id": 1795564854, "lat": 6.8008746, "lon": -1.0847298, "tags": {"capital": "6", "name": "Agogo", "place": "town", "wikidata": "Q395201", "wikipedia": "en:Agogo, Ghana"}}, {"type": "node", "id": 1801606340, "lat": 6.8460438, "lon": -1.0355936, "tags": {"name": "Ejian", "place": "village"}}, {"type": "node", "id": 1818632592, "lat": 7.0641667, "lon": -1.1243691, "tags": {"capital": "6", "name": "Drobonso", "place": "village", "wikidata": "Q21036263"}}, {"type": "node", "id": 1818632593, "lat": 7.1923705, "lon": -1.0112985, "tags": {"name": "Kyeiase", "place": "village"}}, {"type": "node", "id": 1819076615, "lat": 6.7716858, "lon": -1.1750173, "tags": {"name": "Akutuase", "place": "village"}}, {"type": "node", "id": 1819076618, "lat": 6.7945099, "lon": -1.1855459, "tags": {"alt_name": "Wioso", "name": "Wiawso", "place": "village"}}, {"type": "node", "id": 1819076619, "lat": 6.8975322, "lon": -0.9137644, "tags": {"name": "Kowireso", "place": "village"}}, {"type": "node", "id": 1828115081, "lat": 6.8752821, "lon": -0.9836978, "tags": {"alt_name": "Anokyekrom", "name": "Babuso", "place": "village"}}, {"type": "node", "id": 1828115082, "lat": 6.9145464, "lon": -1.0170794, "tags": {"name": "Ananekrom", "place": "village"}}, {"type": "node", "id": 1828115083, "lat": 6.9597276, "lon": -1.0607947, "tags": {"place": "village"}}, {"type": "node", "id": 1828115084, "lat": 7.0127499, "lon": -1.1279857, "tags": {"place": "village"}}, {"type": "node", "id": 1828115085, "lat": 7.0902441, "lon": -0.9897607, "tags": {"place": "village"}}, {"type": "node", "id": 1828115086, "lat": 7.0947085, "lon": -1.0161642, "tags": {"place": "village"}}, {"type": "node", "id": 1828131853, "lat": 6.7578272, "lon": -0.9728242, "tags": {"name": "Agogo Onyimso", "place": "village"}}, {"type": "node", "id": 1828131854, "lat": 6.7678979, "lon": -0.9956195, "tags": {"name": "Pataban", "place": "village"}}, {"type": "node", "id": 1828131855, "lat": 6.826993, "lon": -0.9221988, "tags": {"place": "village"}}, {"type": "node", "id": 2061268944, "lat": 6.7712521, "lon": -1.1626875, "tags": {"name": "Nyinamponase", "place": "village"}}, {"type": "node", "id": 2115933960, "lat": 7.0818777, "lon": -0.9615087, "tags": {"place": "village"}}, {"type": "node", "id": 2115934055, "lat": 7.0944851, "lon": -0.9739776, "tags": {"place": "village"}}, {"type": "node", "id": 2115934099, "lat": 7.0967471, "lon": -0.9963183, "tags": {"place": "village"}}, {"type": "node", "id": 2115934114, "lat": 7.0971715, "lon": -0.9365834, "tags": {"place": "village"}}, {"type": "node", "id": 2115934156, "lat": 7.1252899, "lon": -0.916273, "tags": {"place": "village"}}, {"type": "node", "id": 2115934234, "lat": 7.1413777, "lon": -0.9419668, "tags": {"place": "village"}}, {"type": "node", "id": 2115934324, "lat": 7.1643066, "lon": -0.9657824, "tags": {"place": "village"}}, {"type": "node", "id": 2117753719, "lat": 6.7714806, "lon": -1.1365577, "tags": {"place": "village"}}, {"type": "node", "id": 2165312299, "lat": 6.7737504, "lon": -1.1399632, "tags": {"name": "Amantena", "place": "village"}}, {"type": "node", "id": 2165312305, "lat": 7.1569335, "lon": -1.070823, "tags": {"name": "Kyekyebon", "place": "village"}}, {"type": "node", "id": 2165312311, "lat": 6.7784911, "lon": -1.1035999, "tags": {"name": "Hwidiem", "place": "village"}}, {"type": "node", "id": 2165313655, "lat": 6.7634628, "lon": -0.7848281, "tags": {"name": "Ateneata", "place": "village"}}, {"type": "node", "id": 2190842802, "lat": 6.937608, "lon": -0.9657824, "tags": {"place": "hamlet"}}, {"type": "node", "id": 2190842820, "lat": 6.974415, "lon": -0.9800136, "tags": {"place": "hamlet"}}, {"type": "node", "id": 2197676965, "lat": 6.8877064, "lon": -0.809346, "tags": {"place": "hamlet"}}, {"type": "node", "id": 2197676978, "lat": 6.9070131, "lon": -0.8207604, "tags": {"place": "hamlet"}}, {"type": "node", "id": 2199571904, "lat": 7.0204605, "lon": -1.1163749, "tags": {"place": "hamlet"}}, {"type": "node", "id": 2200191620, "lat": 7.1853578, "lon": -1.1710835, "tags": {"place": "hamlet"}}, {"type": "node", "id": 2203521441, "lat": 7.0157628, "lon": -0.8358477, "tags": {"place": "hamlet"}}, {"type": "node", "id": 2203521477, "lat": 7.0198815, "lon": -0.9232664, "tags": {"place": "village"}}, {"type": "node", "id": 2203521571, "lat": 7.062008, "lon": -0.883934, "tags": {"place": "hamlet"}}, {"type": "node", "id": 2203521655, "lat": 7.1226392, "lon": -0.7969719, "tags": {"place": "hamlet"}}, {"type": "node", "id": 2674477133, "lat": 7.0056276, "lon": -1.0900581}, {"type": "node", "id": 2674477134, "lat": 7.0056949, "lon": -1.0889859}, {"type": "node", "id": 2674477135, "lat": 7.0038539, "lon": -1.0884683}, {"type": "node", "id": 2674477136, "lat": 7.0029365, "lon": -1.0893926}, {"type": "node", "id": 2674477137, "lat": 7.0044105, "lon": -1.0906188}, {"type": "node", "id": 2674528078, "lat": 7.0839922, "lon": -0.9394297}, {"type": "node", "id": 2674528079, "lat": 7.0830233, "lon": -0.9381208}, {"type": "node", "id": 2674528080, "lat": 7.081948, "lon": -0.9388075}, {"type": "node", "id": 2674528081, "lat": 7.0827571, "lon": -0.9396121}, {"type": "node", "id": 2674544014, "lat": 7.0974352, "lon": -0.9970813}, {"type": "node", "id": 2674544017, "lat": 7.0973369, "lon": -0.9961186}, {"type": "node", "id": 2674544020, "lat": 7.0962692, "lon": -0.9958072}, {"type": "node", "id": 2674544023, "lat": 7.0962551, "lon": -0.9966424}, {"type": "node", "id": 4767649737, "lat": 7.0865564, "lon": -1.0319408, "tags": {"place": "village"}}, {"type": "node", "id": 4767649738, "lat": 7.086937, "lon": -1.0145654, "tags": {"place": "village"}}, {"type": "node", "id": 11365901440, "lat": 6.782507, "lon": -1.0331655, "tags": {"name": "Magyeda-Nkwanta", "place": "village"}}, {"type": "node", "id": 11425360014, "lat": 6.7688713, "lon": -0.8784315, "tags": {"name": "Asumesu", "place": "village"}}, {"type": "node", "id": 11425360015, "lat": 6.7646923, "lon": -0.9094459, "tags": {"name": "Abotriansa", "place": "village"}}, {"type": "node", "id": 11428922598, "lat": 6.7716986, "lon": -0.8105341, "tags": {"name": "Nsareye", "place": "hamlet"}}, {"type": "node", "id": 11428922599, "lat": 6.7573382, "lon": -0.8144823, "tags": {"name": "Yawbadoo", "place": "hamlet"}}, {"type": "node", "id": 11428922602, "lat": 6.7776782, "lon": -0.8564857, "tags": {"name": "Boboohe", "place": "hamlet"}}, {"type": "node", "id": 11428922603, "lat": 6.7555003, "lon": -0.8537284, "tags": {"name": "Howhasi", "place": "village"}}, {"type": "node", "id": 11626738561, "lat": 7.0506289, "lon": -1.1815211, "tags": {"name": "Kwabena Dapaa No.2", "place": "hamlet"}}, {"type": "node", "id": 11626738562, "lat": 7.056915, "lon": -1.1813253, "tags": {"name": "Tetsetetse", "place": "village"}}, {"type": "node", "id": 11626738563, "lat": 7.06633, "lon": -1.1868346, "tags": {"name": "Nantwibuom", "place": "village"}}, {"type": "node", "id": 11626862228, "lat": 7.1520811, "lon": -1.1164185, "tags": {"name": "Konkomba", "place": "village"}}, {"type": "node", "id": 11626862229, "lat": 7.1501622, "lon": -1.1152357, "tags": {"name": "Mankwadaf", "place": "village"}}, {"type": "node", "id": 11626862230, "lat": 7.1536592, "lon": -1.114195, "tags": {"name": "Aframso", "place": "village"}}, {"type": "way", "id": 261817900, "nodes": [2674477133, 2674477134, 2674477135, 2674477136, 2674477137, 2674477133], "tags": {"landuse": "residential", "place": "village"}}, {"type": "way", "id": 261829019, "nodes": [2674528078, 2674528079, 2674528080, 2674528081, 2674528078], "tags": {"place": "village"}}, {"type": "way", "id": 261831163, "nodes": [2674544014, 2674544017, 2674544020, 2674544023, 2674544014], "tags": {"landuse": "residential", "place": "village"}}]}