{"version": 0.6, "generator": "Overpass API 0.7.61.5 4133829e", "osm3s": {"timestamp_osm_base": "2024-03-05T15:10:59Z", "copyright": "The data included in this document is from www.openstreetmap.org. The data is made available under ODbL."}, "elements": [{"type": "node", "id": 25710724, "lat": 58.2610628, "lon": 12.9521468, "tags": {"name": "Vara", "name:ru": "\u0412\u0430\u0440\u0430", "place": "town", "population": "3889", "ref:se:pts:postort": "VARA", "ref:se:scb": "5500", "wikidata": "Q501428", "wikipedia": "sv:Vara kommun"}}, {"type": "node", "id": 26456111, "lat": 58.2518663, "lon": 13.0853847, "tags": {"layer": "5", "name": "Tr\u00e5vad", "place": "village", "ref:se:pts:postort": "TR\u00c5VAD", "ref:se:scb": "5476", "wikidata": "Q2794995"}}, {"type": "node", "id": 26585396, "lat": 58.3811988, "lon": 12.3226877, "tags": {"name": "V\u00e4nersborg", "name:ru": "\u0412\u0435\u043d\u0435\u0440\u0441\u0431\u043e\u0440\u0433", "place": "town", "population": "21699", "ref:se:pts:postort": "V\u00c4NERSBORG", "ref:se:scb": "5132", "wikidata": "Q54759", "wikipedia": "sv:V\u00e4nersborg"}}, {"type": "node", "id": 29691802, "lat": 58.3328302, "lon": 12.679212, "tags": {"name": "Gr\u00e4storp", "name:ru": "\u0413\u0440\u0435\u0441\u0442\u043e\u0440\u043f", "place": "town", "population": "2969", "ref:se:pts:postort": "GR\u00c4STORP", "ref:se:scb": "5260"}}, {"type": "node", "id": 173859210, "lat": 58.2188471, "lon": 13.0979155, "tags": {"name": "L\u00e4ngjum", "place": "hamlet", "wikidata": "Q15616756"}}, {"type": "node", "id": 243914274, "lat": 58.3255179, "lon": 12.9235827, "tags": {"name": "Stora Levene", "place": "village", "population": "761", "ref:se:pts:postort": "STORA LEVENE", "ref:se:scb": "5440", "wikidata": "Q509088"}}, {"type": "node", "id": 249793735, "lat": 58.3296452, "lon": 13.1112317, "tags": {"name": "Jung", "place": "village", "ref:se:scb": "5316", "wikidata": "Q685930"}}, {"type": "node", "id": 252333618, "lat": 58.1956378, "lon": 12.778279, "tags": {"name": "Essunga", "place": "hamlet", "population": "138", "ref:se:scb": "S5369", "wikidata": "Q2103622"}}, {"type": "node", "id": 258393023, "lat": 58.2333229, "lon": 12.6662924, "tags": {"name": "Fr\u00e4mmestad", "place": "village", "ref:se:scb": "5250", "wikidata": "Q2541117"}}, {"type": "node", "id": 258402803, "lat": 58.2056225, "lon": 12.6874639, "tags": {"name": "B\u00e4reberg", "place": "hamlet", "wikidata": "Q2550788"}}, {"type": "node", "id": 258416379, "lat": 58.2084438, "lon": 12.8463466, "tags": {"name": "Tumleberg", "place": "hamlet"}}, {"type": "node", "id": 262898099, "lat": 58.2552372, "lon": 12.9990743, "tags": {"name": "Emtunga", "place": "village", "ref:se:scb": "5224", "wikidata": "Q2238765"}}, {"type": "node", "id": 262898404, "lat": 58.2413585, "lon": 13.0187451, "tags": {"name": "Mossbrott", "place": "hamlet"}}, {"type": "node", "id": 262898827, "lat": 58.2834752, "lon": 13.0937377, "tags": {"name": "Fyrunga", "place": "hamlet"}}, {"type": "node", "id": 263223401, "lat": 58.2659384, "lon": 13.1124481, "tags": {"name": "Bjertorp", "place": "hamlet"}}, {"type": "node", "id": 263223402, "lat": 58.2610729, "lon": 13.1249089, "tags": {"name": "Stora Hov", "place": "hamlet"}}, {"type": "node", "id": 267176903, "lat": 58.2782104, "lon": 12.8878421, "tags": {"name": "Hel\u00e5s", "place": "hamlet"}}, {"type": "node", "id": 267430213, "lat": 58.3462863, "lon": 12.5232073, "tags": {"name": "Flo klev", "place": "hamlet"}}, {"type": "node", "id": 267430217, "lat": 58.3358979, "lon": 12.5689719, "tags": {"name": "Flo", "place": "hamlet", "wikidata": "Q130422"}}, {"type": "node", "id": 267430430, "lat": 58.3389845, "lon": 12.6522421, "tags": {"name": "Forshall", "place": "hamlet"}}, {"type": "node", "id": 267432639, "lat": 58.241915, "lon": 12.8738943, "tags": {"name": "Arentorp", "place": "village", "ref:se:scb": "5204", "wikidata": "Q2488369"}}, {"type": "node", "id": 267432640, "lat": 58.345646, "lon": 12.5993735, "tags": {"name": "Salstad", "place": "hamlet"}}, {"type": "node", "id": 267432641, "lat": 58.2799543, "lon": 12.7462894, "tags": {"name": "Fridhem", "place": "hamlet"}}, {"type": "node", "id": 267432869, "lat": 58.2215784, "lon": 12.9817269, "tags": {"name": "M\u00f6llentorp", "place": "hamlet"}}, {"type": "node", "id": 267432870, "lat": 58.2635067, "lon": 13.005746, "tags": {"name": "\u00d6num", "place": "hamlet"}}, {"type": "node", "id": 268888839, "lat": 58.5088181, "lon": 13.0042585, "tags": {"name": "\u00d6rsl\u00f6sa", "place": "village", "ref:se:scb": "5890", "wikidata": "Q395051"}}, {"type": "node", "id": 268888840, "lat": 58.5318712, "lon": 12.9667726, "tags": {"name": "S\u00f6ne", "place": "hamlet"}}, {"type": "node", "id": 271487445, "lat": 58.306388, "lon": 12.9029924, "tags": {"name": "H\u00e5kantorp", "place": "hamlet"}}, {"type": "node", "id": 278977562, "lat": 58.5633121, "lon": 12.3507401, "tags": {"name": "Br\u00e5landa", "place": "village", "population": "1472", "ref:se:pts:postort": "BR\u00c5LANDA", "ref:se:scb": "4760", "wikidata": "Q2283709"}}, {"type": "node", "id": 281695062, "lat": 58.3909354, "lon": 12.4982579, "tags": {"name": "Gaddesanda", "place": "hamlet"}}, {"type": "node", "id": 282783242, "lat": 58.5500573, "lon": 13.0100972, "tags": {"name": "Skalunda", "place": "hamlet", "population": "54", "wikidata": "Q33110224", "wikipedia": "sv:Skalunda"}}, {"type": "node", "id": 282783244, "lat": 58.5706284, "lon": 13.0336894, "tags": {"name": "Rackeby", "place": "hamlet"}}, {"type": "node", "id": 282783523, "lat": 58.54983, "lon": 13.0790805, "tags": {"name": "G\u00f6sslunda", "place": "hamlet", "wikidata": "Q20789398"}}, {"type": "node", "id": 282785347, "lat": 58.4406772, "lon": 13.0451242, "tags": {"name": "Lovene", "place": "hamlet", "population": "130", "ref:se:scb": "S5469"}}, {"type": "node", "id": 282785440, "lat": 58.4142318, "lon": 13.0694336, "tags": {"name": "Tr\u00e4ssberg", "place": "hamlet"}}, {"type": "node", "id": 302946280, "lat": 58.4305527, "lon": 12.737017, "tags": {"name": "Tun", "place": "hamlet", "ref:se:pts:postort": "TUN", "ref:se:scb": "5480", "wikidata": "Q2950373"}}, {"type": "node", "id": 302946289, "lat": 58.4503781, "lon": 12.7780068, "tags": {"name": "Friel", "place": "hamlet"}}, {"type": "node", "id": 302946312, "lat": 58.4744346, "lon": 12.8214743, "tags": {"name": "T\u00e5dene", "place": "hamlet"}}, {"type": "node", "id": 302946317, "lat": 58.4812014, "lon": 12.8994577, "tags": {"name": "Norra Kedum", "place": "hamlet"}}, {"type": "node", "id": 461369198, "lat": 58.228718, "lon": 12.3102334, "tags": {"name": "Velanda", "place": "village", "population": "581", "ref:se:scb": "5038", "wikidata": "Q2337787"}}, {"type": "node", "id": 471995581, "lat": 58.2311934, "lon": 12.8763112, "tags": {"name": "Korsmaden", "place": "hamlet"}}, {"type": "node", "id": 471995758, "lat": 58.2864658, "lon": 12.9295907, "tags": {"name": "Rydaholm", "place": "hamlet"}}, {"type": "node", "id": 585437884, "lat": 58.3801109, "lon": 12.9725436, "tags": {"name": "J\u00e4rp\u00e5s", "place": "village", "ref:se:pts:postort": "J\u00c4RP\u00c5S", "ref:se:scb": "5320", "wikidata": "Q395046"}}, {"type": "node", "id": 641225027, "lat": 58.2904622, "lon": 13.0351225, "tags": {"name": "Skarstad", "place": "hamlet"}}, {"type": "node", "id": 641257650, "lat": 58.246072, "lon": 13.0515267, "tags": {"name": "\u00d6sttorp", "place": "hamlet"}}, {"type": "node", "id": 962482129, "lat": 58.2608299, "lon": 12.6118859, "tags": {"name": "Frambo", "place": "hamlet"}}, {"type": "node", "id": 962482323, "lat": 58.249052, "lon": 12.41736, "tags": {"name": "V\u00e4ne-\u00c5saka", "place": "village", "ref:se:scb": "5128", "wikidata": "Q2802737"}}, {"type": "node", "id": 1380338175, "lat": 58.4576112, "lon": 12.8578448, "tags": {"name": "Tranum", "place": "hamlet", "population": "67", "ref:se:scb": "S5569"}}, {"type": "node", "id": 1405298163, "lat": 58.3237365, "lon": 12.7615676, "tags": {"name": "Flakeberg", "place": "hamlet"}}, {"type": "node", "id": 1744196301, "lat": 58.3079463, "lon": 12.3718602, "tags": {"name": "Hol", "place": "hamlet", "population": "90", "ref:se:scb": "S5037"}}, {"type": "node", "id": 1853429586, "lat": 58.3485881, "lon": 12.8405011, "tags": {"name": "Sparl\u00f6sa", "place": "hamlet"}}, {"type": "node", "id": 2226881062, "lat": 58.3055758, "lon": 12.4039077, "tags": {"alt_name": "V\u00e4stra Tunhem", "name": "Tunhem", "place": "hamlet", "ref:se:pts:postort": "V\u00c4STRA TUNHEM"}}, {"type": "node", "id": 2236313289, "lat": 58.4421321, "lon": 12.7007633, "tags": {"name": "S\u00e5ten\u00e4s", "place": "hamlet", "population": "114", "ref:se:pts:postort": "S\u00c5TEN\u00c4S", "ref:se:scb": "S5541", "wikidata": "Q10688454"}}, {"type": "node", "id": 2237072189, "lat": 58.3581039, "lon": 12.4003624, "tags": {"name": "Varg\u00f6n", "place": "village", "population": "4919", "ref:se:pts:postort": "VARG\u00d6N", "ref:se:scb": "5112", "wikidata": "Q1986670"}}, {"type": "node", "id": 2290924156, "lat": 58.382685, "lon": 12.41426, "tags": {"name": "Nordkroken", "place": "village", "population": "423", "ref:se:scb": "4974", "wikidata": "Q2270716"}}, {"type": "node", "id": 2306761628, "lat": 58.4414952, "lon": 12.9417232, "tags": {"name": "Gillstad", "place": "hamlet", "population": "170", "ref:se:scb": "S5389"}}, {"type": "node", "id": 2306761631, "lat": 58.4547104, "lon": 13.0527324, "tags": {"name": "K\u00e5llands-\u00c5saka", "place": "hamlet", "population": "52", "ref:se:scb": "S4410"}}, {"type": "node", "id": 2306761632, "lat": 58.4904059, "lon": 12.9052493, "tags": {"name": "Marbog\u00e5rden", "place": "hamlet", "population": "82", "ref:se:scb": "S5477"}}, {"type": "node", "id": 2306761634, "lat": 58.4533853, "lon": 13.0256889, "tags": {"name": "Mellby", "place": "hamlet", "population": "160", "ref:se:scb": "S5485"}}, {"type": "node", "id": 2306761637, "lat": 58.3984639, "lon": 12.5673165, "tags": {"name": "V\u00e4nersn\u00e4s", "place": "hamlet", "population": "128", "ref:se:scb": "S5265"}}, {"type": "node", "id": 2316478084, "lat": 58.3161472, "lon": 12.3982706, "tags": {"name": "Floget", "place": "hamlet", "population": "76", "ref:se:scb": "S4965"}}, {"type": "node", "id": 2316478096, "lat": 58.4254624, "lon": 12.3257356, "tags": {"name": "Stigsberget", "place": "hamlet", "population": "103", "ref:se:scb": "S5537"}}, {"type": "node", "id": 2388794297, "lat": 58.2722885, "lon": 12.5091935, "tags": {"name": "Norra Bj\u00f6rke", "place": "village"}}, {"type": "node", "id": 2769230015, "lat": 58.4060156, "lon": 12.5362298, "tags": {"name": "\u00c5kers\u00e4ng", "place": "hamlet"}}, {"type": "node", "id": 3016341294, "lat": 58.2629894, "lon": 13.0677311, "tags": {"name": "Gammaltr\u00e5vad", "place": "hamlet"}}, {"type": "node", "id": 3016341295, "lat": 58.2295434, "lon": 13.0055125, "tags": {"name": "Rangeltorp", "place": "hamlet", "source": "Ekonomiska kartan"}}, {"type": "node", "id": 3016363355, "lat": 58.2425743, "lon": 13.0032705, "tags": {"name": "\u00d6numstorp", "place": "hamlet", "source": "Ekonomiska kartan"}}, {"type": "node", "id": 3139501250, "lat": 58.3413655, "lon": 12.6100952, "tags": {"name": "Bagg\u00e5rden", "place": "hamlet"}}, {"type": "node", "id": 3143069651, "lat": 58.3926495, "lon": 12.6488361, "tags": {"name": "Sj\u00f6ryd", "place": "hamlet"}}, {"type": "node", "id": 3155504499, "lat": 58.3641323, "lon": 12.6092745, "tags": {"name": "Mulltorp", "place": "hamlet"}}, {"type": "node", "id": 3401529062, "lat": 58.60165, "lon": 12.379746, "tags": {"name": "Lerhult", "place": "hamlet"}}, {"type": "node", "id": 3431432390, "lat": 58.2985887, "lon": 12.9610152, "tags": {"name": "Long", "place": "hamlet", "wikidata": "Q10569138", "wikipedia": "sv:Long, Longs socken"}}, {"type": "node", "id": 4044315493, "lat": 58.2529029, "lon": 12.3443359, "tags": {"name": "G\u00e4rdhem", "place": "hamlet"}}, {"type": "node", "id": 4059681744, "lat": 58.2141861, "lon": 13.0718904, "tags": {"name": "V\u00e4ssby", "place": "hamlet", "source": "Ekonomiska kartan"}}, {"type": "node", "id": 4068427749, "lat": 58.22256, "lon": 13.1257875, "tags": {"name": "\u00d6stb\u00e4ck", "place": "hamlet"}}, {"type": "node", "id": 4071345662, "lat": 58.2111433, "lon": 13.035942, "tags": {"name": "Boestorp", "place": "hamlet"}}, {"type": "node", "id": 4081643932, "lat": 58.2456486, "lon": 12.9522698, "tags": {"name": "H\u00e5lltorp", "place": "hamlet"}}, {"type": "node", "id": 4278109933, "lat": 58.2099666, "lon": 12.3698874, "tags": {"name": "Sl\u00e4tterna", "place": "hamlet"}}, {"type": "node", "id": 4343695384, "lat": 58.5964322, "lon": 12.593225, "tags": {"name": "Dalbergs\u00e5", "place": "hamlet", "source": "survey"}}, {"type": "node", "id": 4346451249, "lat": 58.6238132, "lon": 12.5086422, "tags": {"name": "Grinstad", "place": "village", "source": "survey", "wikidata": "Q10508859", "wikipedia": "sv:Grinstad"}}, {"type": "node", "id": 4346451254, "lat": 58.6042778, "lon": 12.4814001, "tags": {"name": "\u00c5sebro", "place": "village", "source": "survey", "wikidata": "Q10726883", "wikipedia": "sv:\u00c5sebro"}}, {"type": "node", "id": 4346515520, "lat": 58.5667195, "lon": 12.5457608, "tags": {"name": "Bodane", "place": "hamlet", "source": "survey"}}, {"type": "node", "id": 4346515521, "lat": 58.5764417, "lon": 12.4825825, "tags": {"name": "Bolstad", "place": "hamlet", "source": "survey"}}, {"type": "node", "id": 4346515527, "lat": 58.5896027, "lon": 12.4872768, "tags": {"name": "Nyg\u00e5rds\u00e5ker", "place": "hamlet", "source": "survey"}}, {"type": "node", "id": 4349677980, "lat": 58.3481475, "lon": 13.0805587, "tags": {"name": "Nordhalla", "place": "hamlet"}}, {"type": "node", "id": 4354588410, "lat": 58.5448499, "lon": 12.4079315, "tags": {"name": "Baggebol", "place": "hamlet", "source": "survey"}}, {"type": "node", "id": 4354889901, "lat": 58.5596026, "lon": 12.3788981, "tags": {"name": "Tveten", "place": "hamlet", "source": "survey"}}, {"type": "node", "id": 4357253725, "lat": 58.330344, "lon": 13.0333127, "tags": {"name": "H\u00e4llum", "place": "hamlet"}}, {"type": "node", "id": 4357253729, "lat": 58.3099486, "lon": 13.0732777, "tags": {"name": "T\u00f6restorp", "place": "hamlet"}}, {"type": "node", "id": 4384385861, "lat": 58.4590716, "lon": 12.347739, "tags": {"name": "R\u00f6nningen", "place": "hamlet"}}, {"type": "node", "id": 4398205951, "lat": 58.372181, "lon": 12.8800462, "tags": {"name": "Sl\u00e4dene", "place": "hamlet"}}, {"type": "node", "id": 4401118119, "lat": 58.3229848, "lon": 12.8813868, "tags": {"name": "Baljered", "place": "hamlet"}}, {"type": "node", "id": 4402464552, "lat": 58.3509042, "lon": 12.9376423, "tags": {"name": "Smedtofta", "place": "hamlet"}}, {"type": "node", "id": 4403916138, "lat": 58.3438657, "lon": 13.0195627, "tags": {"name": "Uvered", "place": "hamlet"}}, {"type": "node", "id": 4407428109, "lat": 58.3839536, "lon": 12.8970518, "tags": {"name": "Peru", "place": "hamlet"}}, {"type": "node", "id": 4407458069, "lat": 58.3219302, "lon": 12.8228631, "tags": {"name": "Ulvstorp", "place": "hamlet"}}, {"type": "node", "id": 4423937024, "lat": 58.4908988, "lon": 12.3767819, "tags": {"name": "K\u00e4ttarebol", "place": "hamlet"}}, {"type": "node", "id": 4423937035, "lat": 58.4895278, "lon": 12.4258489, "tags": {"name": "Sikhall", "place": "village"}}, {"type": "node", "id": 4424200864, "lat": 58.5151446, "lon": 12.3141101, "tags": {"name": "B\u00f6n", "place": "hamlet"}}, {"type": "node", "id": 4424200879, "lat": 58.5048104, "lon": 12.3044112, "tags": {"name": "Kalsrud", "place": "hamlet"}}, {"type": "node", "id": 4424200880, "lat": 58.5091765, "lon": 12.37104, "tags": {"name": "Karstorp", "place": "hamlet"}}, {"type": "node", "id": 4424200882, "lat": 58.4807159, "lon": 12.383244, "tags": {"name": "Kasen", "place": "hamlet"}}, {"type": "node", "id": 4424201189, "lat": 58.4761107, "lon": 12.3768443, "tags": {"name": "L\u00e5ngek\u00e4rr", "place": "hamlet"}}, {"type": "node", "id": 4424201192, "lat": 58.5170609, "lon": 12.3590612, "tags": {"name": "Mossen", "place": "hamlet"}}, {"type": "node", "id": 4424201194, "lat": 58.464748, "lon": 12.314676, "tags": {"name": "Norra Ekan\u00e4s", "place": "hamlet"}}, {"type": "node", "id": 4424201197, "lat": 58.4856724, "lon": 12.3546329, "tags": {"name": "Pjukemyren", "place": "hamlet"}}, {"type": "node", "id": 4424201389, "lat": 58.4896063, "lon": 12.2932774, "tags": {"name": "Ris", "place": "hamlet"}}, {"type": "node", "id": 4424201390, "lat": 58.5032578, "lon": 12.3728853, "tags": {"name": "Ristorp", "place": "hamlet"}}, {"type": "node", "id": 4424201398, "lat": 58.4707952, "lon": 12.3922911, "tags": {"name": "Sj\u00f6n", "place": "hamlet"}}, {"type": "node", "id": 4424201399, "lat": 58.4995861, "lon": 12.2933739, "tags": {"name": "Snix\u00e5s", "place": "hamlet"}}, {"type": "node", "id": 4424201407, "lat": 58.4750898, "lon": 12.3801058, "tags": {"name": "Timmervik", "place": "village"}}, {"type": "node", "id": 4424201410, "lat": 58.4576993, "lon": 12.3151481, "tags": {"name": "V\u00e4stra Ekan\u00e4s", "place": "hamlet"}}, {"type": "node", "id": 4424201419, "lat": 58.4570932, "lon": 12.3353049, "tags": {"name": "\u00d6stra Ekan\u00e4s", "place": "hamlet"}}, {"type": "node", "id": 4556331731, "lat": 58.4273846, "lon": 12.3302504, "tags": {"name": "B\u00e4singebo", "place": "hamlet", "source": "survey"}}, {"type": "node", "id": 4556331777, "lat": 58.4889863, "lon": 12.4001507, "tags": {"name": "\u00c5stebo", "place": "hamlet", "source": "survey"}}, {"type": "node", "id": 4858535459, "lat": 58.3778235, "lon": 12.7870559, "tags": {"name": "H\u00e5le", "place": "hamlet"}}, {"type": "node", "id": 4858536306, "lat": 58.3987884, "lon": 12.812081, "tags": {"name": "T\u00e4ng", "place": "hamlet"}}, {"type": "node", "id": 4860585922, "lat": 58.4089289, "lon": 12.8244567, "tags": {"name": "H\u00e4ljestena", "place": "hamlet"}}, {"type": "node", "id": 4895921336, "lat": 58.4060624, "lon": 13.1039107, "tags": {"name": "Lillebacka", "place": "hamlet"}}, {"type": "node", "id": 4897636798, "lat": 58.436806, "lon": 13.0885684, "tags": {"name": "Skofteby", "place": "hamlet"}}, {"type": "node", "id": 4900282998, "lat": 58.4090048, "lon": 13.0192655, "tags": {"name": "Russelbacka", "place": "hamlet"}}, {"type": "node", "id": 4962742804, "lat": 58.2107038, "lon": 12.9035389, "tags": {"name": "Tingsstaden", "place": "hamlet"}}, {"type": "node", "id": 4962811543, "lat": 58.2391301, "lon": 12.9218638, "tags": {"name": "Naum", "place": "hamlet"}}, {"type": "node", "id": 5009813945, "lat": 58.2849911, "lon": 12.7518225, "tags": {"name": "Lekunga", "place": "hamlet"}}, {"type": "node", "id": 5009814943, "lat": 58.2940874, "lon": 12.7656197, "tags": {"name": "Hyringa", "place": "hamlet"}}, {"type": "node", "id": 5009815641, "lat": 58.2890349, "lon": 12.7284336, "tags": {"name": "L\u00e4ngnum", "place": "hamlet"}}, {"type": "node", "id": 5010223299, "lat": 58.2075584, "lon": 12.7194321, "tags": {"name": "B\u00e4rebergs kyrkby", "place": "hamlet", "wikidata": "Q2057087"}}, {"type": "node", "id": 5012852866, "lat": 58.2105541, "lon": 12.8035676, "tags": {"name": "Stora Skatt\u00e5sa", "place": "hamlet"}}, {"type": "node", "id": 7010075298, "lat": 58.2438948, "lon": 12.4203712, "tags": {"name": "\u00c5saka", "place": "village"}}, {"type": "node", "id": 7108979175, "lat": 58.5389788, "lon": 13.0701256, "tags": {"name": "Lunna", "place": "hamlet"}}, {"type": "node", "id": 7108979176, "lat": 58.5444716, "lon": 13.0673897, "tags": {"name": "V\u00e4stan\u00e5ker", "place": "hamlet"}}, {"type": "node", "id": 7110891120, "lat": 58.5832099, "lon": 13.0690956, "tags": {"name": "Str\u00f6", "place": "hamlet"}}, {"type": "node", "id": 7111055902, "lat": 58.4526505, "lon": 13.079524, "tags": {"name": "Kv\u00e4num", "place": "hamlet"}}, {"type": "node", "id": 7113094598, "lat": 58.6073054, "lon": 13.0250001, "tags": {"name": "Dalvik", "place": "hamlet"}}, {"type": "node", "id": 7113094599, "lat": 58.6082554, "lon": 13.0224359, "tags": {"name": "Donslund", "place": "hamlet"}}, {"type": "node", "id": 7113141551, "lat": 58.5938173, "lon": 13.0128122, "tags": {"name": "Byskog", "place": "hamlet"}}, {"type": "node", "id": 7125775353, "lat": 58.5956399, "lon": 13.0863476, "tags": {"name": "Stola", "place": "hamlet"}}, {"type": "node", "id": 7125908066, "lat": 58.6026944, "lon": 13.0620253, "tags": {"name": "Hyllingsund", "place": "hamlet"}}, {"type": "node", "id": 7449863926, "lat": 58.2926182, "lon": 13.050275, "tags": {"name": "Karteg\u00e5rden", "place": "hamlet"}}, {"type": "node", "id": 7449891429, "lat": 58.3997669, "lon": 12.9422398, "tags": {"name": "Stora Munkebo", "place": "hamlet"}}, {"type": "node", "id": 7449892866, "lat": 58.6097172, "lon": 12.4707691, "tags": {"name": "Norra Blikserud", "place": "hamlet"}}, {"type": "node", "id": 7483253883, "lat": 58.3590405, "lon": 12.4452512, "tags": {"name": "J\u00e4rpetorp", "place": "hamlet"}}, {"type": "node", "id": 7483306803, "lat": 58.2481866, "lon": 12.4930366, "tags": {"name": "Stora Bred\u00e4ng", "place": "hamlet"}}, {"type": "node", "id": 7483827830, "lat": 58.4773272, "lon": 12.3006709, "tags": {"name": "S\u00f6dra Tveten", "place": "hamlet"}}, {"type": "node", "id": 7483871484, "lat": 58.5778764, "lon": 12.3241731, "tags": {"name": "V\u00e4stra Gatan", "place": "hamlet"}}, {"type": "node", "id": 7483872843, "lat": 58.6117097, "lon": 12.4618816, "tags": {"name": "S\u00f6dra Blikserud", "place": "hamlet"}}, {"type": "node", "id": 7483934458, "lat": 58.4505388, "lon": 12.3099763, "tags": {"name": "S\u00f6dra Eken\u00e4s", "place": "hamlet"}}, {"type": "node", "id": 7483947582, "lat": 58.585441, "lon": 12.298334, "tags": {"name": "B\u00f6n", "place": "hamlet"}}, {"type": "node", "id": 7483952176, "lat": 58.5365229, "lon": 12.4886795, "tags": {"name": "Norra Bodane", "place": "hamlet"}}, {"type": "node", "id": 7483985255, "lat": 58.5674946, "lon": 12.4408346, "tags": {"name": "Torgunnehagen", "place": "hamlet"}}, {"type": "node", "id": 7484017777, "lat": 58.6079269, "lon": 12.3273178, "tags": {"name": "Lilla Rud", "place": "hamlet"}}, {"type": "node", "id": 7484062369, "lat": 58.4437346, "lon": 12.2947636, "tags": {"name": "V\u00e4stra Flybo", "place": "hamlet"}}, {"type": "node", "id": 7484065810, "lat": 58.4289668, "lon": 12.3054549, "tags": {"name": "Kleverud", "place": "hamlet"}}, {"type": "node", "id": 7484080888, "lat": 58.4377921, "lon": 12.2978397, "tags": {"name": "\u00d6stra Flybo", "place": "hamlet"}}, {"type": "node", "id": 7484081289, "lat": 58.4367377, "lon": 12.2907239, "tags": {"name": "G\u00f6mman", "place": "hamlet"}}, {"type": "node", "id": 7484410545, "lat": 58.6172453, "lon": 12.3486266, "tags": {"name": "Berga", "place": "hamlet"}}, {"type": "node", "id": 7484426458, "lat": 58.5911954, "lon": 12.3233971, "tags": {"name": "T\u00e5sterud", "place": "hamlet"}}, {"type": "node", "id": 7484428361, "lat": 58.4478817, "lon": 12.3537166, "tags": {"name": "Dereviken", "place": "hamlet"}}, {"type": "node", "id": 7484439725, "lat": 58.6013324, "lon": 12.349478, "tags": {"name": "Myckel\u00e4ng", "place": "hamlet"}}, {"type": "node", "id": 7484449047, "lat": 58.4544418, "lon": 12.3703161, "tags": {"name": "Takan", "place": "hamlet"}}, {"type": "node", "id": 7484449267, "lat": 58.6128658, "lon": 12.3321838, "tags": {"name": "Makeberg", "place": "hamlet"}}, {"type": "node", "id": 7484453061, "lat": 58.6187467, "lon": 12.3237117, "tags": {"name": "H\u00f6gen", "place": "hamlet"}}, {"type": "node", "id": 7484466183, "lat": 58.5546578, "lon": 12.3650954, "tags": {"name": "Rud", "place": "hamlet"}}, {"type": "node", "id": 7484475528, "lat": 58.5842765, "lon": 12.3228418, "tags": {"name": "Grubbetorp", "place": "hamlet"}}, {"type": "node", "id": 7484479977, "lat": 58.5694592, "lon": 12.361194, "tags": {"name": "Holm", "place": "hamlet"}}, {"type": "node", "id": 7484487740, "lat": 58.5829897, "lon": 12.3454291, "tags": {"name": "Moryr", "place": "hamlet"}}, {"type": "node", "id": 7484508770, "lat": 58.5727532, "lon": 12.3392544, "tags": {"name": "Dyreh\u00f6g", "place": "hamlet"}}, {"type": "node", "id": 7484510605, "lat": 58.5656903, "lon": 12.3712707, "tags": {"name": "\u00d6stebyn", "place": "hamlet"}}, {"type": "node", "id": 7484526432, "lat": 58.5443107, "lon": 12.3473419, "tags": {"name": "Kr\u00f6serud", "place": "hamlet"}}, {"type": "node", "id": 7484531427, "lat": 58.5454225, "lon": 12.3256002, "tags": {"name": "Bredtvet", "place": "hamlet"}}, {"type": "node", "id": 7484531558, "lat": 58.5144191, "lon": 12.4153362, "tags": {"name": "H\u00e4ljerud", "place": "hamlet"}}, {"type": "node", "id": 7484536833, "lat": 58.5262009, "lon": 12.3545679, "tags": {"name": "Risb\u00e4ck", "place": "hamlet"}}, {"type": "node", "id": 7484542833, "lat": 58.5389513, "lon": 12.3730736, "tags": {"name": "R\u00f6kila", "place": "hamlet"}}, {"type": "node", "id": 7484567322, "lat": 58.5076655, "lon": 12.406184, "tags": {"name": "Berg", "place": "hamlet"}}, {"type": "node", "id": 7484571545, "lat": 58.503775, "lon": 12.4301971, "tags": {"name": "B\u00f6n", "place": "hamlet"}}, {"type": "node", "id": 7484571546, "lat": 58.572346, "lon": 12.3828398, "tags": {"name": "Torp", "place": "hamlet"}}, {"type": "node", "id": 7484573440, "lat": 58.5556527, "lon": 12.394651, "tags": {"name": "Sm\u00f6rtvet", "place": "hamlet"}}, {"type": "node", "id": 7484573629, "lat": 58.5257513, "lon": 12.3983109, "tags": {"name": "Tromberg", "place": "hamlet"}}, {"type": "node", "id": 7484575958, "lat": 58.5689063, "lon": 12.3957581, "tags": {"name": "Skrapan", "place": "hamlet"}}, {"type": "node", "id": 7484584809, "lat": 58.5586072, "lon": 12.3899029, "tags": {"name": "Backa", "place": "hamlet"}}, {"type": "node", "id": 7484590467, "lat": 58.5656101, "lon": 12.3909298, "tags": {"name": "L\u00e5ttsbyn", "place": "hamlet"}}, {"type": "node", "id": 7484590469, "lat": 58.5355186, "lon": 12.3936449, "tags": {"name": "Rusenberg", "place": "hamlet"}}, {"type": "node", "id": 7484596085, "lat": 58.5610241, "lon": 12.4111804, "tags": {"name": "Berga", "place": "hamlet"}}, {"type": "node", "id": 7484597101, "lat": 58.5426817, "lon": 12.3989501, "tags": {"name": "Slobacka", "place": "hamlet"}}, {"type": "node", "id": 7484608776, "lat": 58.5294108, "lon": 12.4058301, "tags": {"name": "Troneberg", "place": "hamlet"}}, {"type": "node", "id": 7484617763, "lat": 58.2207716, "lon": 12.4026835, "tags": {"name": "Smedstorp", "place": "hamlet"}}, {"type": "node", "id": 7484618284, "lat": 58.2470306, "lon": 12.4330251, "tags": {"name": "Storeg\u00e5rden", "place": "hamlet"}}, {"type": "node", "id": 7484619863, "lat": 58.2417966, "lon": 12.4025345, "tags": {"name": "Gubbeg\u00e5rden", "place": "hamlet"}}, {"type": "node", "id": 7484631320, "lat": 58.2495928, "lon": 12.3729797, "tags": {"name": "Galltorp", "place": "hamlet"}}, {"type": "node", "id": 7484635990, "lat": 58.1980979, "lon": 12.4915124, "tags": {"name": "Svalehult", "place": "hamlet"}}, {"type": "node", "id": 7484640929, "lat": 58.2205218, "lon": 12.3908824, "tags": {"name": "Berg", "place": "hamlet"}}, {"type": "node", "id": 7484641170, "lat": 58.2198937, "lon": 12.3712082, "tags": {"name": "Dromsered", "place": "hamlet"}}, {"type": "node", "id": 7484649773, "lat": 58.607696, "lon": 12.4037, "tags": {"name": "G\u00f6byn", "place": "hamlet"}}, {"type": "node", "id": 7484650383, "lat": 58.2247142, "lon": 12.3652816, "tags": {"name": "\u00d6ventorp", "place": "hamlet"}}, {"type": "node", "id": 7484653026, "lat": 58.2237932, "lon": 12.3817004, "tags": {"name": "Esg\u00e4rdtorp", "place": "hamlet"}}, {"type": "node", "id": 7484675377, "lat": 58.2166592, "lon": 12.4357132, "tags": {"name": "Velanda", "place": "hamlet"}}, {"type": "node", "id": 7484675829, "lat": 58.2347459, "lon": 12.4689749, "tags": {"name": "S\u00e5lebo", "place": "hamlet"}}, {"type": "node", "id": 7484676219, "lat": 58.2154842, "lon": 12.3678216, "tags": {"name": "Gullered", "place": "hamlet"}}, {"type": "node", "id": 7484694082, "lat": 58.2551812, "lon": 12.4397492, "tags": {"name": "\u00d6stanb\u00e4ck", "place": "hamlet"}}, {"type": "node", "id": 7484696021, "lat": 58.2704564, "lon": 12.4415113, "tags": {"name": "Skalltorp", "place": "hamlet"}}, {"type": "node", "id": 7484711054, "lat": 58.5798244, "lon": 12.4055761, "tags": {"name": "B\u00f6n", "place": "hamlet"}}, {"type": "node", "id": 7484713243, "lat": 58.256446, "lon": 12.4049081, "tags": {"name": "Lerum", "place": "hamlet"}}, {"type": "node", "id": 7484718097, "lat": 58.5744257, "lon": 12.4773635, "tags": {"name": "Glysbyn", "place": "hamlet"}}, {"type": "node", "id": 7484720051, "lat": 58.5719309, "lon": 12.4583475, "tags": {"name": "\u00c5llerud", "place": "hamlet"}}, {"type": "node", "id": 7484720242, "lat": 58.2552637, "lon": 12.3616447, "tags": {"name": "H\u00f6gen", "place": "hamlet"}}, {"type": "node", "id": 7484728423, "lat": 58.2661974, "lon": 12.409454, "tags": {"name": "Uppeg\u00e5rden", "place": "hamlet"}}, {"type": "node", "id": 7484733759, "lat": 58.2632122, "lon": 12.4027143, "tags": {"name": "Brunnered", "place": "hamlet"}}, {"type": "node", "id": 7484733760, "lat": 58.5427802, "lon": 12.440592, "tags": {"name": "K\u00e4rra", "place": "hamlet"}}, {"type": "node", "id": 7484736045, "lat": 58.5606861, "lon": 12.4627218, "tags": {"name": "R\u00e5gtvet", "place": "hamlet"}}, {"type": "node", "id": 7484741468, "lat": 58.2694372, "lon": 12.3985697, "tags": {"name": "H\u00e4rstad", "place": "hamlet"}}, {"type": "node", "id": 7484746427, "lat": 58.5546318, "lon": 12.4253098, "tags": {"name": "V\u00e4ssby", "place": "hamlet"}}, {"type": "node", "id": 7484746895, "lat": 58.2563739, "lon": 12.3715236, "tags": {"name": "Rustorp", "place": "hamlet"}}, {"type": "node", "id": 7484750387, "lat": 58.5663053, "lon": 12.4262856, "tags": {"name": "Jonstorp", "place": "hamlet"}}, {"type": "node", "id": 7484754967, "lat": 58.5227944, "lon": 12.4259339, "tags": {"name": "Skerrud", "place": "hamlet"}}, {"type": "node", "id": 7484755421, "lat": 58.5375583, "lon": 12.4333254, "tags": {"name": "B\u00e4cken", "place": "hamlet"}}, {"type": "node", "id": 7484757738, "lat": 58.545012, "lon": 12.4302049, "tags": {"name": "Torpane", "place": "hamlet"}}, {"type": "node", "id": 7484762599, "lat": 58.272612, "lon": 12.3471752, "tags": {"name": "Lunden", "place": "hamlet"}}, {"type": "node", "id": 7484763714, "lat": 58.5419012, "lon": 12.4756629, "tags": {"name": "Simonstorp", "place": "hamlet"}}, {"type": "node", "id": 7484768992, "lat": 58.603407, "lon": 12.4647843, "tags": {"name": "Kr\u00e4ppersrud", "place": "hamlet"}}, {"type": "node", "id": 7484769968, "lat": 58.2842598, "lon": 12.4143439, "tags": {"name": "Fristorp", "place": "hamlet"}}, {"type": "node", "id": 7484770134, "lat": 58.2973615, "lon": 12.3817283, "tags": {"name": "Bryggum", "place": "hamlet"}}, {"type": "node", "id": 7484773174, "lat": 58.2911458, "lon": 12.3906172, "tags": {"name": "Mulltorp", "place": "hamlet"}}, {"type": "node", "id": 7484773302, "lat": 58.2540151, "lon": 12.3460775, "tags": {"name": "Artorp", "place": "hamlet"}}, {"type": "node", "id": 7484777007, "lat": 58.267011, "lon": 12.3336796, "tags": {"name": "Halltorp", "place": "hamlet"}}, {"type": "node", "id": 7484779635, "lat": 58.5215513, "lon": 12.4394592, "tags": {"name": "Tobyn", "place": "hamlet"}}, {"type": "node", "id": 7484785662, "lat": 58.3081641, "lon": 12.3735496, "tags": {"name": "Holstorp", "place": "hamlet"}}, {"type": "node", "id": 7484790502, "lat": 58.2788107, "lon": 12.4445423, "tags": {"name": "B\u00f6rsle", "place": "hamlet"}}, {"type": "node", "id": 7484790919, "lat": 58.2861444, "lon": 12.4336054, "tags": {"name": "Sk\u00f6storp", "place": "hamlet"}}, {"type": "node", "id": 7484792824, "lat": 58.2756897, "lon": 12.4915697, "tags": {"name": "\u00c4ngen", "place": "hamlet"}}, {"type": "node", "id": 7484793320, "lat": 58.3122618, "lon": 12.3770064, "tags": {"name": "Garteg\u00e5rden", "place": "hamlet"}}, {"type": "node", "id": 7484799707, "lat": 58.3035037, "lon": 12.3779964, "tags": {"name": "Artorp", "place": "hamlet"}}, {"type": "node", "id": 7484807457, "lat": 58.3172692, "lon": 12.3749279, "tags": {"name": "Koppeg\u00e5rden", "place": "hamlet"}}, {"type": "node", "id": 7484810762, "lat": 58.3015162, "lon": 12.3722542, "tags": {"name": "\u00c5sen", "place": "hamlet"}}, {"type": "node", "id": 7484814074, "lat": 58.6177562, "lon": 12.4388904, "tags": {"name": "Sk\u00e5kerud", "place": "hamlet"}}, {"type": "node", "id": 7484814238, "lat": 58.3209492, "lon": 12.3698895, "tags": {"name": "Kroken", "place": "hamlet"}}, {"type": "node", "id": 7484815430, "lat": 58.3013858, "lon": 12.3572263, "tags": {"name": "\u00d6n", "place": "hamlet"}}, {"type": "node", "id": 7484815701, "lat": 58.3232709, "lon": 12.376208, "tags": {"name": "Forstena", "place": "hamlet"}}, {"type": "node", "id": 7484838871, "lat": 58.5994487, "lon": 12.4261226, "tags": {"name": "Berg", "place": "hamlet"}}, {"type": "node", "id": 7484846493, "lat": 58.3607532, "lon": 12.4595815, "tags": {"name": "Lilleskog", "place": "hamlet"}}, {"type": "node", "id": 7484848118, "lat": 58.5931804, "lon": 12.4358136, "tags": {"name": "Bakerud", "place": "hamlet"}}, {"type": "node", "id": 7484848411, "lat": 58.5774484, "lon": 12.4552119, "tags": {"name": "Gr\u00e5f\u00e5lerud", "place": "hamlet"}}, {"type": "node", "id": 7484856289, "lat": 58.5794493, "lon": 12.4287636, "tags": {"name": "Lefors", "place": "hamlet"}}, {"type": "node", "id": 7484869490, "lat": 58.4912668, "lon": 12.4536779, "tags": {"name": "G\u00e4lln\u00e4s", "place": "hamlet"}}, {"type": "node", "id": 7484884638, "lat": 58.5144835, "lon": 12.4509136, "tags": {"name": "Fagerhult", "place": "hamlet"}}, {"type": "node", "id": 7484884952, "lat": 58.5056937, "lon": 12.4680322, "tags": {"name": "Sannebo", "place": "hamlet"}}, {"type": "node", "id": 7484896283, "lat": 58.4993717, "lon": 12.4365777, "tags": {"name": "S\u00f6rbo", "place": "hamlet"}}, {"type": "node", "id": 7484900090, "lat": 58.5052517, "lon": 12.4484415, "tags": {"name": "Stor\u00e4ngen", "place": "hamlet"}}, {"type": "node", "id": 7484910104, "lat": 58.6172024, "lon": 12.4922615, "tags": {"name": "Stommen", "place": "hamlet"}}, {"type": "node", "id": 7484910364, "lat": 58.5703967, "lon": 12.4937176, "tags": {"name": "T\u00f6ra", "place": "hamlet"}}, {"type": "node", "id": 7484917385, "lat": 58.6054758, "lon": 12.4891582, "tags": {"name": "Rud", "place": "hamlet"}}, {"type": "node", "id": 7485343375, "lat": 58.5539618, "lon": 12.2858698, "tags": {"name": "H\u00f6gen", "place": "hamlet"}}, {"type": "node", "id": 7485356918, "lat": 58.5392863, "lon": 12.3199358, "tags": {"name": "Salbo", "place": "hamlet"}}, {"type": "node", "id": 7485358360, "lat": 58.5373358, "lon": 12.3139638, "tags": {"name": "Nunntorp", "place": "hamlet"}}, {"type": "node", "id": 7485362959, "lat": 58.5538561, "lon": 12.3013345, "tags": {"name": "Heden", "place": "hamlet"}}, {"type": "node", "id": 7485364995, "lat": 58.5260112, "lon": 12.3006063, "tags": {"name": "Valberg", "place": "hamlet"}}, {"type": "node", "id": 7485365207, "lat": 58.5224294, "lon": 12.3037328, "tags": {"name": "Gr\u00f6neh\u00f6g", "place": "hamlet"}}, {"type": "node", "id": 7485365828, "lat": 58.5163707, "lon": 12.2967959, "tags": {"name": "R\u00f6storp", "place": "hamlet"}}, {"type": "node", "id": 7485399365, "lat": 58.5707995, "lon": 12.2870946, "tags": {"name": "Gunnersbyn", "place": "hamlet"}}, {"type": "node", "id": 7485413634, "lat": 58.1907966, "lon": 12.3133914, "tags": {"name": "Jordbron", "place": "hamlet"}}, {"type": "node", "id": 7485421144, "lat": 58.5597213, "lon": 12.2824665, "tags": {"name": "Ryr", "place": "hamlet"}}, {"type": "node", "id": 7485421277, "lat": 58.5759524, "lon": 12.2897398, "tags": {"name": "Lers\u00e4ter", "place": "hamlet"}}, {"type": "node", "id": 7485422103, "lat": 58.5704461, "lon": 12.349358, "tags": {"name": "T\u00e5n", "place": "hamlet"}}, {"type": "node", "id": 7485425260, "lat": 58.5885001, "lon": 12.2798038, "tags": {"name": "T\u00f6restorp", "place": "hamlet"}}, {"type": "node", "id": 7485425700, "lat": 58.5975369, "lon": 12.3032924, "tags": {"name": "Holmerud", "place": "hamlet"}}, {"type": "node", "id": 7485436889, "lat": 58.5811404, "lon": 12.3036549, "tags": {"name": "Anebyn", "place": "hamlet"}}, {"type": "node", "id": 7485443800, "lat": 58.2592403, "lon": 12.3277674, "tags": {"name": "Bastorp", "place": "hamlet"}}, {"type": "node", "id": 7485446301, "lat": 58.2532111, "lon": 12.3187947, "tags": {"name": "Bol", "place": "hamlet"}}, {"type": "node", "id": 7485449450, "lat": 58.5105447, "lon": 12.372797, "tags": {"name": "Torstorp", "place": "hamlet"}}, {"type": "node", "id": 7485487432, "lat": 58.2475112, "lon": 12.352682, "tags": {"name": "Bagg\u00e5rden", "place": "hamlet"}}, {"type": "node", "id": 7485492750, "lat": 58.2527083, "lon": 12.3389814, "tags": {"name": "G\u00e4rdhemsby", "place": "hamlet"}}, {"type": "node", "id": 7485494295, "lat": 58.2406561, "lon": 12.3118532, "tags": {"name": "F\u00e5storp", "place": "hamlet"}}, {"type": "node", "id": 7485496900, "lat": 58.2404497, "lon": 12.3294542, "tags": {"name": "J\u00f6nsberg", "place": "hamlet"}}, {"type": "node", "id": 7485514113, "lat": 58.2351394, "lon": 12.3299213, "tags": {"name": "V\u00e5tevalla", "place": "hamlet"}}, {"type": "node", "id": 7485522867, "lat": 58.2233429, "lon": 12.3589616, "tags": {"name": "Enered", "place": "hamlet"}}, {"type": "node", "id": 7485529090, "lat": 58.2322628, "lon": 12.3592359, "tags": {"name": "Sk\u00e4rslycke", "place": "hamlet"}}, {"type": "node", "id": 7485554092, "lat": 58.1946808, "lon": 12.3491268, "tags": {"name": "Albog\u00e5rden", "place": "hamlet"}}, {"type": "node", "id": 7485554202, "lat": 58.1964086, "lon": 12.3631233, "tags": {"name": "Ekedalen", "place": "hamlet"}}, {"type": "node", "id": 7485590780, "lat": 58.3294163, "lon": 12.3426451, "tags": {"name": "G\u00e4ddeb\u00e4ck", "place": "hamlet"}}, {"type": "node", "id": 7485613787, "lat": 58.3178526, "lon": 12.3635106, "tags": {"name": "H\u00f6ga", "place": "hamlet"}}, {"type": "node", "id": 7485786784, "lat": 58.3997524, "lon": 12.292573, "tags": {"name": "Liden", "place": "hamlet"}}, {"type": "node", "id": 7485843531, "lat": 58.3652507, "lon": 12.2962419, "tags": {"name": "Skaven", "place": "hamlet"}}, {"type": "node", "id": 7485844632, "lat": 58.3535035, "lon": 12.2990888, "tags": {"name": "Br\u00e4tteg\u00e5rden", "place": "hamlet"}}, {"type": "node", "id": 7491408076, "lat": 58.2206865, "lon": 13.0153223, "tags": {"name": "Lilla G\u00e4ran", "place": "hamlet"}}, {"type": "node", "id": 7491434449, "lat": 58.3048326, "lon": 13.017689, "tags": {"name": "Klockareg\u00e5rden", "place": "hamlet"}}, {"type": "node", "id": 7491454175, "lat": 58.3089128, "lon": 13.0766244, "tags": {"name": "M\u00e5ns-Jonsg\u00e5rden", "place": "hamlet"}}, {"type": "node", "id": 7491488677, "lat": 58.2164318, "lon": 13.074053, "tags": {"name": "Lassag\u00e5rden", "place": "hamlet"}}, {"type": "node", "id": 7491506472, "lat": 58.2897017, "lon": 13.0889604, "tags": {"name": "Stora Noleby", "place": "hamlet"}}, {"type": "node", "id": 7491511959, "lat": 58.2887662, "lon": 13.0358225, "tags": {"name": "Baseg\u00e5rden", "place": "hamlet"}}, {"type": "node", "id": 7491517860, "lat": 58.440585, "lon": 12.9681163, "tags": {"name": "Bengt-Svensg\u00e5rden", "place": "hamlet"}}, {"type": "node", "id": 7491518611, "lat": 58.523983, "lon": 13.0025353, "tags": {"name": "Ambj\u00f6rnsg\u00e5rden", "place": "hamlet"}}, {"type": "node", "id": 7491518836, "lat": 58.3630792, "lon": 13.0648552, "tags": {"name": "Karlsg\u00e5rden", "place": "hamlet"}}, {"type": "node", "id": 7491520588, "lat": 58.3700532, "lon": 12.9665479, "tags": {"name": "Ambj\u00f6rnsg\u00e5rden", "place": "hamlet"}}, {"type": "node", "id": 7491520703, "lat": 58.2779558, "lon": 12.9384095, "tags": {"name": "Tr\u00e5vadsg\u00e5rden", "place": "hamlet"}}, {"type": "node", "id": 7491522027, "lat": 58.2229347, "lon": 13.0741271, "tags": {"name": "Arvidsg\u00e5rden", "place": "hamlet"}}, {"type": "node", "id": 7491530869, "lat": 58.5440505, "lon": 13.0161613, "tags": {"name": "Lagmansg\u00e5rden", "place": "hamlet"}}, {"type": "node", "id": 7491562549, "lat": 58.4287087, "lon": 12.9417681, "tags": {"name": "Backg\u00e5rden", "place": "hamlet"}}, {"type": "node", "id": 7491573069, "lat": 58.3612559, "lon": 12.9400895, "tags": {"name": "Kvisteg\u00e5rden", "place": "hamlet"}}, {"type": "node", "id": 7491581937, "lat": 58.3849826, "lon": 13.0858429, "tags": {"name": "Sven Bengtsg\u00e5rden", "place": "hamlet"}}, {"type": "node", "id": 7491618998, "lat": 58.5528395, "lon": 12.9670177, "tags": {"name": "Fr\u00e4mmestad", "place": "hamlet"}}, {"type": "node", "id": 7491625239, "lat": 58.2174432, "lon": 13.0544025, "tags": {"name": "Flinkag\u00e5rden", "place": "hamlet"}}, {"type": "node", "id": 7491638660, "lat": 58.2443372, "lon": 12.938462, "tags": {"name": "Jutag\u00e5rden", "place": "hamlet"}}, {"type": "node", "id": 7491664262, "lat": 58.417587, "lon": 13.077768, "tags": {"name": "Algutsg\u00e5rden", "place": "hamlet"}}, {"type": "node", "id": 7491696811, "lat": 58.2642071, "lon": 13.0398807, "tags": {"name": "Stora Algutstorp", "place": "hamlet"}}, {"type": "node", "id": 7491740164, "lat": 58.2091451, "lon": 13.0843037, "tags": {"name": "Stora H\u00f6kag\u00e5rden", "place": "hamlet"}}, {"type": "node", "id": 7491742703, "lat": 58.2796935, "lon": 12.9532894, "tags": {"name": "Grossg\u00e5rden", "place": "hamlet"}}, {"type": "node", "id": 7491756256, "lat": 58.2771744, "lon": 13.092005, "tags": {"name": "Bremsag\u00e5rden", "place": "hamlet"}}, {"type": "node", "id": 7491758829, "lat": 58.2247378, "lon": 13.0543772, "tags": {"name": "Mellomg\u00e5rden", "place": "hamlet"}}, {"type": "node", "id": 7491759242, "lat": 58.2323934, "lon": 13.0426825, "tags": {"name": "Stora Tomten", "place": "hamlet"}}, {"type": "node", "id": 7491759575, "lat": 58.2133901, "lon": 13.1276709, "tags": {"name": "Anders-Helgesg\u00e5rden", "place": "hamlet"}}, {"type": "node", "id": 7491764663, "lat": 58.227635, "lon": 13.0382106, "tags": {"name": "Lilla H\u00f6kag\u00e5rden", "place": "hamlet"}}, {"type": "node", "id": 7491807654, "lat": 58.40849, "lon": 13.0796685, "tags": {"name": "M\u00e5nsag\u00e5rden", "place": "hamlet"}}, {"type": "node", "id": 7491817109, "lat": 58.3505699, "lon": 13.0964524, "tags": {"name": "K\u00e5lleg\u00e5rden", "place": "hamlet"}}, {"type": "node", "id": 7491832045, "lat": 58.3119434, "lon": 13.111215, "tags": {"name": "Skumpag\u00e5rden", "place": "hamlet"}}, {"type": "node", "id": 7491833106, "lat": 58.2563463, "lon": 12.9895647, "tags": {"name": "Kl\u00f6vag\u00e5rden", "place": "hamlet"}}, {"type": "node", "id": 7491860511, "lat": 58.3156715, "lon": 13.0905805, "tags": {"name": "Stora \u00c5sa", "place": "hamlet"}}, {"type": "node", "id": 7491870623, "lat": 58.2525752, "lon": 12.9395021, "tags": {"name": "H\u00e5kan-M\u00e5nsg\u00e5rden", "place": "hamlet"}}, {"type": "node", "id": 7491906404, "lat": 58.2395745, "lon": 12.9552913, "tags": {"name": "Blankg\u00e5rden", "place": "hamlet"}}, {"type": "node", "id": 7491908940, "lat": 58.2233945, "lon": 13.092203, "tags": {"name": "Bengt-Helgesg\u00e5rden", "place": "hamlet"}}, {"type": "node", "id": 7491918646, "lat": 58.2674115, "lon": 13.0116291, "tags": {"name": "Kronog\u00e5rden", "place": "hamlet"}}, {"type": "node", "id": 7491973203, "lat": 58.5107899, "lon": 12.9710393, "tags": {"name": "Fr\u00f6jdeg\u00e5rden", "place": "hamlet"}}, {"type": "node", "id": 7491974517, "lat": 58.3103747, "lon": 12.9878995, "tags": {"name": "Jonsg\u00e5rden", "place": "hamlet"}}, {"type": "node", "id": 7492009560, "lat": 58.4549584, "lon": 13.0817332, "tags": {"name": "Skatteg\u00e5rden", "place": "hamlet"}}, {"type": "node", "id": 7492024907, "lat": 58.3747641, "lon": 13.0177814, "tags": {"name": "Kristiansg\u00e5rden", "place": "hamlet"}}, {"type": "node", "id": 7492027115, "lat": 58.3581376, "lon": 13.0512301, "tags": {"name": "Lars-Larsg\u00e5rden", "place": "hamlet"}}, {"type": "node", "id": 7492037209, "lat": 58.5467136, "lon": 13.0003427, "tags": {"name": "Skatteg\u00e5rden", "place": "hamlet"}}, {"type": "node", "id": 7492057733, "lat": 58.3182176, "lon": 12.9638733, "tags": {"name": "Skatteg\u00e5rden", "place": "hamlet"}}, {"type": "node", "id": 7492058347, "lat": 58.2880312, "lon": 12.9675845, "tags": {"name": "Per-Olsg\u00e5rden", "place": "hamlet"}}, {"type": "node", "id": 7492058789, "lat": 58.3144347, "lon": 12.9515183, "tags": {"name": "Fr\u00e4lseg\u00e5rden", "place": "hamlet"}}, {"type": "node", "id": 7492062882, "lat": 58.3377464, "lon": 12.9556819, "tags": {"name": "\u00d6sterg\u00e5rden", "place": "hamlet"}}, {"type": "node", "id": 7492065178, "lat": 58.3469697, "lon": 12.9584114, "tags": {"name": "Smedtofta g\u00e5rd", "place": "hamlet"}}, {"type": "node", "id": 7492614240, "lat": 58.2717999, "lon": 12.9652033, "tags": {"name": "Lassag\u00e5rden", "place": "hamlet"}}, {"type": "node", "id": 7492631073, "lat": 58.2276958, "lon": 12.9409457, "tags": {"name": "Hillebo", "place": "hamlet"}}, {"type": "node", "id": 7492643798, "lat": 58.2088924, "lon": 12.9427992, "tags": {"name": "Ennerdalen", "place": "hamlet"}}, {"type": "node", "id": 7492644987, "lat": 58.2698934, "lon": 13.0043816, "tags": {"name": "Ek", "place": "hamlet"}}, {"type": "node", "id": 7492650569, "lat": 58.2529141, "lon": 12.9787319, "tags": {"name": "Heljeved", "place": "hamlet"}}, {"type": "node", "id": 7492652098, "lat": 58.243096, "lon": 12.983397, "tags": {"name": "\u00d6num", "place": "hamlet"}}, {"type": "node", "id": 7492664723, "lat": 58.3066137, "lon": 12.953395, "tags": {"name": "K\u00e5sentorp", "place": "hamlet"}}, {"type": "node", "id": 7492676126, "lat": 58.2353035, "lon": 12.9553853, "tags": {"name": "Dampetorp", "place": "hamlet"}}, {"type": "node", "id": 7492686610, "lat": 58.2243653, "lon": 12.9698832, "tags": {"name": "K\u00e4ttilstorp", "place": "hamlet"}}, {"type": "node", "id": 7492694596, "lat": 58.2222214, "lon": 12.9428904, "tags": {"name": "Backen", "place": "hamlet"}}, {"type": "node", "id": 7492695083, "lat": 58.3185383, "lon": 12.9490859, "tags": {"name": "Rytter\u00e5s", "place": "hamlet"}}, {"type": "node", "id": 7492698946, "lat": 58.2898122, "lon": 12.9595341, "tags": {"name": "Stommen", "place": "hamlet"}}, {"type": "node", "id": 7492698947, "lat": 58.2801063, "lon": 12.9703759, "tags": {"name": "Anders-Larsg\u00e5rden", "place": "hamlet"}}, {"type": "node", "id": 7492709953, "lat": 58.2088387, "lon": 12.9714671, "tags": {"name": "Gruvad", "place": "hamlet"}}, {"type": "node", "id": 7492713858, "lat": 58.2174791, "lon": 12.9900431, "tags": {"name": "Sandvadet", "place": "hamlet"}}, {"type": "node", "id": 7492714880, "lat": 58.2183613, "lon": 13.009471, "tags": {"name": "Kroken", "place": "hamlet"}}, {"type": "node", "id": 7492729878, "lat": 58.2953853, "lon": 12.9817879, "tags": {"name": "Lagmanstorp", "place": "hamlet"}}, {"type": "node", "id": 7492739043, "lat": 58.2923551, "lon": 13.0754407, "tags": {"name": "\u00c5rebo", "place": "hamlet"}}, {"type": "node", "id": 7492744428, "lat": 58.2891605, "lon": 13.0591116, "tags": {"name": "D\u00f6nstorp", "place": "hamlet"}}, {"type": "node", "id": 7492803730, "lat": 58.2946792, "lon": 13.0199292, "tags": {"name": "Bya", "place": "hamlet"}}, {"type": "node", "id": 7492893367, "lat": 58.2826733, "lon": 13.0115937, "tags": {"name": "Skatofta", "place": "hamlet"}}, {"type": "node", "id": 7493029539, "lat": 58.2086743, "lon": 13.0691628, "tags": {"name": "B\u00e4ckebo", "place": "hamlet"}}, {"type": "node", "id": 7493038666, "lat": 58.2057199, "lon": 13.0188252, "tags": {"name": "Kaggetorp", "place": "hamlet"}}, {"type": "node", "id": 7493171145, "lat": 58.2094402, "lon": 13.0148557, "tags": {"name": "Hj\u00e4lmebacke", "place": "hamlet"}}, {"type": "node", "id": 7493190158, "lat": 58.2413061, "lon": 13.0690889, "tags": {"name": "Nolg\u00e5rden", "place": "hamlet"}}, {"type": "node", "id": 7493393469, "lat": 58.2350446, "lon": 13.050426, "tags": {"name": "Fr\u00e4lseg\u00e5rden", "place": "hamlet"}}, {"type": "node", "id": 7493488250, "lat": 58.2741701, "lon": 13.0322101, "tags": {"name": "Kyrketorp", "place": "hamlet"}}, {"type": "node", "id": 7493489280, "lat": 58.2209734, "lon": 13.0272458, "tags": {"name": "Stora G\u00e4ran", "place": "hamlet"}}, {"type": "node", "id": 7493502695, "lat": 58.2269025, "lon": 13.0461019, "tags": {"name": "Ranag\u00e5rden", "place": "hamlet"}}, {"type": "node", "id": 7493867744, "lat": 58.2723383, "lon": 13.0241775, "tags": {"name": "Ekaberg", "place": "hamlet"}}, {"type": "node", "id": 7493888632, "lat": 58.2550591, "lon": 13.0390175, "tags": {"name": "Fr\u00e4lseg\u00e5rden", "place": "hamlet"}}, {"type": "node", "id": 7493897531, "lat": 58.2529706, "lon": 13.038839, "tags": {"name": "Duskebo", "place": "hamlet"}}, {"type": "node", "id": 7493910115, "lat": 58.3224887, "lon": 13.1006255, "tags": {"name": "Kajseg\u00e5rden", "place": "hamlet"}}, {"type": "node", "id": 7493911688, "lat": 58.3226224, "lon": 13.094629, "tags": {"name": "Nyg\u00e5rden", "place": "hamlet"}}, {"type": "node", "id": 7493912101, "lat": 58.2102954, "lon": 13.1066254, "tags": {"name": "Persg\u00e5rden", "place": "hamlet"}}, {"type": "node", "id": 7493913677, "lat": 58.3168773, "lon": 13.1204621, "tags": {"name": "Korsg\u00e5rden", "place": "hamlet"}}, {"type": "node", "id": 7493919052, "lat": 58.3281605, "lon": 13.1144849, "tags": {"name": "Pr\u00e4steg\u00e5rden", "place": "hamlet"}}, {"type": "node", "id": 7493936960, "lat": 58.2322823, "lon": 13.0941779, "tags": {"name": "Nolg\u00e5rden", "place": "hamlet"}}, {"type": "node", "id": 7493949508, "lat": 58.2759552, "lon": 13.1199626, "tags": {"name": "Hinstorp", "place": "hamlet"}}, {"type": "node", "id": 7493961209, "lat": 58.3041559, "lon": 13.1143105, "tags": {"name": "Maggeg\u00e5rden", "place": "hamlet"}}, {"type": "node", "id": 7493963303, "lat": 58.2895698, "lon": 13.1159224, "tags": {"name": "H\u00e5kan-Larsg\u00e5rden", "place": "hamlet"}}, {"type": "node", "id": 7494124866, "lat": 58.2438611, "lon": 13.1001332, "tags": {"name": "Skogsbo", "place": "hamlet"}}, {"type": "node", "id": 7494336043, "lat": 58.4339811, "lon": 12.9517097, "tags": {"name": "S\u00f6rby", "place": "hamlet"}}, {"type": "node", "id": 7494360671, "lat": 58.3854797, "lon": 12.9502466, "tags": {"name": "Orrsl\u00e4tt", "place": "hamlet"}}, {"type": "node", "id": 7494392045, "lat": 58.3413838, "lon": 12.9439682, "tags": {"name": "K\u00e4llersg\u00e5rden", "place": "hamlet"}}, {"type": "node", "id": 7494394097, "lat": 58.4097037, "lon": 12.9684742, "tags": {"name": "V\u00e4steby", "place": "hamlet"}}, {"type": "node", "id": 7494400264, "lat": 58.3442764, "lon": 12.9903686, "tags": {"name": "Skr\u00e4ddareg\u00e5rden", "place": "hamlet"}}, {"type": "node", "id": 7494427512, "lat": 58.4204899, "lon": 12.9462433, "tags": {"name": "N\u00e4steg\u00e5rden", "place": "hamlet"}}, {"type": "node", "id": 7494439206, "lat": 58.3534887, "lon": 12.9649369, "tags": {"name": "Huleb\u00e4ck", "place": "hamlet"}}, {"type": "node", "id": 7494440020, "lat": 58.3263226, "lon": 12.9600088, "tags": {"name": "Djupedal", "place": "hamlet"}}, {"type": "node", "id": 7494451891, "lat": 58.3310177, "lon": 12.9986512, "tags": {"name": "Karteg\u00e5rden", "place": "hamlet"}}, {"type": "node", "id": 7494457075, "lat": 58.3744138, "lon": 12.9794663, "tags": {"name": "Godeg\u00e5rden", "place": "hamlet"}}, {"type": "node", "id": 7494462805, "lat": 58.4290749, "lon": 12.9708023, "tags": {"name": "Fagerv\u00e4lle", "place": "hamlet"}}, {"type": "node", "id": 7494475389, "lat": 58.4015279, "lon": 12.9935048, "tags": {"name": "Orr\u00e5s", "place": "hamlet"}}, {"type": "node", "id": 7494477281, "lat": 58.3834988, "lon": 12.9924761, "tags": {"name": "Toketorp", "place": "hamlet"}}, {"type": "node", "id": 7494477423, "lat": 58.3894509, "lon": 13.0228136, "tags": {"name": "Dum\u00f6", "place": "hamlet"}}, {"type": "node", "id": 7494479984, "lat": 58.3956059, "lon": 12.9905556, "tags": {"name": "Orretomten", "place": "hamlet"}}, {"type": "node", "id": 7494480877, "lat": 58.3729429, "lon": 13.1027061, "tags": {"name": "Antorp", "place": "hamlet"}}, {"type": "node", "id": 7494492582, "lat": 58.350852, "lon": 13.0437392, "tags": {"name": "Storeg\u00e5rden", "place": "hamlet"}}, {"type": "node", "id": 7494494344, "lat": 58.3684857, "lon": 13.0034033, "tags": {"name": "Storeg\u00e5rden", "place": "hamlet"}}, {"type": "node", "id": 7494514534, "lat": 58.3576247, "lon": 13.0606253, "tags": {"name": "H\u00f6jen", "place": "hamlet"}}, {"type": "node", "id": 7494516476, "lat": 58.307184, "lon": 13.0396962, "tags": {"name": "Rockag\u00e5rden", "place": "hamlet"}}, {"type": "node", "id": 7494539956, "lat": 58.3609583, "lon": 13.0785874, "tags": {"name": "Tjustorp", "place": "hamlet"}}, {"type": "node", "id": 7494551466, "lat": 58.3905148, "lon": 13.1045001, "tags": {"name": "L\u00e5nger\u00e5ker", "place": "hamlet"}}, {"type": "node", "id": 7494557923, "lat": 58.3735143, "lon": 13.0548681, "tags": {"name": "H\u00e4rjevad", "place": "hamlet"}}, {"type": "node", "id": 7494561136, "lat": 58.3927667, "lon": 13.0837273, "tags": {"name": "Rycka", "place": "hamlet"}}, {"type": "node", "id": 7494564336, "lat": 58.384858, "lon": 13.1140846, "tags": {"name": "Sl\u00f6ta", "place": "hamlet"}}, {"type": "node", "id": 7494566205, "lat": 58.3809263, "lon": 13.0964114, "tags": {"name": "Hede", "place": "hamlet"}}, {"type": "node", "id": 7494572642, "lat": 58.3735578, "lon": 13.0675299, "tags": {"name": "Skatteg\u00e5rden", "place": "hamlet"}}, {"type": "node", "id": 7494578902, "lat": 58.3771398, "lon": 13.0555603, "tags": {"name": "Hulan", "place": "hamlet"}}, {"type": "node", "id": 7494585071, "lat": 58.3695379, "lon": 13.0669601, "tags": {"name": "K\u00e5reg\u00e5rden", "place": "hamlet"}}, {"type": "node", "id": 7494586971, "lat": 58.3639051, "lon": 13.033611, "tags": {"name": "N\u00e4refors", "place": "hamlet"}}, {"type": "node", "id": 7494600689, "lat": 58.4225136, "lon": 13.0850397, "tags": {"name": "Djupedal", "place": "hamlet"}}, {"type": "node", "id": 7494607367, "lat": 58.4402861, "lon": 13.0655194, "tags": {"name": "Tomten", "place": "hamlet"}}, {"type": "node", "id": 7494612315, "lat": 58.3987557, "lon": 13.086551, "tags": {"name": "Stommen", "place": "hamlet"}}, {"type": "node", "id": 7494652086, "lat": 58.3581141, "lon": 13.1041344, "tags": {"name": "Galstad", "place": "hamlet"}}, {"type": "node", "id": 7494658599, "lat": 58.3534631, "lon": 13.1048963, "tags": {"name": "Frigger\u00e5ker", "place": "hamlet"}}, {"type": "node", "id": 7495544656, "lat": 58.4617942, "lon": 13.0266737, "tags": {"name": "Bj\u00e4rby", "place": "hamlet"}}, {"type": "node", "id": 7495592482, "lat": 58.456047, "lon": 13.1115329, "tags": {"name": "B\u00e4ckg\u00e5rden", "place": "hamlet"}}, {"type": "node", "id": 7495617500, "lat": 58.4641582, "lon": 13.0314272, "tags": {"name": "Kullen", "place": "hamlet"}}, {"type": "node", "id": 7495624370, "lat": 58.469726, "lon": 13.0248232, "tags": {"name": "Glastorp", "place": "hamlet"}}, {"type": "node", "id": 7495624617, "lat": 58.4837617, "lon": 12.9601488, "tags": {"name": "Hans-Persg\u00e5rden", "place": "hamlet"}}, {"type": "node", "id": 7495626722, "lat": 58.4591768, "lon": 13.0977717, "tags": {"name": "Bostorp", "place": "hamlet"}}, {"type": "node", "id": 7495627076, "lat": 58.5422477, "lon": 13.0362597, "tags": {"name": "Gl\u00f6mstorp", "place": "hamlet"}}, {"type": "node", "id": 7495630838, "lat": 58.5320566, "lon": 13.0843659, "tags": {"name": "T\u00e5storp", "place": "hamlet"}}, {"type": "node", "id": 7495631859, "lat": 58.529642, "lon": 12.9658006, "tags": {"name": "Kil", "place": "hamlet"}}, {"type": "node", "id": 7495635812, "lat": 58.4749117, "lon": 12.9777092, "tags": {"name": "K\u00e4ll\u00e4ngen", "place": "hamlet"}}, {"type": "node", "id": 7495637097, "lat": 58.5189788, "lon": 12.9658349, "tags": {"name": "Torp", "place": "hamlet"}}, {"type": "node", "id": 7495638887, "lat": 58.4681293, "lon": 12.9857322, "tags": {"name": "Stubba", "place": "hamlet"}}, {"type": "node", "id": 7495645695, "lat": 58.480638, "lon": 13.0706938, "tags": {"name": "H\u00e4ggene", "place": "hamlet"}}, {"type": "node", "id": 7495648608, "lat": 58.5197671, "lon": 13.0011858, "tags": {"name": "Ettrum", "place": "hamlet"}}, {"type": "node", "id": 7495649698, "lat": 58.4831404, "lon": 13.0073786, "tags": {"name": "Lilla Ro", "place": "hamlet"}}, {"type": "node", "id": 7495649977, "lat": 58.5149252, "lon": 12.9845091, "tags": {"name": "Jonsg\u00e5rden", "place": "hamlet"}}, {"type": "node", "id": 7495652026, "lat": 58.5011712, "lon": 13.0017407, "tags": {"name": "Liten- Andersg\u00e5rden", "place": "hamlet"}}, {"type": "node", "id": 7495653188, "lat": 58.4955199, "lon": 13.0325211, "tags": {"name": "M\u00e5nslunda", "place": "hamlet"}}, {"type": "node", "id": 7495660063, "lat": 58.5105108, "lon": 13.0027026, "tags": {"name": "Rosenlund", "place": "hamlet"}}, {"type": "node", "id": 7495663309, "lat": 58.5402782, "lon": 12.9994635, "tags": {"name": "Huleg\u00e5rden", "place": "hamlet"}}, {"type": "node", "id": 7495664830, "lat": 58.4981975, "lon": 13.0069206, "tags": {"name": "Torp", "place": "hamlet"}}, {"type": "node", "id": 7495668499, "lat": 58.5216244, "lon": 13.0747982, "tags": {"name": "H\u00e4rebacka", "place": "hamlet"}}, {"type": "node", "id": 7495682559, "lat": 58.5554132, "lon": 12.9763569, "tags": {"name": "Stalltorp", "place": "hamlet"}}, {"type": "node", "id": 7495684952, "lat": 58.5348868, "lon": 13.0080852, "tags": {"name": "Oltorp", "place": "hamlet"}}, {"type": "node", "id": 7495688232, "lat": 58.5099369, "lon": 13.0377047, "tags": {"name": "H\u00f6berga", "place": "hamlet"}}, {"type": "node", "id": 7495688556, "lat": 58.5129618, "lon": 13.0819742, "tags": {"name": "\u00c5sledet", "place": "hamlet"}}, {"type": "node", "id": 7495688954, "lat": 58.5443104, "lon": 12.9724435, "tags": {"name": "Nolbacka", "place": "hamlet"}}, {"type": "node", "id": 7495690541, "lat": 58.5256787, "lon": 12.9850774, "tags": {"name": "Lilleg\u00e5rden", "place": "hamlet"}}, {"type": "node", "id": 7495690655, "lat": 58.5150894, "lon": 13.0251407, "tags": {"name": "\u00d6stentorp", "place": "hamlet"}}, {"type": "node", "id": 7495691803, "lat": 58.5248922, "lon": 13.0193861, "tags": {"name": "Foteg\u00e5rden", "place": "hamlet"}}, {"type": "node", "id": 7495692190, "lat": 58.5279876, "lon": 13.0196928, "tags": {"name": "Tubbetorp", "place": "hamlet"}}, {"type": "node", "id": 7495693913, "lat": 58.5431949, "lon": 12.9952583, "tags": {"name": "H\u00f6jen", "place": "hamlet"}}, {"type": "node", "id": 7495694533, "lat": 58.5309456, "lon": 13.0174584, "tags": {"name": "Skr\u00e4ddareg\u00e5rden", "place": "hamlet"}}, {"type": "node", "id": 7495697752, "lat": 58.5769473, "lon": 13.1002918, "tags": {"name": "H\u00f6g", "place": "hamlet"}}, {"type": "node", "id": 7495699358, "lat": 58.5347627, "lon": 13.0221108, "tags": {"name": "Storeg\u00e5rden", "place": "hamlet"}}, {"type": "node", "id": 7495702013, "lat": 58.5487726, "lon": 12.979713, "tags": {"name": "Skog", "place": "hamlet"}}, {"type": "node", "id": 7495704412, "lat": 58.5603859, "lon": 13.1072484, "tags": {"name": "Sal", "place": "hamlet"}}, {"type": "node", "id": 7495724915, "lat": 58.5552683, "lon": 13.0189262, "tags": {"name": "Mauritsg\u00e5rden", "place": "hamlet"}}, {"type": "node", "id": 7496577805, "lat": 58.2003071, "lon": 12.9713268, "tags": {"name": "Stora Horshaga", "place": "hamlet"}}, {"type": "node", "id": 7497239065, "lat": 58.5880789, "lon": 13.055901, "tags": {"name": "J\u00f6nsag\u00e5rden", "place": "hamlet"}}, {"type": "node", "id": 7497256443, "lat": 58.5806206, "lon": 13.0330091, "tags": {"name": "Hunsala", "place": "hamlet"}}, {"type": "node", "id": 7497268013, "lat": 58.5702584, "lon": 13.0210368, "tags": {"name": "V\u00e4st\u00f6let", "place": "hamlet"}}, {"type": "node", "id": 7498736979, "lat": 58.3683361, "lon": 12.8038298, "tags": {"name": "Jon-Karlsg\u00e5rden", "place": "hamlet"}}, {"type": "node", "id": 7498772550, "lat": 58.3835618, "lon": 12.8885918, "tags": {"name": "M\u00e5ns-Olofsg\u00e5rden", "place": "hamlet"}}, {"type": "node", "id": 7498781948, "lat": 58.2499811, "lon": 12.8744158, "tags": {"name": "Nereg\u00e5rden", "place": "hamlet"}}, {"type": "node", "id": 7498784596, "lat": 58.2975641, "lon": 12.8875187, "tags": {"name": "Stora Attorp", "place": "hamlet"}}, {"type": "node", "id": 7498794870, "lat": 58.3399464, "lon": 12.7202143, "tags": {"name": "H\u00f6ckg\u00e5rden", "place": "hamlet"}}, {"type": "node", "id": 7498795626, "lat": 58.4029088, "lon": 12.7546441, "tags": {"name": "Lars-K\u00e4mpesg\u00e5rden", "place": "hamlet"}}, {"type": "node", "id": 7498804006, "lat": 58.2358624, "lon": 12.9355311, "tags": {"name": "\u00d6sterg\u00e5rden", "place": "hamlet"}}, {"type": "node", "id": 7498804419, "lat": 58.2953945, "lon": 12.8719843, "tags": {"name": "Lilla Attorp", "place": "hamlet"}}, {"type": "node", "id": 7498807387, "lat": 58.2930414, "lon": 12.9017402, "tags": {"name": "M\u00e5ns-Olofsg\u00e5rden", "place": "hamlet"}}, {"type": "node", "id": 7498817425, "lat": 58.2902604, "lon": 12.6515003, "tags": {"name": "Allm\u00e4nneg\u00e5rden", "place": "hamlet"}}, {"type": "node", "id": 7498820198, "lat": 58.4249371, "lon": 12.934583, "tags": {"name": "Bengt-Svensg\u00e5rden", "place": "hamlet"}}, {"type": "node", "id": 7498820273, "lat": 58.290565, "lon": 12.8646391, "tags": {"name": "Siggesg\u00e5rden", "place": "hamlet"}}, {"type": "node", "id": 7498827664, "lat": 58.1965652, "lon": 12.7766654, "tags": {"name": "Karteg\u00e5rden", "place": "hamlet"}}, {"type": "node", "id": 7498829327, "lat": 58.5827065, "lon": 12.5575059, "tags": {"name": "Norra Torp", "place": "hamlet"}}, {"type": "node", "id": 7498831259, "lat": 58.4145795, "lon": 12.746436, "tags": {"name": "Bengt-Jonsg\u00e5rden", "place": "hamlet"}}, {"type": "node", "id": 7498833933, "lat": 58.5655052, "lon": 12.5199146, "tags": {"name": "S\u00f6dra R\u00f6djan", "place": "hamlet"}}, {"type": "node", "id": 7498835976, "lat": 58.2765839, "lon": 12.8566375, "tags": {"name": "Godeg\u00e5rden", "place": "hamlet"}}, {"type": "node", "id": 7498837130, "lat": 58.3679555, "lon": 12.8390272, "tags": {"name": "Bj\u00f6rsg\u00e5rden", "place": "hamlet"}}, {"type": "node", "id": 7498839594, "lat": 58.4376316, "lon": 12.9350508, "tags": {"name": "V\u00e4sterg\u00e5rden", "place": "hamlet"}}, {"type": "node", "id": 7498843345, "lat": 58.2578124, "lon": 12.934442, "tags": {"name": "V\u00e4sterg\u00e5rden", "place": "hamlet"}}, {"type": "node", "id": 7498845108, "lat": 58.4190478, "lon": 12.8722734, "tags": {"name": "Backg\u00e5rden", "place": "hamlet"}}, {"type": "node", "id": 7498845345, "lat": 58.2674318, "lon": 12.9337285, "tags": {"name": "Nils-Ersg\u00e5rden", "place": "hamlet"}}, {"type": "node", "id": 7498845346, "lat": 58.327707, "lon": 12.7479551, "tags": {"name": "Svaneg\u00e5rden", "place": "hamlet"}}, {"type": "node", "id": 7498847032, "lat": 58.4220816, "lon": 12.8376976, "tags": {"name": "Erik Jonsg\u00e5rden", "place": "hamlet"}}, {"type": "node", "id": 7498847271, "lat": 58.3579565, "lon": 12.6119847, "tags": {"name": "V\u00e4sterg\u00e5rden", "place": "hamlet"}}, {"type": "node", "id": 7498847872, "lat": 58.2885531, "lon": 12.9103271, "tags": {"name": "Bryntesg\u00e5rden", "place": "hamlet"}}, {"type": "node", "id": 7498848552, "lat": 58.1965691, "lon": 12.7466481, "tags": {"name": "Larsag\u00e5rden", "place": "hamlet"}}, {"type": "node", "id": 7498848668, "lat": 58.3042789, "lon": 12.6411136, "tags": {"name": "Olof-M\u00e5nsg\u00e5rden", "place": "hamlet"}}, {"type": "node", "id": 7498854367, "lat": 58.3241668, "lon": 12.7304671, "tags": {"name": "B\u00f6rje-Bryntesg\u00e5rden", "place": "hamlet"}}, {"type": "node", "id": 7498860921, "lat": 58.3382324, "lon": 12.772862, "tags": {"name": "Hustru-Annasg\u00e5rden", "place": "hamlet"}}, {"type": "node", "id": 7498860943, "lat": 58.3025966, "lon": 12.700635, "tags": {"name": "Stora K\u00e4llstorp", "place": "hamlet"}}, {"type": "node", "id": 7498865777, "lat": 58.3688256, "lon": 12.6249334, "tags": {"name": "Knekteg\u00e5rden", "place": "hamlet"}}, {"type": "node", "id": 7498867445, "lat": 58.3764042, "lon": 12.6362623, "tags": {"name": "B\u00e4rteg\u00e5rden", "place": "hamlet"}}, {"type": "node", "id": 7498873484, "lat": 58.3719453, "lon": 12.6245869, "tags": {"name": "Tomteg\u00e5rden", "place": "hamlet"}}, {"type": "node", "id": 7498874977, "lat": 58.3562758, "lon": 12.8374162, "tags": {"name": "Sven-M\u00e5nsg\u00e5rden", "place": "hamlet"}}, {"type": "node", "id": 7498875932, "lat": 58.3399082, "lon": 12.916616, "tags": {"name": "Bergsg\u00e5rden", "place": "hamlet"}}, {"type": "node", "id": 7498877615, "lat": 58.2890132, "lon": 12.7122646, "tags": {"name": "Lilleholmen", "place": "hamlet"}}, {"type": "node", "id": 7498885139, "lat": 58.2376492, "lon": 12.8366528, "tags": {"name": "Nedre Storeg\u00e5rden", "place": "hamlet"}}, {"type": "node", "id": 7498887385, "lat": 58.2710447, "lon": 12.9204816, "tags": {"name": "Assarsg\u00e5rden", "place": "hamlet"}}, {"type": "node", "id": 7498893996, "lat": 58.3089088, "lon": 12.7417244, "tags": {"name": "H\u00e4stekullen", "place": "hamlet"}}, {"type": "node", "id": 7498897186, "lat": 58.3896421, "lon": 12.9106589, "tags": {"name": "Storeg\u00e5rden", "place": "hamlet"}}, {"type": "node", "id": 7498905783, "lat": 58.2871353, "lon": 12.8748469, "tags": {"name": "G\u00e4rskag\u00e5rden", "place": "hamlet"}}, {"type": "node", "id": 7498906283, "lat": 58.387987, "lon": 12.7898454, "tags": {"name": "Smedg\u00e5rden", "place": "hamlet"}}, {"type": "node", "id": 7498912269, "lat": 58.3461287, "lon": 12.5810604, "tags": {"name": "Pukag\u00e5rden", "place": "hamlet"}}, {"type": "node", "id": 7498917302, "lat": 58.3495646, "lon": 12.9038294, "tags": {"name": "Dalbog\u00e5rden", "place": "hamlet"}}, {"type": "node", "id": 7498923518, "lat": 58.3977594, "lon": 12.7179883, "tags": {"name": "K\u00e4mpeg\u00e5rden", "place": "hamlet"}}, {"type": "node", "id": 7498927932, "lat": 58.2856725, "lon": 12.6888692, "tags": {"name": "Bengt-Bengtsg\u00e5rden", "place": "hamlet"}}, {"type": "node", "id": 7498928545, "lat": 58.2218223, "lon": 12.8780762, "tags": {"name": "Lilla Lund", "place": "hamlet"}}, {"type": "node", "id": 7498932427, "lat": 58.3443198, "lon": 12.7860804, "tags": {"name": "Arentsg\u00e5rden", "place": "hamlet"}}, {"type": "node", "id": 7498938360, "lat": 58.3639341, "lon": 12.6785908, "tags": {"name": "H\u00e5kansg\u00e5rden", "place": "hamlet"}}, {"type": "node", "id": 7498939667, "lat": 58.3296987, "lon": 12.8728404, "tags": {"name": "Per-J\u00f6nsg\u00e5rden", "place": "hamlet"}}, {"type": "node", "id": 7498942060, "lat": 58.2139556, "lon": 12.8498587, "tags": {"name": "Lunnag\u00e5rden", "place": "hamlet"}}, {"type": "node", "id": 7498964899, "lat": 58.3577854, "lon": 12.8146743, "tags": {"name": "Sven-Larsg\u00e5rden", "place": "hamlet"}}, {"type": "node", "id": 7498968451, "lat": 58.4153382, "lon": 12.9043716, "tags": {"name": "Skatteg\u00e5rden", "place": "hamlet"}}, {"type": "node", "id": 7498968956, "lat": 58.2300975, "lon": 12.8549795, "tags": {"name": "Herreg\u00e5rden", "place": "hamlet"}}, {"type": "node", "id": 7498969769, "lat": 58.4057944, "lon": 12.7424778, "tags": {"name": "Lars-Persg\u00e5rden", "place": "hamlet"}}, {"type": "node", "id": 7498970571, "lat": 58.229807, "lon": 12.7245601, "tags": {"name": "Bred\u00f6l", "place": "hamlet"}}, {"type": "node", "id": 7498972628, "lat": 58.2653233, "lon": 12.8801703, "tags": {"name": "Kronog\u00e5rden", "place": "hamlet"}}, {"type": "node", "id": 7498981196, "lat": 58.2636836, "lon": 12.9040664, "tags": {"name": "Fr\u00e4lseg\u00e5rden", "place": "hamlet"}}, {"type": "node", "id": 7498983552, "lat": 58.275025, "lon": 12.9368175, "tags": {"name": "Elisg\u00e5rden", "place": "hamlet"}}, {"type": "node", "id": 7498989470, "lat": 58.2245438, "lon": 12.7347584, "tags": {"name": "Lars Bryntesg\u00e5rden", "place": "hamlet"}}, {"type": "node", "id": 7498989611, "lat": 58.2576512, "lon": 12.8548826, "tags": {"name": "Skatteg\u00e5rden", "place": "hamlet"}}, {"type": "node", "id": 7498995251, "lat": 58.2152256, "lon": 12.7190926, "tags": {"name": "Stommen", "place": "hamlet"}}, {"type": "node", "id": 7498995307, "lat": 58.2710228, "lon": 12.8979783, "tags": {"name": "Skatteg\u00e5rden", "place": "hamlet"}}, {"type": "node", "id": 7499002463, "lat": 58.2115383, "lon": 12.7088582, "tags": {"name": "\u00d6sttorp", "place": "hamlet"}}, {"type": "node", "id": 7499025835, "lat": 58.2335906, "lon": 12.8335947, "tags": {"name": "Kopparg\u00e5rden", "place": "hamlet"}}, {"type": "node", "id": 7499034035, "lat": 58.2303409, "lon": 12.7767842, "tags": {"name": "Backen", "place": "hamlet"}}, {"type": "node", "id": 7499039737, "lat": 58.2422536, "lon": 12.7485033, "tags": {"name": "Torpet", "place": "hamlet"}}, {"type": "node", "id": 7499039927, "lat": 58.2482739, "lon": 12.759796, "tags": {"name": "Nolg\u00e5rden", "place": "hamlet"}}, {"type": "node", "id": 7499040417, "lat": 58.2119092, "lon": 12.7555332, "tags": {"name": "S\u00e5nnestorp", "place": "hamlet"}}, {"type": "node", "id": 7499042956, "lat": 58.2487066, "lon": 12.8439198, "tags": {"name": "Ellstorp", "place": "hamlet"}}, {"type": "node", "id": 7499044304, "lat": 58.2048649, "lon": 12.7936448, "tags": {"name": "K\u00e4ll\u00e4ngen", "place": "hamlet"}}, {"type": "node", "id": 7499055492, "lat": 58.2035186, "lon": 12.8030887, "tags": {"name": "Vadet", "place": "hamlet"}}, {"type": "node", "id": 7499057267, "lat": 58.2198676, "lon": 12.798707, "tags": {"name": "Stallberg", "place": "hamlet"}}, {"type": "node", "id": 7499057772, "lat": 58.2192087, "lon": 12.8895377, "tags": {"name": "Lunden", "place": "hamlet"}}, {"type": "node", "id": 7499066456, "lat": 58.2360238, "lon": 12.7615077, "tags": {"name": "Askjum", "place": "hamlet"}}, {"type": "node", "id": 7499067349, "lat": 58.2482528, "lon": 12.7346262, "tags": {"name": "Skatteg\u00e5rden", "place": "hamlet"}}, {"type": "node", "id": 7499067351, "lat": 58.2366876, "lon": 12.6704342, "tags": {"name": "\u00c4nghagen", "place": "hamlet"}}, {"type": "node", "id": 7499070366, "lat": 58.2458207, "lon": 12.8700479, "tags": {"name": "Kedum", "place": "hamlet"}}, {"type": "node", "id": 7499070367, "lat": 58.2367202, "lon": 12.8674078, "tags": {"name": "Skatteg\u00e5rden", "place": "hamlet"}}, {"type": "node", "id": 7499089003, "lat": 58.2158106, "lon": 12.8634694, "tags": {"name": "Olofslund", "place": "hamlet"}}, {"type": "node", "id": 7499091647, "lat": 58.2568162, "lon": 12.6428141, "tags": {"name": "\u00c5r\u00e5s", "place": "hamlet"}}, {"type": "node", "id": 7499095660, "lat": 58.2642288, "lon": 12.6692437, "tags": {"name": "Djupedal", "place": "hamlet"}}, {"type": "node", "id": 7499096020, "lat": 58.2203596, "lon": 12.838011, "tags": {"name": "Torpa", "place": "hamlet"}}, {"type": "node", "id": 7499097514, "lat": 58.2402775, "lon": 12.8401217, "tags": {"name": "Kocklanna", "place": "hamlet"}}, {"type": "node", "id": 7499101442, "lat": 58.2713711, "lon": 12.6588641, "tags": {"name": "Brandstorp", "place": "hamlet"}}, {"type": "node", "id": 7499104125, "lat": 58.266454, "lon": 12.6460442, "tags": {"name": "Grynkelstorp", "place": "hamlet"}}, {"type": "node", "id": 7499105154, "lat": 58.2419207, "lon": 12.7080572, "tags": {"name": "Baljefors", "place": "hamlet"}}, {"type": "node", "id": 7499106271, "lat": 58.2628001, "lon": 12.7190355, "tags": {"name": "Annestad", "place": "hamlet"}}, {"type": "node", "id": 7499112851, "lat": 58.2531935, "lon": 12.7058985, "tags": {"name": "Almetorp", "place": "hamlet"}}, {"type": "node", "id": 7499115004, "lat": 58.2590191, "lon": 12.7855056, "tags": {"name": "H\u00f6ga", "place": "hamlet"}}, {"type": "node", "id": 7499115119, "lat": 58.2697996, "lon": 12.6468377, "tags": {"name": "Valla", "place": "hamlet"}}, {"type": "node", "id": 7499118830, "lat": 58.2744193, "lon": 12.6871294, "tags": {"name": "Skaten", "place": "hamlet"}}, {"type": "node", "id": 7499133112, "lat": 58.2656209, "lon": 12.7536724, "tags": {"name": "\u00d6desm\u00e5l", "place": "hamlet"}}, {"type": "node", "id": 7499135051, "lat": 58.2827688, "lon": 12.7727819, "tags": {"name": "Skrehalla", "place": "hamlet"}}, {"type": "node", "id": 7499147126, "lat": 58.2870575, "lon": 12.8570623, "tags": {"name": "Rydsberg", "place": "hamlet"}}, {"type": "node", "id": 7499159809, "lat": 58.3153098, "lon": 12.7675258, "tags": {"name": "Passeg\u00e5rden", "place": "hamlet"}}, {"type": "node", "id": 7499159810, "lat": 58.2993739, "lon": 12.7456948, "tags": {"name": "Nyttorp", "place": "hamlet"}}, {"type": "node", "id": 7499161856, "lat": 58.2780202, "lon": 12.680283, "tags": {"name": "Uppeg\u00e5rden", "place": "hamlet"}}, {"type": "node", "id": 7499168935, "lat": 58.3042037, "lon": 12.7643853, "tags": {"name": "Ulvetorp", "place": "hamlet"}}, {"type": "node", "id": 7499171609, "lat": 58.297404, "lon": 12.7578003, "tags": {"name": "Pr\u00e4sttorp", "place": "hamlet"}}, {"type": "node", "id": 7499181266, "lat": 58.3113893, "lon": 12.7914567, "tags": {"name": "Stora \u00d6rlanda", "place": "hamlet"}}, {"type": "node", "id": 7499195344, "lat": 58.3072836, "lon": 12.790529, "tags": {"name": "Lilla \u00d6rlanda", "place": "hamlet"}}, {"type": "node", "id": 7499201859, "lat": 58.2988302, "lon": 12.7954252, "tags": {"name": "Lilleg\u00e5rden", "place": "hamlet"}}, {"type": "node", "id": 7499208059, "lat": 58.2910033, "lon": 12.7927384, "tags": {"name": "Ragg\u00e5rden", "place": "hamlet"}}, {"type": "node", "id": 7499612474, "lat": 58.1981517, "lon": 12.8196724, "tags": {"name": "Gertorp", "place": "hamlet"}}, {"type": "node", "id": 7499642671, "lat": 58.1969657, "lon": 12.7677068, "tags": {"name": "Erstorp", "place": "hamlet"}}, {"type": "node", "id": 7499843814, "lat": 58.3438216, "lon": 12.7198456, "tags": {"name": "Torpa", "place": "hamlet"}}, {"type": "node", "id": 7499845463, "lat": 58.3552104, "lon": 12.6748914, "tags": {"name": "Lanna", "place": "hamlet"}}, {"type": "node", "id": 7499845465, "lat": 58.3417113, "lon": 12.8571521, "tags": {"name": "Gustavsberg", "place": "hamlet"}}, {"type": "node", "id": 7499848138, "lat": 58.2883886, "lon": 12.7083233, "tags": {"name": "Skatteg\u00e5rden", "place": "hamlet"}}, {"type": "node", "id": 7499856756, "lat": 58.3268637, "lon": 12.7257658, "tags": {"name": "Hedbacka", "place": "hamlet"}}, {"type": "node", "id": 7499864266, "lat": 58.3200391, "lon": 12.7395979, "tags": {"name": "Klinteg\u00e5rden", "place": "hamlet"}}, {"type": "node", "id": 7499871148, "lat": 58.2961642, "lon": 12.836034, "tags": {"name": "\u00c5shult", "place": "hamlet"}}, {"type": "node", "id": 7499879571, "lat": 58.3357313, "lon": 12.7403717, "tags": {"name": "S\u00f6lltorp", "place": "hamlet"}}, {"type": "node", "id": 7499880763, "lat": 58.4100855, "lon": 12.7239532, "tags": {"name": "Avekilja", "place": "hamlet"}}, {"type": "node", "id": 7499881293, "lat": 58.2953766, "lon": 12.7198912, "tags": {"name": "Storeg\u00e5rden", "place": "hamlet"}}, {"type": "node", "id": 7499886602, "lat": 58.3206427, "lon": 12.6529277, "tags": {"name": "Frug\u00e5rden", "place": "hamlet"}}, {"type": "node", "id": 7499894321, "lat": 58.3368816, "lon": 12.7075475, "tags": {"name": "T\u00f6fta", "place": "hamlet"}}, {"type": "node", "id": 7499899942, "lat": 58.3868395, "lon": 12.7672136, "tags": {"name": "Kullen", "place": "hamlet"}}, {"type": "node", "id": 7499900802, "lat": 58.3553065, "lon": 12.6451577, "tags": {"name": "Storeg\u00e5rden", "place": "hamlet"}}, {"type": "node", "id": 7499906877, "lat": 58.3966322, "lon": 12.7681865, "tags": {"name": "Kronog\u00e5rden", "place": "hamlet"}}, {"type": "node", "id": 7499907216, "lat": 58.342813, "lon": 12.769669, "tags": {"name": "G\u00f6ttorp", "place": "hamlet"}}, {"type": "node", "id": 7499909224, "lat": 58.3477888, "lon": 12.7716451, "tags": {"name": "Nolg\u00e5rden", "place": "hamlet"}}, {"type": "node", "id": 7499910968, "lat": 58.33577, "lon": 12.7620154, "tags": {"name": "H\u00f6gstorp", "place": "hamlet"}}, {"type": "node", "id": 7499910974, "lat": 58.3332743, "lon": 12.8009676, "tags": {"name": "Skatteg\u00e5rden", "place": "hamlet"}}, {"type": "node", "id": 7499912079, "lat": 58.3618707, "lon": 12.8082499, "tags": {"name": "Tomten", "place": "hamlet"}}, {"type": "node", "id": 7499913780, "lat": 58.3640718, "lon": 12.7167271, "tags": {"name": "H\u00e4rstorp", "place": "hamlet"}}, {"type": "node", "id": 7499915141, "lat": 58.4361992, "lon": 12.7242032, "tags": {"name": "S\u00e5ten\u00e4s villastad", "place": "hamlet"}}, {"type": "node", "id": 7499917909, "lat": 58.3861953, "lon": 12.8124721, "tags": {"name": "Torsg\u00e5rden", "place": "hamlet"}}, {"type": "node", "id": 7499918280, "lat": 58.372006, "lon": 12.7749237, "tags": {"name": "H\u00e5letorp", "place": "hamlet"}}, {"type": "node", "id": 7499918324, "lat": 58.4185533, "lon": 12.7789745, "tags": {"name": "Gammalstorp", "place": "hamlet"}}, {"type": "node", "id": 7499919540, "lat": 58.3623388, "lon": 12.6957582, "tags": {"name": "\u00d6sterlanna", "place": "hamlet"}}, {"type": "node", "id": 7499924099, "lat": 58.3740714, "lon": 12.6683808, "tags": {"name": "\u00c5sen", "place": "hamlet"}}, {"type": "node", "id": 7499924436, "lat": 58.3943713, "lon": 12.7504467, "tags": {"name": "Brands\u00f6let", "place": "hamlet"}}, {"type": "node", "id": 7499924923, "lat": 58.4046727, "lon": 12.6841785, "tags": {"name": "Kilja", "place": "hamlet"}}, {"type": "node", "id": 7499924924, "lat": 58.3717305, "lon": 12.6710496, "tags": {"name": "Vallen", "place": "hamlet"}}, {"type": "node", "id": 7499927140, "lat": 58.3528132, "lon": 12.856975, "tags": {"name": "H\u00f6jesten", "place": "hamlet"}}, {"type": "node", "id": 7499928096, "lat": 58.3682595, "lon": 12.8581595, "tags": {"name": "Galleg\u00e5rden", "place": "hamlet"}}, {"type": "node", "id": 7499928194, "lat": 58.3488639, "lon": 12.8075422, "tags": {"name": "Frittorp", "place": "hamlet"}}, {"type": "node", "id": 7499929046, "lat": 58.3783061, "lon": 12.7229398, "tags": {"name": "Rudberga", "place": "hamlet"}}, {"type": "node", "id": 7499938657, "lat": 58.3798823, "lon": 12.7480506, "tags": {"name": "Boberg", "place": "hamlet"}}, {"type": "node", "id": 7499939285, "lat": 58.3296283, "lon": 12.7969066, "tags": {"name": "Bj\u00f6rsg\u00e5rden", "place": "hamlet"}}, {"type": "node", "id": 7499941414, "lat": 58.364519, "lon": 12.7475426, "tags": {"name": "Bl\u00e5berget", "place": "hamlet"}}, {"type": "node", "id": 7499942559, "lat": 58.3613009, "lon": 12.7605011, "tags": {"name": "H\u00f6jen", "place": "hamlet"}}, {"type": "node", "id": 7499943116, "lat": 58.3732556, "lon": 12.8411144, "tags": {"name": "Gerstorp", "place": "hamlet"}}, {"type": "node", "id": 7499943990, "lat": 58.3738444, "lon": 12.6945287, "tags": {"name": "J\u00f6nslanna", "place": "hamlet"}}, {"type": "node", "id": 7499947232, "lat": 58.3977576, "lon": 12.7118266, "tags": {"name": "Noleby", "place": "hamlet"}}, {"type": "node", "id": 7499947349, "lat": 58.4484956, "lon": 12.7638563, "tags": {"name": "Geteg\u00e5rden", "place": "hamlet"}}, {"type": "node", "id": 7499948622, "lat": 58.3786366, "lon": 12.6595615, "tags": {"name": "Karstorp", "place": "hamlet"}}, {"type": "node", "id": 7499949208, "lat": 58.4222843, "lon": 12.8556155, "tags": {"name": "Hulan", "place": "hamlet"}}, {"type": "node", "id": 7499949211, "lat": 58.2297335, "lon": 12.6769081, "tags": {"name": "R\u00e5glanna", "place": "hamlet"}}, {"type": "node", "id": 7499949313, "lat": 58.3929078, "lon": 12.7169838, "tags": {"name": "\u00d6deg\u00e5rden", "place": "hamlet"}}, {"type": "node", "id": 7499952333, "lat": 58.3889729, "lon": 12.7124645, "tags": {"name": "V\u00e4steby", "place": "hamlet"}}, {"type": "node", "id": 7499953239, "lat": 58.390604, "lon": 12.7915633, "tags": {"name": "B\u00e4cken", "place": "hamlet"}}, {"type": "node", "id": 7499953380, "lat": 58.2110731, "lon": 12.5395164, "tags": {"name": "Lunnabol", "place": "hamlet"}}, {"type": "node", "id": 7499955536, "lat": 58.2289327, "lon": 12.6040748, "tags": {"name": "\u00c5sen", "place": "hamlet"}}, {"type": "node", "id": 7499957019, "lat": 58.4048916, "lon": 12.7575472, "tags": {"name": "Karlanna", "place": "hamlet"}}, {"type": "node", "id": 7499961692, "lat": 58.4013609, "lon": 12.8444436, "tags": {"name": "Humleb\u00e4ck", "place": "hamlet"}}, {"type": "node", "id": 7499972288, "lat": 58.4218368, "lon": 12.8100385, "tags": {"name": "Furuberga", "place": "hamlet"}}, {"type": "node", "id": 7499975326, "lat": 58.3885405, "lon": 12.7937972, "tags": {"name": "R\u00e5glanna", "place": "hamlet"}}, {"type": "node", "id": 7499975922, "lat": 58.2109169, "lon": 12.6749864, "tags": {"name": "Tubbehagen", "place": "hamlet"}}, {"type": "node", "id": 7499976982, "lat": 58.4507, "lon": 12.846396, "tags": {"name": "Gutteberg", "place": "hamlet"}}, {"type": "node", "id": 7499977863, "lat": 58.4546711, "lon": 12.7681265, "tags": {"name": "Nolgatan", "place": "hamlet"}}, {"type": "node", "id": 7499978343, "lat": 58.4428342, "lon": 12.8174387, "tags": {"name": "Digrid", "place": "hamlet"}}, {"type": "node", "id": 7499981323, "lat": 58.2188608, "lon": 12.5954897, "tags": {"name": "Liljestorp", "place": "hamlet"}}, {"type": "node", "id": 7499984531, "lat": 58.4297549, "lon": 12.7814885, "tags": {"name": "Torpeg\u00e5rden", "place": "hamlet"}}, {"type": "node", "id": 7499989835, "lat": 58.4552448, "lon": 12.8511402, "tags": {"name": "\u00c5n", "place": "hamlet"}}, {"type": "node", "id": 7499991286, "lat": 58.4595018, "lon": 12.8472978, "tags": {"name": "Ekeberg", "place": "hamlet"}}, {"type": "node", "id": 7499996456, "lat": 58.2114119, "lon": 12.6165259, "tags": {"name": "Rasmusabo", "place": "hamlet"}}, {"type": "node", "id": 7500000772, "lat": 58.2562153, "lon": 12.5813684, "tags": {"name": "H\u00e4ljebo", "place": "hamlet"}}, {"type": "node", "id": 7500000773, "lat": 58.3017534, "lon": 12.5549274, "tags": {"name": "Kollebo", "place": "hamlet"}}, {"type": "node", "id": 7500000927, "lat": 58.2299262, "lon": 12.5833457, "tags": {"name": "Bj\u00f6rkebacken", "place": "hamlet"}}, {"type": "node", "id": 7500002192, "lat": 58.2144597, "lon": 12.6306234, "tags": {"name": "Kl\u00f6vebo", "place": "hamlet"}}, {"type": "node", "id": 7500003426, "lat": 58.2069817, "lon": 12.538892, "tags": {"name": "Ramstorp", "place": "hamlet"}}, {"type": "node", "id": 7500004350, "lat": 58.2246671, "lon": 12.6283627, "tags": {"name": "Lycke", "place": "hamlet"}}, {"type": "node", "id": 7500007002, "lat": 58.2039563, "lon": 12.6461995, "tags": {"name": "K\u00e4lltomten", "place": "hamlet"}}, {"type": "node", "id": 7500007041, "lat": 58.2373397, "lon": 12.5924163, "tags": {"name": "Tomten", "place": "hamlet"}}, {"type": "node", "id": 7500009410, "lat": 58.2095061, "lon": 12.5906749, "tags": {"name": "Laxarebo", "place": "hamlet"}}, {"type": "node", "id": 7500009875, "lat": 58.2352112, "lon": 12.5962916, "tags": {"name": "Boda", "place": "hamlet"}}, {"type": "node", "id": 7500011875, "lat": 58.2629307, "lon": 12.4961718, "tags": {"name": "L\u00e4rkebo", "place": "hamlet"}}, {"type": "node", "id": 7500016459, "lat": 58.2192442, "lon": 12.6178562, "tags": {"name": "Lind\u00e5s", "place": "hamlet"}}, {"type": "node", "id": 7500016996, "lat": 58.2155061, "lon": 12.6192815, "tags": {"name": "Fyrkullen", "place": "hamlet"}}, {"type": "node", "id": 7500027482, "lat": 58.2587732, "lon": 12.4972328, "tags": {"name": "Gunnarsbo", "place": "hamlet"}}, {"type": "node", "id": 7500038841, "lat": 58.2513912, "lon": 12.5842366, "tags": {"name": "Svenstorp", "place": "hamlet"}}, {"type": "node", "id": 7500038894, "lat": 58.2886699, "lon": 12.5324543, "tags": {"name": "Brandstorp", "place": "hamlet"}}, {"type": "node", "id": 7500039605, "lat": 58.2674884, "lon": 12.6208931, "tags": {"name": "Gunnarebo", "place": "hamlet"}}, {"type": "node", "id": 7500039633, "lat": 58.304606, "lon": 12.5613025, "tags": {"name": "Gertorp", "place": "hamlet"}}, {"type": "node", "id": 7500048457, "lat": 58.2774217, "lon": 12.5093918, "tags": {"name": "V\u00e4stbj\u00f6rke", "place": "hamlet"}}, {"type": "node", "id": 7500048780, "lat": 58.2964229, "lon": 12.6277905, "tags": {"name": "Ramshed", "place": "hamlet"}}, {"type": "node", "id": 7500050755, "lat": 58.2524164, "lon": 12.6062565, "tags": {"name": "Tokebo", "place": "hamlet"}}, {"type": "node", "id": 7500051481, "lat": 58.2485446, "lon": 12.5867313, "tags": {"name": "Krycklehult", "place": "hamlet"}}, {"type": "node", "id": 7500068383, "lat": 58.2954773, "lon": 12.5008361, "tags": {"name": "H\u00e5sten", "place": "hamlet"}}, {"type": "node", "id": 7500070588, "lat": 58.2850471, "lon": 12.4963499, "tags": {"name": "Byrum", "place": "hamlet"}}, {"type": "node", "id": 7500081756, "lat": 58.2985821, "lon": 12.5167282, "tags": {"name": "Vittene", "place": "hamlet"}}, {"type": "node", "id": 7500082521, "lat": 58.2931744, "lon": 12.53866, "tags": {"name": "H\u00f6khammar", "place": "hamlet"}}, {"type": "node", "id": 7500098063, "lat": 58.3243799, "lon": 12.5432877, "tags": {"name": "Bragnum", "place": "hamlet"}}, {"type": "node", "id": 7500098178, "lat": 58.2898303, "lon": 12.5088786, "tags": {"name": "\u00d6stbj\u00f6rke", "place": "hamlet"}}, {"type": "node", "id": 7500122866, "lat": 58.3482519, "lon": 12.5464835, "tags": {"name": "Flo", "place": "hamlet"}}, {"type": "node", "id": 7500123117, "lat": 58.3474554, "lon": 12.624728, "tags": {"name": "Skatteg\u00e5rden", "place": "hamlet"}}, {"type": "node", "id": 7500124949, "lat": 58.330874, "lon": 12.618222, "tags": {"name": "Astranna", "place": "hamlet"}}, {"type": "node", "id": 7500127943, "lat": 58.3650593, "lon": 12.6379925, "tags": {"name": "Backa", "place": "hamlet"}}, {"type": "node", "id": 7500130160, "lat": 58.3736209, "lon": 12.6252603, "tags": {"name": "Nyb\u00f6let", "place": "hamlet"}}, {"type": "node", "id": 7500132368, "lat": 58.3246606, "lon": 12.5711762, "tags": {"name": "Kampetorp", "place": "hamlet"}}, {"type": "node", "id": 7500132601, "lat": 58.3331213, "lon": 12.6003896, "tags": {"name": "G\u00e5lstad", "place": "hamlet"}}, {"type": "node", "id": 7500134021, "lat": 58.3385536, "lon": 12.5337092, "tags": {"name": "Garpetorp", "place": "hamlet"}}, {"type": "node", "id": 7500135204, "lat": 58.3462974, "lon": 12.5247947, "tags": {"name": "Kleven", "place": "hamlet"}}, {"type": "node", "id": 7500169943, "lat": 58.3768185, "lon": 12.4983507, "tags": {"name": "Grytet", "place": "hamlet"}}, {"type": "node", "id": 7500174646, "lat": 58.3810803, "lon": 12.4989211, "tags": {"name": "\u00c4nden", "place": "hamlet"}}, {"type": "node", "id": 7500182140, "lat": 58.5915216, "lon": 12.5568134, "tags": {"name": "H\u00f6gstorp", "place": "hamlet"}}, {"type": "node", "id": 7500184130, "lat": 58.4064216, "lon": 12.5837822, "tags": {"name": "Oreberg", "place": "hamlet"}}, {"type": "node", "id": 7500185090, "lat": 58.3850177, "lon": 12.5304994, "tags": {"name": "Hallby", "place": "hamlet"}}, {"type": "node", "id": 7500188274, "lat": 58.5902782, "lon": 12.4986284, "tags": {"name": "Nyg\u00e5rden", "place": "hamlet"}}, {"type": "node", "id": 7500214001, "lat": 58.5943487, "lon": 12.4968233, "tags": {"name": "Holmen", "place": "hamlet"}}, {"type": "node", "id": 7500215474, "lat": 58.468406, "lon": 12.8548469, "tags": {"name": "Tohaga", "place": "hamlet"}}, {"type": "node", "id": 7500220983, "lat": 58.559491, "lon": 12.4995695, "tags": {"name": "S\u00f6rhagen", "place": "hamlet"}}, {"type": "node", "id": 7500236676, "lat": 58.6098637, "lon": 12.5759365, "tags": {"name": "Banken", "place": "hamlet"}}, {"type": "node", "id": 7500246493, "lat": 58.6193051, "lon": 12.5680283, "tags": {"name": "Ugglom", "place": "hamlet"}}, {"type": "node", "id": 7500248034, "lat": 58.6181824, "lon": 12.5403716, "tags": {"name": "Mossen", "place": "hamlet"}}, {"type": "node", "id": 7500251324, "lat": 58.6055728, "lon": 12.5732378, "tags": {"name": "Bredg\u00e5rden", "place": "hamlet"}}, {"type": "node", "id": 7500258207, "lat": 58.5954692, "lon": 12.5408706, "tags": {"name": "Tillhagen", "place": "hamlet"}}, {"type": "node", "id": 7500259219, "lat": 58.5776743, "lon": 12.5561946, "tags": {"name": "Torp", "place": "hamlet"}}, {"type": "node", "id": 7500261838, "lat": 58.5925736, "lon": 12.5327995, "tags": {"name": "Holmen", "place": "hamlet"}}, {"type": "node", "id": 7500271581, "lat": 58.5871663, "lon": 12.5235264, "tags": {"name": "K\u00e5rebyn", "place": "hamlet"}}, {"type": "node", "id": 7500274785, "lat": 58.588208, "lon": 12.5333309, "tags": {"name": "H\u00f6ga", "place": "hamlet"}}, {"type": "node", "id": 7500276571, "lat": 58.5815618, "lon": 12.5222545, "tags": {"name": "Dyreberg", "place": "hamlet"}}, {"type": "node", "id": 7500297840, "lat": 58.4879468, "lon": 12.8764572, "tags": {"name": "Kambo", "place": "hamlet"}}, {"type": "node", "id": 7500322547, "lat": 58.4824938, "lon": 12.8640235, "tags": {"name": "Kedumstorp", "place": "hamlet"}}, {"type": "node", "id": 7500328521, "lat": 58.2638868, "lon": 12.9240128, "tags": {"name": "Nedervara", "place": "hamlet"}}, {"type": "node", "id": 7500332991, "lat": 58.4626895, "lon": 12.8546987, "tags": {"name": "Svaleberg", "place": "hamlet"}}, {"type": "node", "id": 7500334659, "lat": 58.2651909, "lon": 12.8496871, "tags": {"name": "Ekebacka", "place": "hamlet"}}, {"type": "node", "id": 7500356123, "lat": 58.2828972, "lon": 12.9267214, "tags": {"name": "Backebo", "place": "hamlet"}}, {"type": "node", "id": 7500357749, "lat": 58.2181281, "lon": 12.9239444, "tags": {"name": "B\u00e4ckebo", "place": "hamlet"}}, {"type": "node", "id": 7500361024, "lat": 58.269054, "lon": 12.8539375, "tags": {"name": "Lilleg\u00e5rden", "place": "hamlet"}}, {"type": "node", "id": 7500371387, "lat": 58.261565, "lon": 12.8638351, "tags": {"name": "\u00c5sen", "place": "hamlet"}}, {"type": "node", "id": 7500381073, "lat": 58.4438461, "lon": 12.8642037, "tags": {"name": "Vr\u00e5nghult", "place": "hamlet"}}, {"type": "node", "id": 7500386028, "lat": 58.2581219, "lon": 12.9092991, "tags": {"name": "Karstorp", "place": "hamlet"}}, {"type": "node", "id": 7500390859, "lat": 58.205736, "lon": 12.90506, "tags": {"name": "Vasen", "place": "hamlet"}}, {"type": "node", "id": 7500400830, "lat": 58.3040985, "lon": 12.8903888, "tags": {"name": "Rylanda", "place": "hamlet"}}, {"type": "node", "id": 7500402265, "lat": 58.4772342, "lon": 12.880037, "tags": {"name": "Pilebo", "place": "hamlet"}}, {"type": "node", "id": 7500402548, "lat": 58.2472239, "lon": 12.9000054, "tags": {"name": "Kedumsholm", "place": "hamlet"}}, {"type": "node", "id": 7500406307, "lat": 58.3990368, "lon": 12.8730976, "tags": {"name": "Kolmesj\u00f6", "place": "hamlet"}}, {"type": "node", "id": 7500406607, "lat": 58.2733538, "lon": 12.9111467, "tags": {"name": "Kantorp", "place": "hamlet"}}, {"type": "node", "id": 7500407730, "lat": 58.4577955, "lon": 12.8775391, "tags": {"name": "R\u00e4ttareg\u00e5rden", "place": "hamlet"}}, {"type": "node", "id": 7500412882, "lat": 58.277716, "lon": 12.9153408, "tags": {"name": "Klo", "place": "hamlet"}}, {"type": "node", "id": 7500419631, "lat": 58.3744101, "lon": 12.9007972, "tags": {"name": "J\u00e4rp\u00e5shagen", "place": "hamlet"}}, {"type": "node", "id": 7500425909, "lat": 58.4526201, "lon": 12.8763935, "tags": {"name": "Dammsg\u00e5rden", "place": "hamlet"}}, {"type": "node", "id": 7500426170, "lat": 58.4723753, "lon": 12.9042355, "tags": {"name": "Torpa", "place": "hamlet"}}, {"type": "node", "id": 7500434641, "lat": 58.3458199, "lon": 12.904355, "tags": {"name": "Sk\u00e5r", "place": "hamlet"}}, {"type": "node", "id": 7500435149, "lat": 58.4241614, "lon": 12.8733468, "tags": {"name": "Botorp", "place": "hamlet"}}, {"type": "node", "id": 7500435901, "lat": 58.3508718, "lon": 12.9295223, "tags": {"name": "Gunneb\u00e4ck", "place": "hamlet"}}, {"type": "node", "id": 7500454002, "lat": 58.4121869, "lon": 12.9155676, "tags": {"name": "Bosg\u00e5rden", "place": "hamlet"}}, {"type": "node", "id": 7500465113, "lat": 58.3998787, "lon": 12.9178004, "tags": {"name": "Stingg\u00e5rden", "place": "hamlet"}}, {"type": "node", "id": 7500489511, "lat": 58.4720008, "lon": 12.8923397, "tags": {"name": "Aggetorp", "place": "hamlet"}}, {"type": "node", "id": 7500490653, "lat": 58.4848138, "lon": 12.9078007, "tags": {"name": "K\u00e5reg\u00e5rden", "place": "hamlet"}}, {"type": "node", "id": 7500963669, "lat": 58.2018175, "lon": 12.7376188, "tags": {"name": "Kroken", "place": "hamlet"}}, {"type": "node", "id": 7500990548, "lat": 58.2020887, "lon": 12.6944904, "tags": {"name": "Toltorp", "place": "hamlet"}}, {"type": "node", "id": 7500995616, "lat": 58.1938269, "lon": 12.6131265, "tags": {"name": "Laggarebo", "place": "hamlet"}}, {"type": "node", "id": 7501022042, "lat": 58.1936523, "lon": 12.5714984, "tags": {"name": "Knarven", "place": "hamlet"}}, {"type": "node", "id": 7501026632, "lat": 58.1906862, "lon": 12.5048648, "tags": {"name": "Kr\u00f6ssl\u00e4tt", "place": "hamlet"}}, {"type": "node", "id": 7501043926, "lat": 58.2002503, "lon": 12.6401311, "tags": {"name": "K\u00e4llhult", "place": "hamlet"}}, {"type": "node", "id": 7501049263, "lat": 58.1989016, "lon": 12.5948483, "tags": {"name": "K\u00e4rr", "place": "hamlet"}}, {"type": "node", "id": 7501051670, "lat": 58.1942262, "lon": 12.5154225, "tags": {"name": "Humlebotten", "place": "hamlet"}}, {"type": "node", "id": 7501061357, "lat": 58.2004033, "lon": 12.6798609, "tags": {"name": "Hult", "place": "hamlet"}}, {"type": "node", "id": 7501063028, "lat": 58.200577, "lon": 12.9169873, "tags": {"name": "Ringsholm", "place": "hamlet"}}, {"type": "node", "id": 8091072040, "lat": 58.3601782, "lon": 12.6266169, "tags": {"name": "Sal", "place": "hamlet"}}, {"type": "node", "id": 8093536079, "lat": 58.4142454, "lon": 12.7012575, "tags": {"name": "Karaby", "place": "hamlet"}}, {"type": "node", "id": 8119686322, "lat": 58.2814208, "lon": 12.6475811, "tags": {"name": "Tr\u00f6k\u00f6rna", "place": "hamlet"}}, {"type": "node", "id": 8176573387, "lat": 58.4175382, "lon": 12.8786802, "tags": {"name": "Lavad", "place": "hamlet"}}, {"type": "node", "id": 8177347183, "lat": 58.4076587, "lon": 12.916156, "tags": {"name": "H\u00e4ggesled", "place": "hamlet"}}]}