{"version": 0.6, "generator": "Overpass API 0.7.61.5 4133829e", "osm3s": {"timestamp_osm_base": "2024-03-06T11:43:14Z", "copyright": "The data included in this document is from www.openstreetmap.org. The data is made available under ODbL."}, "elements": [{"type": "node", "id": 1404221589, "lat": 0.5319, "lon": 41.497799, "tags": {"name": "Sencor Gherbic", "pcode": "NA-3716-M22-001", "place": "village", "source": "UNDP - 1997"}}, {"type": "node", "id": 1404221872, "lat": 0.5213, "lon": 41.670799, "tags": {"name": "Cangiara", "pcode": "NA-3716-M26-001", "place": "village", "source": "UNDP - 1997"}}, {"type": "node", "id": 1404225715, "lat": 0.55, "lon": 41.548901, "tags": {"name": "Sencor Melbe", "pcode": "NA-3716-L24-001", "place": "village", "source": "UNDP - 1997"}}, {"type": "node", "id": 1404226239, "lat": 0.5789, "lon": 41.472, "tags": {"name": "Iach Monis", "pcode": "NA-3716-L22-001", "place": "village", "source": "UNDP - 1997"}}, {"type": "node", "id": 1404229753, "lat": 0.7016, "lon": 41.632, "tags": {"name": "Tarri", "pcode": "NA-3716-H25-001", "place": "village", "source": "UNDP - 1997"}}, {"type": "node", "id": 1404230175, "lat": 0.5524, "lon": 41.629501, "tags": {"name": "Sencar Aveggio", "pcode": "NA-3716-L25-001", "place": "village", "source": "UNDP - 1997"}}, {"type": "node", "id": 1404230688, "lat": 0.6713, "lon": 41.731701, "tags": {"name": "Xaliima Caddey", "pcode": "NA-3716-H28-001", "place": "village", "source": "UNDP - 1997"}}, {"type": "node", "id": 1404231944, "lat": 0.72797, "lon": 41.54273, "tags": {"alt_name": "Godaya Diriye", "name": "Godaya", "pcode": "NA-3716-G23-001", "place": "village", "source": "FSAU"}}]}