{"version": 0.6, "generator": "Overpass API 0.7.61.5 4133829e", "osm3s": {"timestamp_osm_base": "2024-03-06T11:05:25Z", "copyright": "The data included in this document is from www.openstreetmap.org. The data is made available under ODbL."}, "elements": [{"type": "node", "id": 3036629240, "lat": 36.0596527, "lon": 45.7481268, "tags": {"amenity": "bank", "name": "\u0628\u0627\u0646\u06a9 \u06a9\u0634\u0627\u0648\u0631\u0632\u06cc"}}, {"type": "node", "id": 4318224529, "lat": 35.9920835, "lon": 45.8852328, "tags": {"amenity": "bank", "brand": "\u0628\u0627\u0646\u06a9 \u0635\u0627\u062f\u0631\u0627\u062a", "brand:en": "Bank Saderat Iran", "brand:wikidata": "Q2882608", "brand:wikipedia": "en:Bank Saderat Iran", "name": "\u0628\u0627\u0646\u06a9 \u0635\u0627\u062f\u0631\u0627\u062a", "name:en": "Bank Saderat Iran"}}, {"type": "node", "id": 4318290831, "lat": 35.9922045, "lon": 45.8853522, "tags": {"amenity": "bank", "brand": "\u0628\u0627\u0646\u06a9 \u0645\u0644\u062a", "brand:en": "Bank Mellat", "brand:wikidata": "Q4855944", "brand:wikipedia": "en:Bank Mellat", "name": "\u0628\u0627\u0646\u06a9 \u0645\u0644\u062a", "name:en": "Bank Mellat"}}, {"type": "node", "id": 4318621693, "lat": 35.9908614, "lon": 45.888622, "tags": {"amenity": "bank", "brand": "\u0628\u0627\u0646\u06a9 \u0645\u0644\u06cc", "brand:en": "Bank Melli Iran", "brand:wikidata": "Q806640", "brand:wikipedia": "en:Bank Melli Iran", "name": "\u0628\u0627\u0646\u06a9 \u0645\u0644\u06cc", "name:en": "Bank Melli Iran"}}, {"type": "node", "id": 4590342455, "lat": 35.9956358, "lon": 45.8856432, "tags": {"addr:postcode": "87342", "addr:street": "\u0628\u0644\u0648\u0627\u0631 \u0622\u0632\u0627\u062f\u06cc", "amenity": "bank", "atm": "yes", "brand": "\u0628\u0627\u0646\u06a9 \u0645\u0644\u06cc", "brand:en": "Bank Melli Iran", "brand:wikidata": "Q806640", "brand:wikipedia": "en:Bank Melli Iran", "name": "\u0628\u0627\u0646\u06a9 \u0645\u0644\u06cc", "name:en": "Bank Melli Iran"}}]}