{"version": 0.6, "generator": "Overpass API 0.7.61.5 4133829e", "osm3s": {"timestamp_osm_base": "2024-03-06T11:44:15Z", "copyright": "The data included in this document is from www.openstreetmap.org. The data is made available under ODbL."}, "elements": [{"type": "node", "id": 965844692, "lat": -3.6468838, "lon": 37.660315, "tags": {"name": "Ugweno", "place": "village", "source": "Africover - Towns (other towns)", "wikidata": "Q16902271", "wikipedia": "en:Ugweno"}}, {"type": "node", "id": 965844859, "lat": -3.6268287, "lon": 37.6664365, "tags": {"name": "Kifula", "place": "village", "source": "Africover - Towns (other towns)"}}, {"type": "node", "id": 5323623904, "lat": -3.715286, "lon": 37.790221, "tags": {"description": "DP Village Center", "ele": "722.4", "name": "Toloha Village", "place": "village", "source": "GPS survey"}}, {"type": "node", "id": 7057214952, "lat": -3.6450151, "lon": 37.7161415, "tags": {"name": "Butu", "place": "village", "population": "1049", "source": "OpenData-NBS2012-HealthFacilities2014"}}, {"type": "node", "id": 7529173597, "lat": -3.621068, "lon": 37.6797989, "tags": {"country": "Tanzania", "district": "Mwanga", "name": "Mriti", "place": "village", "region": "Kilimanjaro", "ward": "Mwaniko"}}, {"type": "node", "id": 7529173598, "lat": -3.650174, "lon": 37.6619747, "tags": {"country": "Tanzania", "district": "Mwanga", "name": "Msangeni", "place": "village", "region": "Kilimanjaro", "ward": "Msangeni"}}, {"type": "node", "id": 7529173599, "lat": -3.6343057, "lon": 37.6406918, "tags": {"country": "Tanzania", "district": "Mwanga", "name": "Mluma", "place": "village", "region": "Kilimanjaro", "ward": "Msangeni"}}, {"type": "node", "id": 7529173602, "lat": -3.636908, "lon": 37.679362, "tags": {"country": "Tanzania", "district": "Mwanga", "name": "Masumbweni", "place": "village", "region": "Kilimanjaro", "ward": "Kifula"}}, {"type": "node", "id": 7529173603, "lat": -3.6432972, "lon": 37.6834167, "tags": {"country": "Tanzania", "district": "Mwanga", "name": "Masumbeni", "place": "village", "region": "Kilimanjaro", "ward": "Kifula"}}, {"type": "node", "id": 7529173620, "lat": -3.6968332, "lon": 37.7222771, "tags": {"country": "Tanzania", "district": "Mwanga", "name": "Kigonigoni", "place": "village", "region": "Kilimanjaro", "ward": "Kigoningoni"}}, {"type": "node", "id": 9885173947, "lat": -3.6148799, "lon": 37.663069, "tags": {"name": "Motingi", "place": "hamlet"}}]}