{"version": 0.6, "generator": "Overpass API 0.7.61.5 4133829e", "osm3s": {"timestamp_osm_base": "2024-03-06T10:59:15Z", "copyright": "The data included in this document is from www.openstreetmap.org. The data is made available under ODbL."}, "elements": [{"type": "node", "id": 4360590691, "lat": 35.3065181, "lon": 45.9705108, "tags": {"amenity": "bank", "name": "prdy zalm"}}, {"type": "node", "id": 6770295785, "lat": 35.3187819, "lon": 45.6767044, "tags": {"addr:street": "\u0642\u06d5\u0632\u0627\u06cc \u0634\u0627\u0631\u06d5\u0632\u0648\u0648\u0631", "amenity": "bank", "name": "\u0628\u0627\u0646\u06a9\u06cc \u0634\u0627\u0631\u06d5\u0632\u0648\u0648\u0631", "name:en": "banke sharazoor", "website": "https://www.facebook.com/profile.php?id=100034681281511"}}, {"type": "node", "id": 7235308577, "lat": 35.6113853, "lon": 45.961896}, {"type": "node", "id": 7235308578, "lat": 35.6111738, "lon": 45.9622195}, {"type": "node", "id": 7235308579, "lat": 35.6110125, "lon": 45.96206}, {"type": "node", "id": 7235308580, "lat": 35.6112239, "lon": 45.9617365}, {"type": "node", "id": 7241052138, "lat": 35.3594747, "lon": 45.8496189, "tags": {"addr:city": "\u0633\u06d5\u06cc\u062f\u0633\u0627\u062f\u0642", "amenity": "bank", "name": "\u0628\u0627\u0646\u0642\u06cc \u0633\u06d5\u06cc\u062f\u0633\u0627\u062f\u0642"}}, {"type": "way", "id": 775574058, "nodes": [7235308577, 7235308578, 7235308579, 7235308580, 7235308577], "tags": {"addr:city": "\u067e\u06ce\u0646\u062c\u0648\u06ce\u0646", "amenity": "bank", "building": "yes", "name": "\u0628\u0627\u0646\u06a9\u06cc \u067e\u06ce\u0646\u062c\u0648\u06ce\u0646"}}]}