{"version": 0.6, "generator": "Overpass API 0.7.61.5 4133829e", "osm3s": {"timestamp_osm_base": "2024-03-06T11:46:14Z", "copyright": "The data included in this document is from www.openstreetmap.org. The data is made available under ODbL."}, "elements": [{"type": "node", "id": 44927555, "lat": -1.0162247, "lon": 34.1164397, "tags": {"is_in": "Migori,Kenya", "name": "Muhoro", "place": "village"}}, {"type": "node", "id": 3623251604, "lat": -1.0521229, "lon": 34.089183, "tags": {"is_in": "Mara, Tanzania", "name": "Kirongwe", "place": "village"}}, {"type": "node", "id": 4559723168, "lat": -1.0808637, "lon": 34.0760743, "tags": {"name": "Nyamagongo", "place": "village", "population": "500"}}, {"type": "node", "id": 4559735718, "lat": -1.0821907, "lon": 34.0759121, "tags": {"name": "Bubombi", "place": "village", "population": "1500"}}, {"type": "node", "id": 5239553334, "lat": -1.130129, "lon": 34.2269344, "tags": {"name": "Panyakoo", "name:en": "Panyakoo", "name:sw": "Kijiji cha Panyakoo", "place": "village"}}, {"type": "node", "id": 5563944603, "lat": -1.1930247, "lon": 34.3425536, "tags": {"is_in:ward": "Ikoma", "name": "Ikoma", "place": "village", "population": "4283", "source": "OSM-NBS2012"}}, {"type": "node", "id": 5563944604, "lat": -1.1673668, "lon": 34.2988872, "tags": {"is_in:ward": "Ikoma", "name": "Kagoja", "place": "village", "population": "3299", "source": "OSM-NBS2012"}}, {"type": "node", "id": 5563944609, "lat": -1.1917207, "lon": 34.286505, "tags": {"name": "Nyamasanda", "place": "village", "population": "2816", "source": "OSM-NBS2012", "ward": "Ikoma"}}, {"type": "node", "id": 5563944610, "lat": -1.2, "lon": 34.25, "tags": {"is_in:ward": "Goribe", "name": "Tatwe", "place": "village", "population": "2887", "source": "GNS-P.PPL-2016-07-26"}}, {"type": "node", "id": 5563944611, "lat": -1.1581469, "lon": 34.2606765, "tags": {"is_in:ward": "Goribe", "name": "Nyamusi", "place": "village", "population": "3866", "source": "OSM-NBS2012"}}, {"type": "node", "id": 5563944614, "lat": -1.1031971, "lon": 34.1286512, "tags": {"is_in:ward": "Bukura", "name": "Thabache", "place": "village", "population": "2128", "source": "OSM-NBS2012"}}, {"type": "node", "id": 5563944615, "lat": -1.1345782, "lon": 34.1231736, "tags": {"is_in:ward": "Bukura", "name": "Nyambori", "place": "village", "population": "2227", "source": "OSM-NBS2012"}}, {"type": "node", "id": 5564047227, "lat": -1.1575561, "lon": 34.1948591, "tags": {"is_in:ward": "Kitembe", "name": "Sakawa", "place": "village", "population": "3985", "source": "OSM-NBS2012"}}, {"type": "node", "id": 5564189855, "lat": -1.1025308, "lon": 34.1886788, "tags": {"is_in:ward": "Roche", "name": "Roche", "place": "village", "population": "3405", "source": "OSM-NBS2012"}}, {"type": "node", "id": 5564189856, "lat": -1.1318603, "lon": 34.1603866, "tags": {"is_in:ward": "Roche", "name": "Osiri", "place": "village", "population": "2571", "source": "OSM-NBS2012"}}, {"type": "node", "id": 5564406435, "lat": -1.2165659, "lon": 34.3231686, "tags": {"name": "Nyabirongo", "place": "village", "population": "2157", "source": "OSM-NBS2012"}}, {"type": "node", "id": 10632608701, "lat": -1.0121548, "lon": 34.2451212, "tags": {"name": "Ongoche", "place": "village"}}, {"type": "node", "id": 10747942344, "lat": -1.0101369, "lon": 34.2805829, "tags": {"name": "Namba Kodero", "place": "village"}}, {"type": "node", "id": 10860169447, "lat": -1.0021664, "lon": 34.2905451, "tags": {"name": "Namba Kalenge", "place": "village"}}, {"type": "node", "id": 10860169448, "lat": -1.0083179, "lon": 34.311939, "tags": {"name": "Mikei", "place": "village"}}, {"type": "node", "id": 10860169449, "lat": -1.0105788, "lon": 34.3253135, "tags": {"name": "Kabobo", "place": "village"}}, {"type": "node", "id": 10860169450, "lat": -1.0229899, "lon": 34.3051367, "tags": {"name": "Namba Koloo", "place": "village"}}, {"type": "node", "id": 10860169451, "lat": -1.0263368, "lon": 34.3308969, "tags": {"name": "Maasara", "place": "village"}}]}