{"version": 0.6, "generator": "Overpass API 0.7.61.5 4133829e", "osm3s": {"timestamp_osm_base": "2024-03-05T11:05:12Z", "copyright": "The data included in this document is from www.openstreetmap.org. The data is made available under ODbL."}, "elements": [{"type": "node", "id": 892156362, "lat": 6.600451, "lon": -0.882649, "tags": {"name": "Adansua", "place": "village"}}, {"type": "node", "id": 892156780, "lat": 6.5973205, "lon": -0.9152263, "tags": {"name": "Nnadieso", "place": "village"}}, {"type": "node", "id": 892157529, "lat": 6.586867, "lon": -0.818717, "tags": {"name": "Awenade", "place": "village"}}, {"type": "node", "id": 892157875, "lat": 6.598994, "lon": -0.840002, "tags": {"name": "Asona", "place": "village"}}, {"type": "node", "id": 892161825, "lat": 6.600792, "lon": -0.987684, "tags": {"name": "Breku", "place": "village"}}, {"type": "node", "id": 1795564850, "lat": 6.7160312, "lon": -1.1723846, "tags": {"name": "Pekyerekye", "place": "village"}}, {"type": "node", "id": 1795564885, "lat": 6.7223645, "lon": -1.1397159, "tags": {"name": "Domeabra", "place": "town"}}, {"type": "node", "id": 1795564888, "lat": 6.7162534, "lon": -1.1300943, "tags": {"name": "Juansa", "place": "town"}}, {"type": "node", "id": 1795564891, "lat": 6.583384, "lon": -1.119395, "tags": {"capital": "6", "name": "Juaso", "place": "town", "wikidata": "Q1710732"}}, {"type": "node", "id": 1818632565, "lat": 6.3820927, "lon": -0.9127244, "tags": {"name": "Twapease", "place": "village"}}, {"type": "node", "id": 1818632570, "lat": 6.4666541, "lon": -1.0681313, "tags": {"name": "Saabo", "place": "village"}}, {"type": "node", "id": 1818632571, "lat": 6.4742295, "lon": -1.0861274, "tags": {"name": "Kumeso", "place": "village"}}, {"type": "node", "id": 1818632572, "lat": 6.5072396, "lon": -0.9837789, "tags": {"name": "Praso Amoada", "place": "village"}}, {"type": "node", "id": 1818632573, "lat": 6.5481857, "lon": -0.9485548, "tags": {"name": "Gyamaase No.2", "place": "village"}}, {"type": "node", "id": 1818632574, "lat": 6.5559145, "lon": -1.0465372, "tags": {"name": "Dampong", "place": "village"}}, {"type": "node", "id": 1818632575, "lat": 6.5650953, "lon": -0.9560015, "tags": {"name": "Gyamaase No.1", "place": "village"}}, {"type": "node", "id": 1818632576, "lat": 6.578108, "lon": -1.036431, "tags": {"name": "Asuboa", "place": "village"}}, {"type": "node", "id": 1818632577, "lat": 6.6317248, "lon": -0.9741978, "tags": {"name": "Adontekurom", "place": "village"}}, {"type": "node", "id": 1818632578, "lat": 6.6341781, "lon": -0.9429879, "tags": {"place": "village"}}, {"type": "node", "id": 1818632580, "lat": 6.6398706, "lon": -0.9620264, "tags": {"name": "Asempaneye", "place": "village"}}, {"type": "node", "id": 1818632581, "lat": 6.6517811, "lon": -1.1845098, "tags": {"name": "Nyaboo", "place": "village"}}, {"type": "node", "id": 1818632582, "lat": 6.656353, "lon": -0.9563957, "tags": {"name": "Sukwa", "place": "village"}}, {"type": "node", "id": 1818632583, "lat": 6.6619572, "lon": -1.1789403, "tags": {"name": "Patriensa", "place": "village"}}, {"type": "node", "id": 1818632584, "lat": 6.6665816, "lon": -1.0821491, "tags": {"name": "Adomfe", "place": "village"}}, {"type": "node", "id": 1818632585, "lat": 6.6758211, "lon": -1.166701, "tags": {"name": "Obenimase", "place": "village"}}, {"type": "node", "id": 1818632586, "lat": 6.6886309, "lon": -0.9517879, "tags": {"name": "Mframa", "place": "village"}}, {"type": "node", "id": 1818632587, "lat": 6.6889333, "lon": -1.1464169, "tags": {"name": "Kyekyebiase", "place": "village"}}, {"type": "node", "id": 1818632588, "lat": 6.7301603, "lon": -0.9400544, "tags": {"name": "Dwerebease", "place": "village"}}, {"type": "node", "id": 1819076601, "lat": 6.6241454, "lon": -0.9132355, "tags": {"name": "Kwahu Praso No.2", "place": "town"}}, {"type": "node", "id": 1819076603, "lat": 6.634161, "lon": -1.059595, "tags": {"name": "Bompata", "place": "village", "wikidata": "Q4940903"}}, {"type": "node", "id": 1819076604, "lat": 6.6381558, "lon": -0.9246991, "tags": {"name": "Nkurakan", "place": "village"}}, {"type": "node", "id": 1819076605, "lat": 6.6382307, "lon": -1.080841, "tags": {"alt_name": "Wenkyi", "name": "Wenchi", "place": "village"}}, {"type": "node", "id": 1819076606, "lat": 6.6537053, "lon": -1.1082832, "tags": {"name": "Morso", "place": "village"}}, {"type": "node", "id": 1819076607, "lat": 6.653991, "lon": -0.9291825, "tags": {"name": "Adunkwae", "place": "village"}}, {"type": "node", "id": 1819076610, "lat": 6.6683632, "lon": -0.9182322, "tags": {"name": "Osubeng", "place": "village"}}, {"type": "node", "id": 1819076611, "lat": 6.6846082, "lon": -1.1075433, "tags": {"name": "Krofa", "place": "village"}}, {"type": "node", "id": 1828131730, "lat": 6.318759, "lon": -1.1402194, "tags": {"name": "Kokobin", "place": "village"}}, {"type": "node", "id": 1828131731, "lat": 6.3261656, "lon": -1.1787031, "tags": {"name": "Yokwai", "place": "village"}}, {"type": "node", "id": 1828131740, "lat": 6.3395445, "lon": -1.1209128, "tags": {"name": "Kpone Praso", "place": "village"}}, {"type": "node", "id": 1828131755, "lat": 6.3693223, "lon": -1.1913088, "tags": {"name": "Odumase", "place": "village"}}, {"type": "node", "id": 1828131764, "lat": 6.371126, "lon": -1.1099591, "tags": {"name": "Teshie Praso", "place": "village"}}, {"type": "node", "id": 1828131769, "lat": 6.4019221, "lon": -1.1048252, "tags": {"name": "Takyikrom", "place": "village"}}, {"type": "node", "id": 1828131773, "lat": 6.4050638, "lon": -1.1254833, "tags": {"name": "Subinso", "place": "village"}}, {"type": "node", "id": 1828131780, "lat": 6.4268213, "lon": -1.1652565, "tags": {"place": "village"}}, {"type": "node", "id": 1828131781, "lat": 6.4275235, "lon": -1.1339751, "tags": {"place": "village"}}, {"type": "node", "id": 1828131792, "lat": 6.4312991, "lon": -1.1302982, "tags": {"name": "Chempaw", "place": "village"}}, {"type": "node", "id": 1828131797, "lat": 6.4406142, "lon": -1.1874714, "tags": {"place": "village"}}, {"type": "node", "id": 1828131802, "lat": 6.4458715, "lon": -1.160999, "tags": {"place": "village"}}, {"type": "node", "id": 1828131804, "lat": 6.4500584, "lon": -1.1195859, "tags": {"place": "village"}}, {"type": "node", "id": 1828131805, "lat": 6.45473, "lon": -1.1651818, "tags": {"place": "village"}}, {"type": "node", "id": 1828131816, "lat": 6.4669257, "lon": -1.1678535, "tags": {"place": "village"}}, {"type": "node", "id": 1828131820, "lat": 6.4684766, "lon": -1.1216486, "tags": {"place": "village"}}, {"type": "node", "id": 1828131828, "lat": 6.4930855, "lon": -1.1518607, "tags": {"name": "Atiemo", "place": "village"}}, {"type": "node", "id": 1828131829, "lat": 6.4996938, "lon": -0.9246468, "tags": {"name": "Kwekuanani", "place": "village"}}, {"type": "node", "id": 1828131830, "lat": 6.5223411, "lon": -0.9650707, "tags": {"name": "Amoah", "place": "village"}}, {"type": "node", "id": 1828131844, "lat": 6.5497841, "lon": -0.9114264, "tags": {"name": "Atwedie", "place": "village"}}, {"type": "node", "id": 1828131849, "lat": 6.747146, "lon": -0.9719094, "tags": {"name": "Onyimso", "place": "village"}}, {"type": "node", "id": 2061267867, "lat": 6.391698, "lon": -1.058334, "tags": {"name": "Abodom", "place": "village"}}, {"type": "node", "id": 2061267877, "lat": 6.3936717, "lon": -1.0158009, "tags": {"name": "Oda-Akrofonso", "place": "village"}}, {"type": "node", "id": 2061267901, "lat": 6.3963479, "lon": -1.0798191, "tags": {"name": "Komeaboi", "place": "village"}}, {"type": "node", "id": 2061267904, "lat": 6.3965575, "lon": -1.0550036, "tags": {"name": "Keina", "place": "village"}}, {"type": "node", "id": 2061267919, "lat": 6.3970566, "lon": -1.0379551, "tags": {"name": "Prasokuma", "place": "village"}}, {"type": "node", "id": 2061267984, "lat": 6.4044376, "lon": -1.0429772, "tags": {"place": "village"}}, {"type": "node", "id": 2061268032, "lat": 6.4235814, "lon": -1.0521249, "tags": {"place": "village"}}, {"type": "node", "id": 2061268170, "lat": 6.4595867, "lon": -1.0343888, "tags": {"place": "village"}}, {"type": "node", "id": 2061268196, "lat": 6.4617944, "lon": -0.9402527, "tags": {"name": "Nwiso", "place": "village"}}, {"type": "node", "id": 2061268202, "lat": 6.462073, "lon": -1.0234152, "tags": {"place": "village"}}, {"type": "node", "id": 2061268275, "lat": 6.4685371, "lon": -1.0402509, "tags": {"place": "village"}}, {"type": "node", "id": 2061268285, "lat": 6.4699223, "lon": -1.0229148, "tags": {"place": "village"}}, {"type": "node", "id": 2061268308, "lat": 6.4723374, "lon": -1.04765, "tags": {"place": "village"}}, {"type": "node", "id": 2061268391, "lat": 6.4928034, "lon": -1.0684538, "tags": {"place": "village"}}, {"type": "node", "id": 2061268468, "lat": 6.5259487, "lon": -0.9405623, "tags": {"name": "Koobiakura", "place": "village"}}, {"type": "node", "id": 2061268592, "lat": 6.5951788, "lon": -1.0739096, "tags": {"name": "Atwidie", "place": "village"}}, {"type": "node", "id": 2061268609, "lat": 6.602081, "lon": -1.046437, "tags": {"name": "Asankare", "place": "village", "wikidata": "Q20627270"}}, {"type": "node", "id": 2061268625, "lat": 6.6066973, "lon": -1.0094353, "tags": {"place": "village"}}, {"type": "node", "id": 2061268655, "lat": 6.615148, "lon": -0.9742627, "tags": {"place": "village"}}, {"type": "node", "id": 2117753380, "lat": 6.6172164, "lon": -1.1569282, "tags": {"name": "Yawkwei", "place": "village"}}, {"type": "node", "id": 2122496895, "lat": 6.6902885, "lon": -1.013524, "tags": {"name": "Tanokrom", "place": "village"}}, {"type": "node", "id": 2165312297, "lat": 6.7026898, "lon": -0.785397, "tags": {"name": "Abene", "place": "village"}}, {"type": "node", "id": 2165312298, "lat": 6.6155407, "lon": -0.8202169, "tags": {"name": "Akwaseho", "place": "village"}}, {"type": "node", "id": 2165312301, "lat": 6.545441, "lon": -0.865606, "tags": {"name": "Apradang", "place": "village"}}, {"type": "node", "id": 2165312309, "lat": 6.7145597, "lon": -0.8182399, "tags": {"name": "Hweehwee", "place": "village"}}, {"type": "node", "id": 2165312310, "lat": 6.7326827, "lon": -0.8316243, "tags": {"name": "Afini", "place": "village"}}, {"type": "node", "id": 2165312390, "lat": 6.519905, "lon": -0.8286694, "tags": {"name": "Wisiwusiw", "place": "village"}}, {"type": "node", "id": 2165312428, "lat": 6.5277191, "lon": -0.8091207, "tags": {"name": "Anyinasu", "place": "village"}}, {"type": "node", "id": 2165312839, "lat": 6.5760929, "lon": -0.867652, "tags": {"name": "Adasua", "place": "village"}}, {"type": "node", "id": 2165313417, "lat": 6.6325663, "lon": -0.9965361, "tags": {"name": "Dansariso", "place": "hamlet"}}, {"type": "node", "id": 2165313577, "lat": 6.687724, "lon": -0.8429804, "tags": {"name": "Sumenakese", "place": "village"}}, {"type": "node", "id": 2165313646, "lat": 6.7445654, "lon": -0.8181508, "tags": {"name": "Nkyenekyene", "place": "hamlet"}}, {"type": "node", "id": 2178295694, "lat": 6.4340521, "lon": -1.0816674, "tags": {"name": "Okorekrom", "place": "village"}}, {"type": "node", "id": 2178295707, "lat": 6.4438465, "lon": -1.0832477, "tags": {"place": "hamlet"}}, {"type": "node", "id": 2178296003, "lat": 6.7464538, "lon": -1.0522315, "tags": {"place": "village"}}, {"type": "node", "id": 2184397710, "lat": 6.5233679, "lon": -1.1216105, "tags": {"name": "Obogu", "place": "village", "wikidata": "Q28075393"}}, {"type": "node", "id": 2184398731, "lat": 6.5607391, "lon": -1.1244743, "tags": {"place": "village"}}, {"type": "node", "id": 2190842565, "lat": 6.7251864, "lon": -0.8264413, "tags": {"name": "Afi 2", "place": "hamlet"}}, {"type": "node", "id": 2190842577, "lat": 6.72795, "lon": -0.8281062, "tags": {"name": "Afi 1", "place": "hamlet"}}, {"type": "node", "id": 2190842587, "lat": 6.7307257, "lon": -0.8704284, "tags": {"name": "Oboyan 2", "place": "village"}}, {"type": "node", "id": 2197675929, "lat": 6.3908255, "lon": -0.863499, "tags": {"name": "Tiawiah Subriso", "place": "village"}}, {"type": "node", "id": 2197675982, "lat": 6.4192182, "lon": -0.8686465, "tags": {"name": "Tiawiah", "place": "village"}}, {"type": "node", "id": 2197676042, "lat": 6.4319634, "lon": -0.8237671, "tags": {"name": "Kedawaso", "place": "village"}}, {"type": "node", "id": 2197676167, "lat": 6.4811662, "lon": -0.9138442, "tags": {"name": "Tenkyemso", "place": "village"}}, {"type": "node", "id": 2197676189, "lat": 6.4936307, "lon": -0.8168805, "tags": {"name": "Site", "place": "village"}}, {"type": "node", "id": 2197676428, "lat": 6.5283803, "lon": -0.9254456, "tags": {"name": "Asasefitaa", "place": "village"}}, {"type": "node", "id": 2197676442, "lat": 6.5333962, "lon": -0.9222108, "tags": {"name": "Kwamedweaa", "place": "village"}}, {"type": "node", "id": 2197676461, "lat": 6.5417855, "lon": -0.7910828, "tags": {"name": "Abepotia", "place": "village"}}, {"type": "node", "id": 2197676580, "lat": 6.6198894, "lon": -0.9575806, "tags": {"place": "hamlet"}}, {"type": "node", "id": 2197676603, "lat": 6.6247753, "lon": -0.9516116, "tags": {"place": "hamlet"}}, {"type": "node", "id": 2197676753, "lat": 6.651928, "lon": -0.9476266, "tags": {"name": "Brenadi", "place": "hamlet"}}, {"type": "node", "id": 2197676803, "lat": 6.6650303, "lon": -0.9440749, "tags": {"name": "Kwaku Oben", "place": "hamlet"}}, {"type": "node", "id": 2197676814, "lat": 6.6683091, "lon": -0.9575861, "tags": {"place": "hamlet"}}, {"type": "node", "id": 2197676843, "lat": 6.6725273, "lon": -0.9457915, "tags": {"name": "Koratena", "place": "village"}}, {"type": "node", "id": 2197676889, "lat": 6.679902, "lon": -0.9468102, "tags": {"place": "hamlet"}}, {"type": "node", "id": 2197676894, "lat": 6.6804641, "lon": -0.9417877, "tags": {"place": "hamlet"}}, {"type": "node", "id": 2197676906, "lat": 6.6836491, "lon": -0.9446408, "tags": {"place": "hamlet"}}, {"type": "node", "id": 2208821027, "lat": 6.3448189, "lon": -0.8760091, "tags": {"place": "hamlet"}}, {"type": "node", "id": 2208821043, "lat": 6.3659434, "lon": -0.8765665, "tags": {"place": "village"}}, {"type": "node", "id": 2208821063, "lat": 6.3691618, "lon": -0.8739169, "tags": {"place": "hamlet"}}, {"type": "node", "id": 2208821228, "lat": 6.4848182, "lon": -0.830568, "tags": {"name": "Gyade", "place": "village"}}, {"type": "node", "id": 2208821366, "lat": 6.5334838, "lon": -0.8360706, "tags": {"name": "Besease", "place": "village"}}, {"type": "node", "id": 2208821456, "lat": 6.5457699, "lon": -0.8458329, "tags": {"name": "Eduradan", "place": "hamlet"}}, {"type": "node", "id": 2208821486, "lat": 6.5481641, "lon": -0.8200525, "tags": {"name": "Atonsu", "place": "hamlet"}}, {"type": "node", "id": 2208821551, "lat": 6.566191, "lon": -0.8152916, "tags": {"name": "Kofidonkorkurom", "place": "hamlet"}}, {"type": "node", "id": 3214387978, "lat": 6.6105428, "lon": -0.7849808, "tags": {"name": "Kwahu Tweneduase", "place": "village"}}, {"type": "node", "id": 5653925556, "lat": 6.3446336, "lon": -1.053267, "tags": {"name": "Hweakwai", "place": "village"}}, {"type": "node", "id": 5653925557, "lat": 6.3475114, "lon": -1.0522898, "tags": {"name": "Adausena", "place": "village"}}, {"type": "node", "id": 8943572419, "lat": 6.5960026, "lon": -0.8937255, "tags": {"name": "Fodoa", "place": "village"}}, {"type": "node", "id": 8954271659, "lat": 6.3443031, "lon": -0.9980393, "tags": {"capital": "6", "name": "New Abirem", "place": "town", "wikidata": "Q7005175"}}, {"type": "node", "id": 8963430495, "lat": 6.5114034, "lon": -0.8448411, "tags": {"name": "Pankese", "place": "town"}}, {"type": "node", "id": 8963430496, "lat": 6.4497443, "lon": -0.8501305, "tags": {"alt_name": "Ehiawoanwu", "name": "Hiawuanwu", "place": "village"}}, {"type": "node", "id": 8963430501, "lat": 6.4456292, "lon": -0.8580698, "tags": {"alt_name": "Kwamedotokurom", "name": "Kwame Dotor", "place": "village"}}, {"type": "node", "id": 8977213303, "lat": 6.503772, "lon": -0.8438927, "tags": {"name": "Abepotia", "place": "village"}}, {"type": "node", "id": 8977213308, "lat": 6.3378412, "lon": -1.0597944, "tags": {"name": "Akyem Amanfrom", "place": "village"}}, {"type": "node", "id": 8986166220, "lat": 6.429617, "lon": -0.9589863, "tags": {"name": "Adadekrom", "place": "village"}}, {"type": "node", "id": 8986166221, "lat": 6.436179, "lon": -0.9455645, "tags": {"name": "Nyafoman", "place": "village"}}, {"type": "node", "id": 8986166222, "lat": 6.4678952, "lon": -0.8916092, "tags": {"alt_name": "Akoase", "name": "Akoasi", "place": "village"}}, {"type": "node", "id": 8986166228, "lat": 6.3739457, "lon": -0.9979749, "tags": {"name": "Afosu", "place": "town"}}, {"type": "node", "id": 9244626657, "lat": 6.4247554, "lon": -0.96964, "tags": {"name": "Mpintimpi", "place": "village"}}, {"type": "node", "id": 9244626658, "lat": 6.4681737, "lon": -0.8664226, "tags": {"name": "Nyamebekyere", "place": "village"}}, {"type": "node", "id": 10155337886, "lat": 6.4539579, "lon": -0.930891, "tags": {"name": "Noyem", "place": "village"}}, {"type": "node", "id": 10585027095, "lat": 6.4355447, "lon": -0.8702213, "tags": {"name": "Asiedu", "place": "village"}}, {"type": "node", "id": 11079159843, "lat": 6.6091835, "lon": -1.0285623, "tags": {"name": "Kantanso", "place": "village"}}, {"type": "node", "id": 11351538342, "lat": 6.3583039, "lon": -0.9530611, "tags": {"name": "Larbikrom", "place": "village"}}, {"type": "node", "id": 11351572018, "lat": 6.3286747, "lon": -0.9948181, "tags": {"name": "Amaamaso", "place": "town"}}, {"type": "node", "id": 11351582693, "lat": 6.3465831, "lon": -0.9559465, "tags": {"name": "Nkwanta Mmiensa", "place": "village"}}, {"type": "node", "id": 11351584062, "lat": 6.3294558, "lon": -0.9627089, "tags": {"name": "Minta Bomeng", "place": "village"}}, {"type": "node", "id": 11351598781, "lat": 6.3294558, "lon": -0.9627089, "tags": {"name": "Minta Bomeng", "place": "village"}}, {"type": "node", "id": 11357641843, "lat": 6.3372425, "lon": -1.0773208, "tags": {"name": "Ntronang", "place": "town"}}, {"type": "node", "id": 11365901439, "lat": 6.7280886, "lon": -1.044125, "tags": {"alt_name": "Mokumua", "name": "Brantuokrom", "place": "village"}}, {"type": "node", "id": 11366081370, "lat": 6.4239994, "lon": -1.0048345, "tags": {"name": "Amenam", "place": "village"}}, {"type": "node", "id": 11406217381, "lat": 6.4391695, "lon": -0.8799684, "tags": {"name": "Deafor", "place": "hamlet"}}, {"type": "node", "id": 11415659713, "lat": 6.375713, "lon": -1.0741013, "tags": {"name": "Bepowtumtum", "place": "hamlet"}}, {"type": "node", "id": 11415659715, "lat": 6.319788, "lon": -1.0704964, "tags": {"name": "Obohema", "place": "village"}}, {"type": "node", "id": 11418277982, "lat": 6.5257147, "lon": -0.8520225, "tags": {"name": "Oworomera", "place": "village"}}, {"type": "node", "id": 11418277983, "lat": 6.5247846, "lon": -0.881567, "tags": {"name": "Boyeduru", "place": "hamlet"}}, {"type": "node", "id": 11418277984, "lat": 6.5116122, "lon": -0.8751297, "tags": {"name": "Amprapraso", "place": "hamlet"}}, {"type": "node", "id": 11418277985, "lat": 6.4960382, "lon": -0.849874, "tags": {"name": "Cocoa Station", "place": "village"}}, {"type": "node", "id": 11418277986, "lat": 6.494242, "lon": -0.8662623, "tags": {"name": "Beremkurom", "place": "hamlet"}}, {"type": "node", "id": 11418277987, "lat": 6.4902978, "lon": -0.8624482, "tags": {"name": "Adokurom", "place": "village"}}, {"type": "node", "id": 11418277988, "lat": 6.4648516, "lon": -0.882377, "tags": {"name": "Rama", "place": "village"}}, {"type": "node", "id": 11418277989, "lat": 6.385016, "lon": -0.9077829, "tags": {"name": "Omanekurom", "place": "village"}}, {"type": "node", "id": 11418277990, "lat": 6.3957581, "lon": -0.8981913, "tags": {"name": "Mamantifi", "place": "village"}}, {"type": "node", "id": 11418277991, "lat": 6.4047035, "lon": -0.9002647, "tags": {"name": "Oturoku", "place": "village"}}, {"type": "node", "id": 11418277992, "lat": 6.4130383, "lon": -0.8950746, "tags": {"name": "Odontuase", "place": "village"}}, {"type": "node", "id": 11418277993, "lat": 6.4352568, "lon": -0.8982664, "tags": {"name": "Kurakuratum", "place": "village"}}, {"type": "node", "id": 11418277994, "lat": 6.4278872, "lon": -0.8967054, "tags": {"name": "Lawey", "place": "hamlet"}}, {"type": "node", "id": 11418277995, "lat": 6.4194993, "lon": -0.8988673, "tags": {"name": "Akwante", "place": "village"}}, {"type": "node", "id": 11418277996, "lat": 6.4895756, "lon": -0.9181014, "tags": {"name": "Afrikowa", "place": "hamlet"}}, {"type": "node", "id": 11418277997, "lat": 6.5299491, "lon": -0.9563027, "tags": {"name": "Asempaneye", "place": "hamlet"}}, {"type": "node", "id": 11418277998, "lat": 6.5004301, "lon": -0.9526026, "tags": {"name": "Amanfokurom", "place": "hamlet"}}, {"type": "node", "id": 11418277999, "lat": 6.3923596, "lon": -0.9310162, "tags": {"name": "Obobetwao", "place": "village"}}, {"type": "node", "id": 11418278000, "lat": 6.4417255, "lon": -0.9612849, "tags": {"name": "Nyamebekyere", "place": "hamlet"}}, {"type": "node", "id": 11418278001, "lat": 6.4375916, "lon": -1.0172224, "tags": {"name": "Apragya Dafoukurom", "place": "village"}}, {"type": "node", "id": 11418278002, "lat": 6.4015662, "lon": -0.9822491, "tags": {"name": "Asempaneye", "place": "hamlet"}}, {"type": "node", "id": 11418278003, "lat": 6.4094347, "lon": -0.9919278, "tags": {"name": "Amenam Junction", "place": "hamlet"}}, {"type": "node", "id": 11418278004, "lat": 6.3870071, "lon": -0.9988654, "tags": {"name": "Akwasu", "place": "village"}}, {"type": "node", "id": 11425321245, "lat": 6.3134271, "lon": -0.9201211, "tags": {"name": "Atobiriso", "place": "village"}}, {"type": "node", "id": 11425321246, "lat": 6.3204864, "lon": -0.9011042, "tags": {"name": "Akankaisi", "place": "village"}}, {"type": "node", "id": 11425321247, "lat": 6.3311073, "lon": -0.8649319, "tags": {"name": "Subriso", "place": "village"}}, {"type": "node", "id": 11425321248, "lat": 6.3235522, "lon": -0.8815134, "tags": {"name": "Kwasimanya", "place": "village"}}, {"type": "node", "id": 11425360003, "lat": 6.7087601, "lon": -0.8254874, "tags": {"name": "Agyakwa Kwahu", "place": "village"}}, {"type": "node", "id": 11425360004, "lat": 6.7103051, "lon": -0.8400048, "tags": {"alt_name": "Adumasa", "name": "Deaku", "place": "hamlet"}}, {"type": "node", "id": 11425360005, "lat": 6.707909, "lon": -0.8461994, "tags": {"name": "Agyenowa", "place": "hamlet"}}, {"type": "node", "id": 11425360006, "lat": 6.7005288, "lon": -0.847979, "tags": {"name": "Oboakyi", "place": "village"}}, {"type": "node", "id": 11425360007, "lat": 6.6890313, "lon": -0.8336949, "tags": {"name": "Brafoa Kwahu", "place": "village"}}, {"type": "node", "id": 11425360008, "lat": 6.7012041, "lon": -0.8685999, "tags": {"name": "Odumkurom", "place": "hamlet"}}, {"type": "node", "id": 11425360009, "lat": 6.7070153, "lon": -0.8630919, "tags": {"alt_name": "Birafoa", "name": "Aseeso", "place": "village"}}, {"type": "node", "id": 11425360010, "lat": 6.7095166, "lon": -0.8678556, "tags": {"name": "Gyenikurom", "place": "village"}}, {"type": "node", "id": 11425360011, "lat": 6.7183046, "lon": -0.8830825, "tags": {"alt_name": "Mepemasem", "name": "Mepeasem", "place": "hamlet"}}, {"type": "node", "id": 11425360012, "lat": 6.7326142, "lon": -0.8532885, "tags": {"name": "Oboyan 1", "place": "hamlet"}}, {"type": "node", "id": 11425360013, "lat": 6.7454132, "lon": -0.890252, "tags": {"name": "Kwameanson", "place": "village"}}, {"type": "node", "id": 11428922600, "lat": 6.7501918, "lon": -0.8072993, "tags": {"name": "Abuam", "place": "hamlet"}}, {"type": "node", "id": 11428922601, "lat": 6.7469688, "lon": -0.8195141, "tags": {"name": "Bebua", "place": "hamlet"}}, {"type": "node", "id": 11428972769, "lat": 6.6389038, "lon": -0.9745646, "tags": {"name": "Aferikurom", "place": "village"}}, {"type": "node", "id": 11428972770, "lat": 6.6583469, "lon": -0.9417209, "tags": {"name": "Onwana", "place": "hamlet"}}, {"type": "node", "id": 11428972771, "lat": 6.6688141, "lon": -0.9643507, "tags": {"name": "Ahodwo", "place": "village"}}, {"type": "node", "id": 11428972772, "lat": 6.6814336, "lon": -0.9619796, "tags": {"name": "Donkorkurom", "place": "hamlet"}}, {"type": "node", "id": 11428972773, "lat": 6.6759218, "lon": -0.9730572, "tags": {"name": "Kwakurukurom", "place": "village"}}, {"type": "node", "id": 11429094631, "lat": 6.6052509, "lon": -0.8230117, "tags": {"name": "Danyase", "place": "hamlet"}}, {"type": "node", "id": 11429094632, "lat": 6.6234031, "lon": -0.8048692, "tags": {"name": "Akokobenom", "place": "hamlet"}}, {"type": "node", "id": 11429094633, "lat": 6.6192308, "lon": -0.846076, "tags": {"name": "Obimma", "place": "village"}}, {"type": "node", "id": 11429094634, "lat": 6.6288303, "lon": -0.8312273, "tags": {"name": "Suwura", "place": "village"}}, {"type": "node", "id": 11429094635, "lat": 6.6401613, "lon": -0.8387965, "tags": {"name": "Asikan", "place": "village"}}, {"type": "node", "id": 11429094636, "lat": 6.6446692, "lon": -0.8397889, "tags": {"name": "Aduhema", "place": "village"}}, {"type": "node", "id": 11429094637, "lat": 6.5982887, "lon": -0.8452955, "tags": {"name": "Danten", "place": "village"}}, {"type": "node", "id": 11429094638, "lat": 6.605051, "lon": -0.8567995, "tags": {"name": "Akwaboa", "place": "village"}}, {"type": "node", "id": 11429094639, "lat": 6.6023813, "lon": -0.8607692, "tags": {"name": "Hwidiem", "place": "village"}}, {"type": "node", "id": 11429094640, "lat": 6.6045448, "lon": -0.8691913, "tags": {"name": "Onakwa", "place": "village"}}, {"type": "node", "id": 11429094641, "lat": 6.6091169, "lon": -0.8641487, "tags": {"name": "Banka", "place": "village"}}, {"type": "node", "id": 11429094642, "lat": 6.6227424, "lon": -0.8557534, "tags": {"name": "Aprahwen", "place": "village"}}, {"type": "node", "id": 11429094643, "lat": 6.6315851, "lon": -0.8516228, "tags": {"name": "Kontompa", "place": "village"}}, {"type": "node", "id": 11429094644, "lat": 6.6215674, "lon": -0.8705887, "tags": {"name": "Kofidede", "place": "village"}}, {"type": "node", "id": 11429094645, "lat": 6.6219937, "lon": -0.8829483, "tags": {"name": "Kwaku Yeboah", "place": "hamlet"}}, {"type": "node", "id": 11429094646, "lat": 6.6228649, "lon": -0.8977099, "tags": {"name": "Asikuma", "place": "village"}}, {"type": "node", "id": 11429094647, "lat": 6.637926, "lon": -0.8665359, "tags": {"name": "Asubone", "place": "village"}}, {"type": "node", "id": 11429094648, "lat": 6.6399815, "lon": -0.8689432, "tags": {"name": "Nkawkawsem", "place": "village"}}, {"type": "node", "id": 11429094649, "lat": 6.6542948, "lon": -0.8704439, "tags": {"name": "Mirekukurom", "place": "village"}}, {"type": "node", "id": 11429094650, "lat": 6.654091, "lon": -0.8634621, "tags": {"name": "Apeakurom", "place": "hamlet"}}, {"type": "node", "id": 11429094651, "lat": 6.6639362, "lon": -0.8744431, "tags": {"name": "Adehemamota", "place": "village"}}, {"type": "node", "id": 11429094652, "lat": 6.6714369, "lon": -0.884551, "tags": {"name": "Birewu", "place": "village"}}, {"type": "node", "id": 11429094653, "lat": 6.6191615, "lon": -0.9078071, "tags": {"name": "Kwahu Praso No.1", "place": "village"}}, {"type": "node", "id": 11429094654, "lat": 6.6717233, "lon": -0.9142792, "tags": {"name": "Akwasu", "place": "hamlet"}}, {"type": "node", "id": 11429094655, "lat": 6.6733031, "lon": -0.9195337, "tags": {"name": "Abokyikurom", "place": "village"}}, {"type": "node", "id": 11429094656, "lat": 6.6793264, "lon": -0.9190884, "tags": {"name": "Ameyaw", "place": "hamlet"}}, {"type": "node", "id": 11429094657, "lat": 6.6595698, "lon": -0.9032017, "tags": {"name": "Akurakurom", "place": "hamlet"}}, {"type": "node", "id": 11429094658, "lat": 6.6634407, "lon": -0.9114468, "tags": {"name": "Akuaakurom", "place": "village"}}, {"type": "node", "id": 11429094659, "lat": 6.6795502, "lon": -0.9131661, "tags": {"name": "Agyekum", "place": "hamlet"}}, {"type": "node", "id": 11429094660, "lat": 6.687349, "lon": -0.9218243, "tags": {"name": "Kwabenabuo", "place": "hamlet"}}, {"type": "node", "id": 11429094661, "lat": 6.6903526, "lon": -0.9210223, "tags": {"name": "Akwasidadie", "place": "village"}}, {"type": "node", "id": 11429094662, "lat": 6.606258, "lon": -0.8966839, "tags": {"name": "Besease", "place": "village"}}, {"type": "node", "id": 11432434175, "lat": 6.5826642, "lon": -0.908381, "tags": {"name": "Kwahu Oda", "place": "village"}}, {"type": "node", "id": 11435644543, "lat": 6.5693014, "lon": -0.8864272, "tags": {"name": "Behinase", "place": "hamlet"}}, {"type": "node", "id": 11435644544, "lat": 6.5617525, "lon": -0.900026, "tags": {"name": "Aweragya", "place": "village"}}, {"type": "node", "id": 11435644545, "lat": 6.516457, "lon": -0.891054, "tags": {"name": "Bramkurom", "place": "village"}}, {"type": "node", "id": 11435644546, "lat": 6.510794, "lon": -0.8946455, "tags": {"name": "Manpon", "place": "hamlet"}}, {"type": "node", "id": 11438481688, "lat": 6.5202304, "lon": -0.7922199, "tags": {"name": "Aworoso", "place": "hamlet"}}, {"type": "node", "id": 11438481689, "lat": 6.5150979, "lon": -0.8018598, "tags": {"name": "Kokromote", "place": "hamlet"}}, {"type": "node", "id": 11438481690, "lat": 6.5173217, "lon": -0.8003765, "tags": {"name": "Bokwaw", "place": "hamlet"}}, {"type": "node", "id": 11438481691, "lat": 6.5195975, "lon": -0.8074334, "tags": {"name": "Kwamoakwo", "place": "hamlet"}}, {"type": "node", "id": 11438481692, "lat": 6.5336185, "lon": -0.8041035, "tags": {"name": "Denkyira", "place": "village"}}, {"type": "node", "id": 11438481693, "lat": 6.5824697, "lon": -0.8272335, "tags": {"name": "Saati", "place": "village"}}, {"type": "node", "id": 11438481694, "lat": 6.5846279, "lon": -0.8347785, "tags": {"name": "Swiedibi", "place": "village"}}, {"type": "node", "id": 11438481695, "lat": 6.5801009, "lon": -0.8481467, "tags": {"name": "Ahantanan", "place": "village"}}, {"type": "node", "id": 11438481696, "lat": 6.5756378, "lon": -0.8388662, "tags": {"name": "Subiritwe", "place": "hamlet"}}, {"type": "node", "id": 11438481697, "lat": 6.5669406, "lon": -0.8625367, "tags": {"name": "Kwadua", "place": "village"}}, {"type": "node", "id": 11438481698, "lat": 6.5685793, "lon": -0.8554316, "tags": {"name": "Esaase", "place": "village"}}, {"type": "node", "id": 11438481699, "lat": 6.5583871, "lon": -0.8496782, "tags": {"name": "Dankwakurom", "place": "village"}}, {"type": "node", "id": 11438481700, "lat": 6.5543714, "lon": -0.8457515, "tags": {"name": "Damsi", "place": "hamlet"}}, {"type": "node", "id": 11438481701, "lat": 6.5519572, "lon": -0.8485597, "tags": {"name": "Kwetiesi", "place": "village"}}, {"type": "node", "id": 11438481702, "lat": 6.5391772, "lon": -0.8535138, "tags": {"name": "Ampeka", "place": "village"}}, {"type": "node", "id": 11438481703, "lat": 6.5358569, "lon": -0.8614853, "tags": {"name": "Yawkorkor", "place": "village"}}, {"type": "node", "id": 11438481704, "lat": 6.5573932, "lon": -0.8708301, "tags": {"name": "Kwabenase", "place": "village"}}, {"type": "node", "id": 11438481705, "lat": 6.562019, "lon": -0.8658238, "tags": {"name": "Odumasua", "place": "village"}}, {"type": "node", "id": 11438513072, "lat": 6.5474592, "lon": -0.7926625, "tags": {"name": "Ekoso", "place": "village"}}, {"type": "node", "id": 11438513073, "lat": 6.5599139, "lon": -0.7907957, "tags": {"name": "Kwaku Dwira", "place": "village"}}, {"type": "node", "id": 11438513077, "lat": 6.5774364, "lon": -0.8086646, "tags": {"name": "Kwamang", "place": "village"}}, {"type": "node", "id": 11554040098, "lat": 6.4949736, "lon": -1.0969041, "tags": {"name": "Odubi", "place": "village"}}, {"type": "node", "id": 11554040105, "lat": 6.6023307, "lon": -0.9137374, "tags": {"name": "Muramura", "place": "village"}}, {"type": "node", "id": 11554040106, "lat": 6.541826, "lon": -1.0080171, "tags": {"name": "Kwabin", "place": "village"}}]}