{"version": 0.6, "generator": "Overpass API 0.7.61.5 4133829e", "osm3s": {"timestamp_osm_base": "2024-03-06T11:35:00Z", "copyright": "The data included in this document is from www.openstreetmap.org. The data is made available under ODbL."}, "elements": [{"type": "node", "id": 2116866583, "lat": 2.5298292, "lon": 34.6569127}, {"type": "node", "id": 2116866623, "lat": 2.5303211, "lon": 34.6551826}, {"type": "node", "id": 2116866887, "lat": 2.5324384, "lon": 34.657457}, {"type": "node", "id": 4471466861, "lat": 2.5323829, "lon": 34.6575223}, {"type": "node", "id": 4471466863, "lat": 2.5324524, "lon": 34.6564918}, {"type": "node", "id": 4471466867, "lat": 2.5317998, "lon": 34.655399}, {"type": "node", "id": 4471466869, "lat": 2.5323443, "lon": 34.6562809}, {"type": "node", "id": 4471467865, "lat": 2.5304739, "lon": 34.6546156}, {"type": "node", "id": 4471467866, "lat": 2.5313232, "lon": 34.6547347}, {"type": "node", "id": 10076604307, "lat": 2.5303969, "lon": 34.6549039}, {"type": "node", "id": 10076604308, "lat": 2.5304236, "lon": 34.6547717}, {"type": "node", "id": 11151161537, "lat": 2.5315884, "lon": 34.6561802, "tags": {"amenity": "hospital", "name": "MOROTO HOSPITAL"}}, {"type": "node", "id": 11151161544, "lat": 2.4700943, "lon": 34.4738887, "tags": {"amenity": "hospital", "name": "NAWAIKOROT HEALTH CENTER III"}}, {"type": "node", "id": 11151161548, "lat": 2.4983797, "lon": 34.6476808, "tags": {"amenity": "hospital", "name": "HEALTH CENTER III"}}, {"type": "node", "id": 11151161554, "lat": 2.4604512, "lon": 34.7867537, "tags": {"amenity": "hospital", "name": "AKARIWON HEALTH CENTRE III"}}, {"type": "node", "id": 11151161557, "lat": 2.5675758, "lon": 34.6219112, "tags": {"amenity": "hospital", "name": "ST PIUS KIDEPO HEALTH CENTRE III"}}, {"type": "node", "id": 11151161558, "lat": 2.5386872, "lon": 34.6578288, "tags": {"amenity": "hospital", "grade": "Hospital", "name": "MOROTO HOSPITAL"}}, {"type": "node", "id": 11151161561, "lat": 2.5263957, "lon": 34.6660136, "tags": {"amenity": "hospital", "grade": "HC II", "name": "MOROTO DMO"}}, {"type": "node", "id": 11151161563, "lat": 2.5258089, "lon": 34.3647524, "tags": {"amenity": "hospital", "name": "LOPEEI HEALTH CENTRE III"}}, {"type": "node", "id": 11151161569, "lat": 2.4565734, "lon": 34.7285664, "tags": {"amenity": "hospital", "grade": "HC II", "name": "TAPACH HEALTH CENTRE II"}}, {"type": "node", "id": 11151161572, "lat": 2.5316917, "lon": 34.6625434, "tags": {"amenity": "hospital", "name": "HEALTH CENTRE II"}}, {"type": "node", "id": 11151161588, "lat": 2.5658938, "lon": 34.6616224, "tags": {"amenity": "hospital", "name": "LORUKUMO HEALTH CENTRE II"}}, {"type": "node", "id": 11151161596, "lat": 2.512638, "lon": 34.5815455, "tags": {"amenity": "hospital", "name": "NADUNGET HC III"}}, {"type": "node", "id": 11151161600, "lat": 2.5725765, "lon": 34.6687797, "tags": {"amenity": "hospital", "grade": "HC II", "name": "KIDEPO HC II"}}, {"type": "node", "id": 11151230011, "lat": 2.5255489, "lon": 34.4855599, "tags": {"amenity": "hospital", "grade": "HC II", "name": "NGOLERIET HEALTH CENTRE II"}}, {"type": "node", "id": 11151230015, "lat": 2.4766403, "lon": 34.6069578, "tags": {"amenity": "hospital", "name": "HEALTH CENTRE II"}}, {"type": "node", "id": 11151230034, "lat": 2.632231, "lon": 34.7051692, "tags": {"amenity": "hospital", "grade": "HC III", "name": "ARMY BARRACKS HC III"}}, {"type": "node", "id": 11151230038, "lat": 2.519971, "lon": 34.560369, "tags": {"amenity": "hospital", "grade": "HC II", "name": "NADUNGET HEALTH CENTRE II"}}, {"type": "node", "id": 11151230041, "lat": 2.5861749, "lon": 34.7434543, "tags": {"amenity": "hospital", "name": "KAKINGOL HC I"}}, {"type": "node", "id": 11169128738, "lat": 2.5407692, "lon": 34.6678622, "tags": {"amenity": "hospital", "name": "Army Barracks Health Center III"}}, {"type": "way", "id": 448505541, "nodes": [4471466869, 4471466863, 2116866887, 4471466861, 2116866583, 2116866623, 10076604307, 10076604308, 4471467865, 4471467866, 4471466867, 4471466869], "tags": {"amenity": "hospital", "name": "Moroto Regional Referral Hospital"}}]}