{"version": 0.6, "generator": "Overpass API 0.7.61.5 4133829e", "osm3s": {"timestamp_osm_base": "2024-03-06T11:22:45Z", "copyright": "The data included in this document is from www.openstreetmap.org. The data is made available under ODbL."}, "elements": [{"type": "node", "id": 408800050, "lat": -0.1017896, "lon": 34.7513113, "tags": {"addr:city": "Kisumu", "addr:street": "Kampala Street", "amenity": "bank", "atm": "yes", "name": "Co-Operative Bank of Kenya"}}, {"type": "node", "id": 408800081, "lat": -0.101968, "lon": 34.7513906, "tags": {"amenity": "bank", "atm": "yes", "name": "Absa", "website": "https://www.absabank.co.ke/personal/"}}, {"type": "node", "id": 768095435, "lat": -0.1014379, "lon": 34.7520476, "tags": {"amenity": "bank", "atm": "yes", "brand": "Standard Chartered", "brand:wikidata": "Q548278", "name": "Standard Chartered", "website": "https://www.sc.com/ke/"}}, {"type": "node", "id": 1899658277, "lat": -0.1056881, "lon": 34.7538209}, {"type": "node", "id": 1899658280, "lat": -0.1059505, "lon": 34.7535454}, {"type": "node", "id": 1899658283, "lat": -0.1054226, "lon": 34.7537013}, {"type": "node", "id": 1899658286, "lat": -0.1057315, "lon": 34.7538623}, {"type": "node", "id": 1899658289, "lat": -0.1057516, "lon": 34.7533559}, {"type": "node", "id": 1899658291, "lat": -0.1056649, "lon": 34.7539322}, {"type": "node", "id": 1899681655, "lat": -0.1081788, "lon": 34.7514135}, {"type": "node", "id": 1899681658, "lat": -0.1077843, "lon": 34.7510363}, {"type": "node", "id": 1899681660, "lat": -0.1078837, "lon": 34.7517178}, {"type": "node", "id": 1899681671, "lat": -0.1076557, "lon": 34.75151}, {"type": "node", "id": 1899681673, "lat": -0.1076316, "lon": 34.7515449}, {"type": "node", "id": 1899681675, "lat": -0.1074652, "lon": 34.7513865}, {"type": "node", "id": 3834695704, "lat": -0.1026582, "lon": 34.7524272, "tags": {"amenity": "bank", "atm": "yes", "brand": "National Bank", "brand:en": "National Bank", "brand:fr": "Banque Nationale", "brand:wikidata": "Q634298", "brand:wikipedia": "en:National Bank of Canada", "name": "National Bank", "name:en": "National Bank", "name:fr": "Banque Nationale", "official_name": "National Bank of Canada", "official_name:en": "National Bank of Canada", "official_name:fr": "Banque Nationale du Canada"}}, {"type": "node", "id": 3834753150, "lat": -0.1045145, "lon": 34.7530011, "tags": {"addr:city": "Kisumu", "addr:street": "Oginga Odinga Road", "amenity": "bank", "atm": "yes", "name": "KCB ATM"}}, {"type": "node", "id": 3834781449, "lat": -0.104829, "lon": 34.753567, "tags": {"addr:city": "Kisumu", "addr:street": "Oginga Odinga Road", "amenity": "bank", "atm": "yes", "name": "Diamond Trust Bank"}}, {"type": "node", "id": 4412660994, "lat": -0.1028935, "lon": 34.7520139, "tags": {"amenity": "bank", "name": "Sidian Bank", "name:en": "Sidian Bank"}}, {"type": "node", "id": 6009409356, "lat": 0.2811687, "lon": 34.754251, "tags": {"addr:city": "Kakamega", "addr:street": "Kisumu-Kakamega Road", "amenity": "bank", "atm": "yes", "name": "National Bank-Kakamega"}}, {"type": "node", "id": 6123274408, "lat": -0.1070552, "lon": 34.7518434, "tags": {"addr:city": "Kisumu", "addr:street": "Achieng Oneko Road", "amenity": "bank", "branch": "ATM United Mall KIsumu", "brand": "Ecobank", "brand:wikidata": "Q930225", "name": "Ecobank"}}, {"type": "node", "id": 6123327606, "lat": -0.1060719, "lon": 34.7528487, "tags": {"addr:city": "Kisumu", "addr:street": "Achieng Oneko Road", "amenity": "bank", "branch": "Kisumu Branch", "brand": "Bank of India", "brand:wikidata": "Q2004439", "name": "Bank of India"}}, {"type": "node", "id": 6123327611, "lat": -0.1035235, "lon": 34.7528743, "tags": {"addr:city": "Kisumu", "addr:street": "New Station Road", "amenity": "bank", "atm": "yes", "name": "Equity Auto Branch"}}, {"type": "node", "id": 6128277784, "lat": -0.1027212, "lon": 34.7526049, "tags": {"addr:city": "Kisumu", "addr:street": "Oginga Odinga Road", "amenity": "bank", "name": "KCB ATM - Kisumu"}}, {"type": "node", "id": 6128301550, "lat": -0.1013656, "lon": 34.7531495, "tags": {"addr:city": "Kisumu", "addr:street": "Angawa Avenue", "amenity": "bank", "brand": "Equity Bank", "brand:wikidata": "Q5384664", "brand:wikipedia": "en:Equity Bank Kenya Limited", "name": "Equity Bank"}}, {"type": "node", "id": 6130469291, "lat": -0.1018436, "lon": 34.7525721, "tags": {"addr:city": "Kisumu", "addr:street": "Oginga Odinga Road", "amenity": "bank", "brand": "Stanbic Bank", "brand:wikidata": "Q7597999", "name": "Stanbic Bank"}}, {"type": "node", "id": 6130469292, "lat": -0.1013767, "lon": 34.7514548, "tags": {"addr:city": "Kisumu", "addr:street": "Kampala Street", "amenity": "bank", "branch": "Kisumu Branch", "brand": "Ecobank", "brand:wikidata": "Q930225", "name": "Ecobank"}}, {"type": "node", "id": 6130469294, "lat": -0.1008658, "lon": 34.7510017, "tags": {"addr:city": "Kisumu", "addr:street": "Oginga Odinga Road", "amenity": "bank", "name": "Spire Bank"}}, {"type": "node", "id": 6130469295, "lat": -0.1003051, "lon": 34.7512483, "tags": {"addr:city": "Kisumu", "addr:street": "Oginga Odinga Road", "amenity": "bank", "name": "I & M Bank Limited"}}, {"type": "node", "id": 6130469297, "lat": -0.1004145, "lon": 34.7510677, "tags": {"addr:city": "Kisumu", "addr:street": "Oginga Odinga Road", "amenity": "bank", "name": "Prime Bank"}}, {"type": "node", "id": 6130469300, "lat": -0.0987798, "lon": 34.75051, "tags": {"addr:city": "Kisumu", "addr:street": "Oginga Odinga Road", "amenity": "bank", "name": "New Family Bank"}}, {"type": "node", "id": 6130562036, "lat": -0.0973889, "lon": 34.7507835, "tags": {"addr:city": "Kisumu", "addr:street": "Paul Mbuya Road", "amenity": "bank", "name": "Kenya Commercial Bank"}}, {"type": "node", "id": 6244081900, "lat": 0.2830166, "lon": 34.7517204, "tags": {"addr:city": "Kakamega", "addr:street": "Kakamega-Mumias Road", "amenity": "bank", "atm": "yes", "brand": "Equity Bank", "brand:wikidata": "Q5384664", "brand:wikipedia": "en:Equity Bank Kenya Limited", "name": "Equity Bank"}}, {"type": "node", "id": 6244081901, "lat": 0.2824797, "lon": 34.7520518, "tags": {"addr:city": "Kakamega", "addr:street": "Kakamega-Mumias Road", "amenity": "bank", "atm": "yes", "name": "Family Bank"}}, {"type": "node", "id": 6244081928, "lat": 0.2829798, "lon": 34.7526756, "tags": {"addr:city": "Kakamega", "addr:street": "Canon Awori Street", "amenity": "bank", "atm": "yes", "brand": "Standard Chartered", "brand:wikidata": "Q548278", "brand:wikipedia": "en:Standard Chartered", "name": "Standard Chartered"}}, {"type": "node", "id": 6244081974, "lat": 0.2777474, "lon": 34.7531114, "tags": {"addr:city": "Kakamega", "addr:street": "Kisumu-Kakamega Road", "amenity": "bank", "atm": "yes", "brand": "Barclays", "brand:wikidata": "Q245343", "brand:wikipedia": "en:Barclays", "name": "Barclays", "operator": "Barclays Bank-Kakamega Branch"}}, {"type": "node", "id": 6244082527, "lat": 0.2838721, "lon": 34.7519333, "tags": {"addr:city": "Kakamega", "amenity": "bank", "name": "Kenya Women Finance Trust"}}, {"type": "node", "id": 6244082900, "lat": 0.2851427, "lon": 34.7527647, "tags": {"addr:city": "Kakamega", "amenity": "bank", "brand": "Bank of Africa", "brand:wikidata": "Q2882627", "name": "Bank of Africa", "operator": "Bank Of Africa", "short_name": "BOA"}}, {"type": "node", "id": 6244082901, "lat": 0.2852603, "lon": 34.7529972, "tags": {"addr:city": "Kakamega", "amenity": "bank", "atm": "yes", "brand": "Postbank", "brand:wikidata": "Q708835", "brand:wikipedia": "en:Deutsche Postbank", "name": "Postbank"}}, {"type": "node", "id": 6244082903, "lat": 0.2843907, "lon": 34.7531038, "tags": {"addr:city": "Kakamega", "amenity": "bank", "atm": "yes", "name": "Cooperative Bank Kakamega"}}, {"type": "node", "id": 6851448924, "lat": -0.1012642, "lon": 34.7514645, "tags": {"amenity": "bank", "name": "sidian Bank"}}, {"type": "node", "id": 6954407499, "lat": 0.0885424, "lon": 34.5399075, "tags": {"addr:city": "Yala", "addr:street": "Kisumu-Busia Highway", "amenity": "bank", "name": "Cooperative Bank"}}, {"type": "node", "id": 7227297582, "lat": -0.1006283, "lon": 34.751944, "tags": {"addr:city": "Kisumu", "addr:street": "Paul Mbuya Road", "amenity": "bank", "brand": "Equity Bank", "brand:wikidata": "Q5384664", "brand:wikipedia": "en:Equity Bank Kenya Limited", "name": "Equity Bank"}}, {"type": "node", "id": 7229869125, "lat": -0.0897048, "lon": 34.7690805, "tags": {"addr:city": "Kisumu", "addr:street": "Jomo Kenyatta Highway", "amenity": "bank", "name": "Co - Operative"}}, {"type": "node", "id": 7232815591, "lat": 0.0802855, "lon": 34.7211945, "tags": {"addr:city": "Maragoli", "addr:street": "Vihiga-Maragoli Road", "amenity": "bank", "brand": "Equity Bank", "brand:wikidata": "Q5384664", "brand:wikipedia": "en:Equity Bank Kenya Limited", "name": "Equity Bank"}}, {"type": "node", "id": 7232815592, "lat": 0.0809714, "lon": 34.7213173, "tags": {"addr:city": "Maragoli", "addr:street": "Vihiga-Maragoli Road", "amenity": "bank", "name": "National Bank"}}, {"type": "node", "id": 10567772751, "lat": -0.1048061, "lon": 34.7541777, "tags": {"amenity": "bank", "atm": "yes", "name": "Postbank", "website": "https://www.postbank.co.ke/"}}, {"type": "node", "id": 10898822428, "lat": -0.1042743, "lon": 34.7527994, "tags": {"amenity": "bank", "brand": "Equity Bank", "brand:wikidata": "Q5384664", "name": "Equity Bank", "website": "https://equitygroupholdings.com/ke/"}}, {"type": "node", "id": 10898875925, "lat": -0.101894, "lon": 34.7524523, "tags": {"amenity": "bank", "name": "ABC Bank", "website": "https://www.abcthebank.com/"}}, {"type": "node", "id": 10904818372, "lat": -0.1023251, "lon": 34.7515249, "tags": {"amenity": "bank", "brand": "Bank of Baroda", "brand:wikidata": "Q2003797", "name": "Bank of Baroda", "website": "https://www.bankofbarodakenya.co.ke/"}}, {"type": "node", "id": 10904818373, "lat": -0.1023386, "lon": 34.7513711, "tags": {"amenity": "bank", "name": "KWFT", "website": "https://www.kwftbank.com/"}}, {"type": "node", "id": 10918048844, "lat": -0.0998297, "lon": 34.7507913, "tags": {"amenity": "bank", "name": "Spire Bank", "website": "http://www.spirebank.co.ke/"}}, {"type": "node", "id": 10936645860, "lat": -0.1060052, "lon": 34.7529477, "tags": {"amenity": "bank", "name": "SBM bank"}}, {"type": "node", "id": 10936645862, "lat": -0.1063, "lon": 34.7532562, "tags": {"amenity": "bank", "name": "paramount bank"}}, {"type": "node", "id": 11034057663, "lat": -0.0907669, "lon": 34.7684199, "tags": {"amenity": "bank", "name": "Rafiki Microfinance Bank", "website": "https://www.rafikibank.co.ke/"}}, {"type": "node", "id": 11067676726, "lat": -0.1072762, "lon": 34.7552906, "tags": {"amenity": "bank", "brand": "Equity Bank", "brand:wikidata": "Q5384664", "name": "Equity Bank"}}, {"type": "node", "id": 11083578782, "lat": -0.1050258, "lon": 34.7543438, "tags": {"amenity": "bank", "name": "NCBA", "website": "https://ke.ncbagroup.com"}}, {"type": "node", "id": 11083578783, "lat": -0.1049447, "lon": 34.7542701, "tags": {"amenity": "bank", "name": "HFC group", "website": "https://hfcgroup.co.ke"}}, {"type": "way", "id": 179566505, "nodes": [1899658283, 1899658289, 1899658280, 1899658277, 1899658286, 1899658291, 1899658283], "tags": {"amenity": "bank", "atm": "yes", "building": "yes", "name": "kenya Commercial Bank", "source": "bing", "website": "https://ke.kcbgroup.com/"}}, {"type": "way", "id": 179573217, "nodes": [1899681675, 1899681658, 1899681655, 1899681660, 1899681671, 1899681673, 1899681675], "tags": {"amenity": "bank", "atm": "no", "building": "yes", "name": "CBK", "operator": "GOK", "source": "Bing", "website": "https://www.centralbank.go.ke/"}}]}