{"version": 0.6, "generator": "Overpass API 0.7.61.5 4133829e", "osm3s": {"timestamp_osm_base": "2024-03-05T13:48:00Z", "copyright": "The data included in this document is from www.openstreetmap.org. The data is made available under ODbL."}, "elements": [{"type": "node", "id": 3957846966, "lat": 36.726816, "lon": 71.6142247, "tags": {"name": "\u0418\u0448\u043a\u043e\u0448\u0438\u043c", "name:de": "Ischkoschim", "name:en": "Ishkoshim", "name:fa": "\u0627\u0634\u06a9\u0627\u0634\u0645", "name:lt": "I\u0161ko\u0161imas", "name:ru": "\u0418\u0448\u043a\u0430\u0448\u0438\u043c", "name:tg": "\u04b6\u0430\u043c\u043e\u0430\u0442\u0438 \u0418\u0448\u043a\u043e\u0448\u0438\u043c", "name:zh": "\u4f0a\u4ec0\u5361\u5e0c\u59c6", "name_alt": "\u041d\u0443\u0434", "name_alt:en": "Nud", "place": "town", "population": "6567", "wikidata": "Q913494", "wikipedia": "ru:\u0418\u0448\u043a\u0430\u0448\u0438\u043c (\u0422\u0430\u0434\u0436\u0438\u043a\u0438\u0441\u0442\u0430\u043d)"}}, {"type": "node", "id": 3957856739, "lat": 36.7198435, "lon": 71.6278837, "tags": {"name": "\u0420\u044b\u043d", "name:en": "Ryn", "name:tg": "\u0420\u044b\u043d", "place": "village", "wikidata": "Q21660590"}}, {"type": "node", "id": 3957860526, "lat": 36.680561, "lon": 71.6799543, "tags": {"name": "\u0414\u0430\u0448\u0442 \u041f\u043e\u0451\u043d", "name:en": "Dasht Poyon", "name:tg": "\u0414\u0430\u0448\u0442 \u041f\u043e\u0451\u043d", "place": "village"}}, {"type": "node", "id": 3957863387, "lat": 36.6752967, "lon": 71.7118111, "tags": {"name": "\u0414\u0430\u0448\u0442 \u0411\u043e\u043b\u043e", "name:en": "Dasht Bolo", "name:tg": "\u0414\u0430\u0448\u0442 \u0411\u043e\u043b\u043e", "place": "village"}}, {"type": "node", "id": 3957867244, "lat": 36.6778288, "lon": 71.7480264, "tags": {"alt_name": "\u041d\u0430\u043c\u0430\u0434\u0433\u0443\u0442u \u041f\u043e\u0451\u043d", "alt_name:fa": "\u0646\u0645\u062f\u06af\u0648\u062a \u067e\u0627\u0626\u06cc\u0646", "name": "\u041d\u0430\u043c\u0430\u0434\u0433\u04ef\u0442", "name:en": "Namadgut", "name:fa": "\u0646\u0645\u062f\u06af\u0648\u062a", "name:ru": "\u041d\u0430\u043c\u0430\u0434\u0433\u0443\u0442", "name:tg": "\u041d\u0430\u043c\u0430\u0434\u0433\u04ef\u0442", "place": "village"}}, {"type": "node", "id": 3957867815, "lat": 36.6791499, "lon": 71.7754087, "tags": {"name": "\u041d\u0430\u043c\u0430\u0434\u0433\u04ef\u0442\u0438 \u0411\u043e\u043b\u043e", "name:en": "Namadguti Bolo", "name:fa": "\u0646\u0645\u062f\u06af\u0648\u062a \u0628\u0627\u0644\u0627", "name:ru": "\u041d\u0430\u043c\u0430\u0434\u0433\u0443\u0442\u0438 \u0411\u043e\u043b\u043e", "name:tg": "\u041d\u0430\u043c\u0430\u0434\u0433\u04ef\u0442\u0438 \u0411\u043e\u043b\u043e", "place": "village"}}, {"type": "node", "id": 3957871008, "lat": 36.7396792, "lon": 71.9082006, "tags": {"alt_name": "\u0420\u0430\u043c\u0430\u043d\u0438\u0442", "name": "\u0411\u043e\u0438\u0431\u0430\u0440", "name:en": "Boibar", "name:tg": "\u0411\u043e\u0438\u0431\u0430\u0440", "place": "village"}}, {"type": "node", "id": 3957875746, "lat": 36.7134261, "lon": 71.8805098, "tags": {"name": "\u0423\u0434\u0438\u0442", "name:en": "Udit", "name:tg": "\u0423\u0434\u0438\u0442", "place": "village"}}, {"type": "node", "id": 3957880398, "lat": 36.7482784, "lon": 71.9311321, "tags": {"name": "\u0422\u043e\u049b\u0430\u0445\u043e\u043d\u0430", "name:en": "Toqakhona", "name:tg": "\u0422\u043e\u049b\u0430\u0445\u043e\u043d\u0430", "place": "village"}}, {"type": "node", "id": 3969747218, "lat": 36.7460797, "lon": 71.9520611, "tags": {"name": "Sar Shkhowr", "place": "hamlet"}}, {"type": "node", "id": 3969748979, "lat": 36.729661, "lon": 71.925047, "tags": {"name": "Shikhawr", "place": "village"}}, {"type": "node", "id": 3969751547, "lat": 36.6872897, "lon": 71.8662208, "tags": {"name": "Kishnikhan", "place": "hamlet"}}, {"type": "node", "id": 3969753312, "lat": 36.6730778, "lon": 71.7653152, "tags": {"name": "Qazideh", "place": "village"}}, {"type": "node", "id": 3969754164, "lat": 36.6746996, "lon": 71.8295074, "tags": {"alt_name": "\u0648\u0631\u06a9", "name": "Wark", "place": "hamlet"}}, {"type": "node", "id": 3969755989, "lat": 36.6678661, "lon": 71.6978698, "tags": {"int_name": "Uchdrag", "name": "\u0648\u0686 \u062f\u0631\u06af", "place": "hamlet"}}, {"type": "node", "id": 3972971099, "lat": 36.699425, "lon": 71.5953619, "tags": {"name": "Osas", "place": "village"}}, {"type": "node", "id": 3972971237, "lat": 36.7113462, "lon": 71.6089233, "tags": {"name": "Sikhch", "place": "village"}}, {"type": "node", "id": 5907730788, "lat": 36.6843716, "lon": 71.8273843, "tags": {"name": "\u0421\u0430\u043d\u0433", "name:en": "Sang", "name:tg": "\u0421\u0430\u043d\u0433", "place": "village"}}, {"type": "node", "id": 5962669822, "lat": 36.7465959, "lon": 71.9456522, "tags": {"name": "Langar  \u0644\u0646\u06af\u0631", "place": "village"}}, {"type": "node", "id": 6007062554, "lat": 36.6685122, "lon": 71.7365359, "tags": {"name": "Ishtir\u0101gh", "place": "hamlet"}}, {"type": "node", "id": 6027907214, "lat": 36.6867064, "lon": 71.6448294, "tags": {"name": "\u0641\u062a\u0648\u0631 Futoor", "name:en": "Futoor", "place": "village"}}]}