{"version": 0.6, "generator": "Overpass API 0.7.61.5 4133829e", "osm3s": {"timestamp_osm_base": "2024-03-05T13:48:58Z", "copyright": "The data included in this document is from www.openstreetmap.org. The data is made available under ODbL."}, "elements": [{"type": "node", "id": 3997285678, "lat": 36.2683356, "lon": 73.6544972, "tags": {"name": "Gamseng", "place": "village"}}, {"type": "node", "id": 3997288717, "lat": 36.306408, "lon": 73.6387966, "tags": {"name": "Doli Darmador", "place": "village"}}, {"type": "node", "id": 3997294577, "lat": 36.3258642, "lon": 73.6443328, "tags": {"name": "Kharabal Dramander", "place": "village"}}, {"type": "node", "id": 4012229618, "lat": 36.2845698, "lon": 73.4019122, "tags": {"name": "Damalgan", "place": "village"}}, {"type": "node", "id": 4012273269, "lat": 36.3050919, "lon": 73.3898987, "tags": {"name": "Gindai", "place": "village"}}, {"type": "node", "id": 4012427314, "lat": 36.3058183, "lon": 73.3782636, "tags": {"image": "https://www.facebook.com/photo/?fbid=103080222526528&set=pb.100084935075498.-2207520000.", "name": "Masher", "note": "Masher is a beautiful village in Yasin Valley, speaking Khowar with some using Brushaski and Shina at home. It's divided into Masher Bala (Ismaili population) and Masher Payin (Sunni population).", "place": "village", "population": "3000", "population:date": "2023-06-2023", "source:population": "Local Survey by Kashif JanWali"}}, {"type": "node", "id": 4012567493, "lat": 36.3265372, "lon": 73.3608369, "tags": {"name": "Noh Yasin", "place": "village"}}, {"type": "node", "id": 4012596093, "lat": 36.3443867, "lon": 73.3582374, "tags": {"name": "Murkah Yasin", "place": "village"}}, {"type": "node", "id": 4013798992, "lat": 36.3391971, "lon": 73.3507022, "tags": {"name": "Atkash", "place": "village"}}, {"type": "node", "id": 4013847913, "lat": 36.3474984, "lon": 73.3445906, "tags": {"name": "Bajyote", "place": "village"}}, {"type": "node", "id": 4013851494, "lat": 36.3663191, "lon": 73.3364785, "tags": {"name": "Yasin Proper", "place": "village"}}, {"type": "node", "id": 4014193658, "lat": 36.3942041, "lon": 73.3436329, "tags": {"name": "Taus Yasin", "place": "village"}}, {"type": "node", "id": 4014460127, "lat": 36.3932071, "lon": 73.3011772, "tags": {"name": "Turmout", "place": "village"}}, {"type": "node", "id": 4014586421, "lat": 36.3955327, "lon": 73.2882046, "tags": {"name": "Goli Bercher", "place": "village"}}, {"type": "node", "id": 4014599613, "lat": 36.3979541, "lon": 73.2764513, "tags": {"name": "Deh Nazbar", "place": "village"}}, {"type": "node", "id": 4014619153, "lat": 36.3970217, "lon": 73.2552799, "tags": {"name": "Baltering", "place": "village"}}, {"type": "node", "id": 4015795444, "lat": 36.4029583, "lon": 73.3627515, "tags": {"name": "Gojulti", "place": "village"}}, {"type": "node", "id": 4015827714, "lat": 36.4235379, "lon": 73.3611609, "tags": {"name": "Sultanabad Hoelti", "place": "village"}}, {"type": "node", "id": 4016192550, "lat": 36.4217461, "lon": 73.3733936, "tags": {"name": "Sandhi", "place": "village"}}, {"type": "node", "id": 4016216116, "lat": 36.4133312, "lon": 73.4610777, "tags": {"name": "Qurqolti", "place": "village"}}, {"type": "node", "id": 4016234574, "lat": 36.4788991, "lon": 73.3941042, "tags": {"name": "Barkulti", "place": "village"}}, {"type": "node", "id": 4018911928, "lat": 36.4630199, "lon": 73.3530335, "tags": {"name": "Ishekiber Thoi", "place": "village"}}, {"type": "node", "id": 4018937911, "lat": 36.4612221, "lon": 73.3253846, "tags": {"name": "Karimabad Thoi", "place": "village"}}, {"type": "node", "id": 4018992646, "lat": 36.4697131, "lon": 73.3149412, "tags": {"name": "Dalkoi Thoi", "place": "village"}}, {"type": "node", "id": 4019004160, "lat": 36.470105, "lon": 73.3026477, "tags": {"name": "Darich Thoi", "place": "village"}}, {"type": "node", "id": 4019028757, "lat": 36.4813641, "lon": 73.2841604, "tags": {"name": "Harf Thoi", "place": "village"}}, {"type": "node", "id": 4019035199, "lat": 36.4762059, "lon": 73.2989255, "tags": {"name": "Dapis Thoi", "place": "village"}}, {"type": "node", "id": 4019487598, "lat": 36.4913257, "lon": 73.271717, "tags": {"name": "Chikidass Thoi", "place": "village"}}, {"type": "node", "id": 4019605363, "lat": 36.4882734, "lon": 73.2672684, "tags": {"name": "Kuno Thoi", "place": "village"}}, {"type": "node", "id": 4019669310, "lat": 36.4926862, "lon": 73.2576752, "tags": {"name": "Cheriyat", "place": "village"}}, {"type": "node", "id": 4019671754, "lat": 36.4955219, "lon": 73.2476023, "tags": {"name": "Isqamdass", "place": "village"}}, {"type": "node", "id": 4019677454, "lat": 36.501656, "lon": 73.2465775, "tags": {"name": "Draskin", "place": "village"}}, {"type": "node", "id": 4019680968, "lat": 36.4991395, "lon": 73.2310602, "tags": {"name": "Nolti Thoi", "place": "village"}}, {"type": "node", "id": 4019684845, "lat": 36.5083913, "lon": 73.2212458, "tags": {"name": "Das Bala", "place": "village"}}, {"type": "node", "id": 4019688165, "lat": 36.5060733, "lon": 73.2167111, "tags": {"name": "Thalti Thoi", "place": "village"}}, {"type": "node", "id": 4019713440, "lat": 36.5156151, "lon": 73.413828, "tags": {"name": "Hundur", "place": "village"}}, {"type": "node", "id": 4020926953, "lat": 36.5460238, "lon": 73.4295583, "tags": {"name": "Tirsat", "place": "village"}}, {"type": "node", "id": 4021799910, "lat": 36.5650332, "lon": 73.4377506, "tags": {"name": "Umelsat", "place": "village"}}, {"type": "node", "id": 4023015414, "lat": 36.645692, "lon": 73.4353263, "tags": {"name": "Darkut", "place": "village"}}, {"type": "node", "id": 4023031755, "lat": 36.6484246, "lon": 73.4728513, "tags": {"name": "Gartanz", "place": "village"}}, {"type": "node", "id": 11465101228, "lat": 36.5677649, "lon": 73.7445525, "tags": {"name": "Handis", "place": "village"}}]}