{"version": 0.6, "generator": "Overpass API 0.7.61.5 4133829e", "osm3s": {"timestamp_osm_base": "2024-03-06T11:26:46Z", "copyright": "The data included in this document is from www.openstreetmap.org. The data is made available under ODbL."}, "elements": [{"type": "node", "id": 3944001563, "lat": 1.0982437, "lon": 34.1750336, "tags": {"addr:city": "Mbale", "addr:street": "Kim I Road Street", "amenity": "atm", "network": "Visa", "opening_hours": "24/7", "operator": "Crane Bank"}}, {"type": "node", "id": 3944010739, "lat": 1.0985297, "lon": 34.174658, "tags": {"addr:city": "Mbale", "addr:street": "Kumi Road", "amenity": "atm", "network": "Visa", "opening_hours": "24/7", "operator": "Crane Bank"}}, {"type": "node", "id": 3944013935, "lat": 1.071553, "lon": 34.1814012, "tags": {"amenity": "atm", "name": "Barclays Bank Mbale Branch", "network": "Visa", "opening_hours": "24/7"}}, {"type": "node", "id": 3944013954, "lat": 1.071309, "lon": 34.1818124, "tags": {"addr:city": "Mbale", "addr:housenumber": "Plot 2", "addr:street": "Republic Street", "amenity": "atm", "opening_hours": "24/7", "operator": "Housing Finance Bank"}}, {"type": "node", "id": 3944013955, "lat": 1.0713368, "lon": 34.1816518, "tags": {"addr:city": "Mbale", "addr:housenumber": "Plot 78", "addr:street": "Republic Street", "amenity": "atm", "network": "Interswitch", "opening_hours": "24/7", "operator": "DFCU Bank"}}, {"type": "node", "id": 3944014480, "lat": 1.0717991, "lon": 34.181728, "tags": {"addr:city": "Mbale", "addr:street": "Republic Street", "amenity": "atm", "network": "Visa", "opening_hours": "24/7", "operator": "Crane Bank"}}, {"type": "node", "id": 3944014481, "lat": 1.071834, "lon": 34.1809988, "tags": {"addr:city": "Mbale", "addr:street": "Republic Street", "amenity": "atm", "network": "Interswitch", "opening_hours": "24/7", "operator": "Centenary Rural Development Bank"}}, {"type": "node", "id": 3944014482, "lat": 1.0719949, "lon": 34.1807413, "tags": {"addr:city": "Mbale", "addr:street": "Republic Street", "amenity": "atm", "network": "Visa", "opening_hours": "24/7", "operator": "Stanbic Bank Uganda"}}, {"type": "node", "id": 3944014483, "lat": 1.0722852, "lon": 34.1810672, "tags": {"addr:city": "Mbale", "addr:street": "Republic Street", "amenity": "atm", "network": "MasterCard", "opening_hours": "24/7", "operator": "Pride Microfinance"}}, {"type": "node", "id": 3946191096, "lat": 1.0714957, "lon": 34.1814039, "tags": {"addr:city": "Mbale", "addr:housenumber": "Plot 56/58", "addr:street": "Republic Street", "amenity": "atm", "network": "MasterCard;Visa", "opening_hours": "24/7", "operator": "Barclays Bank of Uganda"}}, {"type": "node", "id": 3946191141, "lat": 1.0716818, "lon": 34.1780244, "tags": {"addr:city": "Mbale", "addr:street": "Market Street", "amenity": "atm", "network": "Visa", "opening_hours": "24/7", "operator": "Bank of Africa-Uganda"}}, {"type": "node", "id": 3946191145, "lat": 1.0724743, "lon": 34.1769388, "tags": {"addr:city": "Mbale", "addr:street": "Market Street", "amenity": "atm", "network": "Visa", "opening_hours": "24/7", "operator": "Equity Bank Uganda"}}, {"type": "node", "id": 3948039513, "lat": 1.0727245, "lon": 34.1757514, "tags": {"addr:city": "Mbale", "amenity": "atm", "network": "Interswitch;Maestro;MasterCard;Visa", "opening_hours": "Mo-Fr 09:00-17:00", "operator": "Diamond Trust Bank Uganda"}}, {"type": "node", "id": 3948101183, "lat": 1.0705897, "lon": 34.1793251, "tags": {"addr:city": "Mbale", "addr:street": "Cathedral Road", "amenity": "atm", "network": "Visa", "opening_hours": "24/7", "operator": "Tropical Bank"}}, {"type": "node", "id": 3948101190, "lat": 1.0728853, "lon": 34.1785097, "tags": {"addr:city": "Mbale", "addr:street": "Naboa Road", "amenity": "atm", "network": "Visa", "opening_hours": "24/7", "operator": "Centenary Rural Development Bank"}}, {"type": "node", "id": 3995072224, "lat": 1.07411, "lon": 34.1764971, "tags": {"addr:city": "Mbale", "amenity": "atm", "network": "Maestro;Mastercard;Visa", "opening_hours": "24/7", "operator": "Stanbic Bank Uganda"}}, {"type": "node", "id": 8412010517, "lat": 1.0745541, "lon": 34.1764068, "tags": {"amenity": "atm", "opening_hours": "24/7", "operator": "Stanbic Bank"}}, {"type": "node", "id": 9007448824, "lat": 1.0939561, "lon": 34.1709926, "tags": {"amenity": "atm", "operator": "Airtel"}}, {"type": "node", "id": 9007448825, "lat": 1.0939337, "lon": 34.1707275, "tags": {"amenity": "atm", "operator": "Africell Money"}}, {"type": "node", "id": 9142026827, "lat": 1.0716642, "lon": 34.1777144, "tags": {"amenity": "atm", "operator": "kcb"}}, {"type": "node", "id": 10003949375, "lat": 1.0721725, "lon": 34.177051, "tags": {"amenity": "atm", "brand": "Equity Bank", "brand:wikidata": "Q5384668", "name": "Equity Bank", "operator": "Equity Bank", "operator:wikidata": "Q5384668"}}, {"type": "node", "id": 10004130273, "lat": 1.0717357, "lon": 34.1763639, "tags": {"amenity": "atm", "brand": "Western Union", "brand:wikidata": "Q861042", "name": "Western Union", "operator": "Western Union", "operator:wikidata": "Q861042"}}]}