{"version": 0.6, "generator": "Overpass API 0.7.61.5 4133829e", "osm3s": {"timestamp_osm_base": "2024-03-05T15:08:58Z", "copyright": "The data included in this document is from www.openstreetmap.org. The data is made available under ODbL."}, "elements": [{"type": "node", "id": 447171233, "lat": 66.8827948, "lon": 18.0230111, "tags": {"name": "\u00c5rrenjarka", "name:smj": "Oarrenj\u00e1rgga", "name:sv": "\u00c5rrenjarka", "place": "hamlet"}}, {"type": "node", "id": 448151209, "lat": 66.9160347, "lon": 18.5436631, "tags": {"name": "Tj\u00e5motis", "name:smj": "Tjoammbe", "name:sv": "Tj\u00e5motis", "place": "hamlet"}}, {"type": "node", "id": 2911184519, "lat": 66.6912319, "lon": 18.8057049, "tags": {"name": "Karats", "name:smj": "G\u00e1r\u00e1sj", "name:sv": "Karats", "place": "hamlet"}}, {"type": "node", "id": 2914400598, "lat": 66.8354951, "lon": 18.8517388, "tags": {"name": "Granudden", "place": "hamlet"}}, {"type": "node", "id": 2914435970, "lat": 66.8074402, "lon": 19.0696098, "tags": {"name": "Bj\u00f6rkholmen", "place": "hamlet"}}, {"type": "node", "id": 3027058821, "lat": 66.6513977, "lon": 18.844039, "tags": {"name": "Luvos", "name:smj": "Luvos", "place": "hamlet"}}, {"type": "node", "id": 5098123115, "lat": 66.8828065, "lon": 18.2604688, "tags": {"name": "Njavve", "name:smj": "Njavve", "place": "hamlet", "wikidata": "Q1922150", "wikipedia": "sv:Njavve"}}, {"type": "node", "id": 9853481547, "lat": 66.8884796, "lon": 18.0805135, "tags": {"name": "Uhtsaluokta", "place": "hamlet"}}]}