{"version": 0.6, "generator": "Overpass API 0.7.61.5 4133829e", "osm3s": {"timestamp_osm_base": "2024-03-06T11:44:15Z", "copyright": "The data included in this document is from www.openstreetmap.org. The data is made available under ODbL."}, "elements": [{"type": "node", "id": 255602805, "lat": -3.3486456, "lon": 37.3435249, "tags": {"is_in": "Tanzania", "is_in:country": "Tanzania", "name": "Moshi", "name:el": "\u039c\u03cc\u03c3\u03b9 (\u03a4\u03b1\u03bd\u03b6\u03b1\u03bd\u03af\u03b1)", "name:ko": "\ubaa8\uc2dc", "name:lt": "Mo\u0161is", "name:ru": "\u041c\u043e\u0448\u0438", "name:tr": "Moshi", "name:uk": "\u041c\u043e\u0448\u0456", "place": "city", "population": "221733", "source:population": "German Wikipedia https://de.wikipedia.org/wiki/Liste_der_St%C3%A4dte_in_Tansania", "wikidata": "Q271733", "wikipedia": "en:Moshi, Tanzania"}}, {"type": "node", "id": 282591075, "lat": -3.2737967, "lon": 37.2293331, "tags": {"name": "Nshara", "place": "village"}}, {"type": "node", "id": 282676221, "lat": -3.2256324, "lon": 37.3366087, "tags": {"name": "Mweka", "place": "village"}}, {"type": "node", "id": 671589456, "lat": -3.1864389, "lon": 37.0673609, "tags": {"name": "Sanya Juu", "place": "town", "region": "Kilimanjaro"}}, {"type": "node", "id": 805143411, "lat": -3.2120463, "lon": 37.223658, "tags": {"name": "Machame", "place": "village", "wikidata": "Q1882623", "wikipedia": "en:Machame"}}, {"type": "node", "id": 990264981, "lat": -3.2068662, "lon": 37.2025481, "tags": {"name": "Kyeeri", "place": "village"}}, {"type": "node", "id": 1998356793, "lat": -3.4555334, "lon": 37.451581, "tags": {"place": "village"}}, {"type": "node", "id": 1998357972, "lat": -3.4316224, "lon": 37.4434593, "tags": {"place": "village"}}, {"type": "node", "id": 2128426392, "lat": -3.1904551, "lon": 37.2385614, "tags": {"name": "Nkweseko", "place": "village"}}, {"type": "node", "id": 2129211074, "lat": -3.2451131, "lon": 37.3029644, "tags": {"name": "Mkoringa", "place": "village"}}, {"type": "node", "id": 2129211100, "lat": -3.238791, "lon": 37.3128339, "tags": {"name": "Kibosho", "place": "village"}}, {"type": "node", "id": 3783082537, "lat": -3.3753474, "lon": 37.3378824, "tags": {"name": "Pasua", "place": "village"}}, {"type": "node", "id": 3783082538, "lat": -3.3529124, "lon": 37.3207288, "tags": {"name": "Soweto", "place": "village"}}, {"type": "node", "id": 3866849768, "lat": -3.4591316, "lon": 37.3989506, "tags": {"name": "Chekereni, Mabogini", "place": "village"}}, {"type": "node", "id": 4367733382, "lat": -3.3350726, "lon": 37.3696513, "tags": {"name": "Kiboriloni", "place": "village"}}, {"type": "node", "id": 4367810136, "lat": -3.413643, "lon": 37.3181212, "tags": {"name": "Kiyungi, Arusha Chini", "place": "village"}}, {"type": "node", "id": 7056577851, "lat": -3.4124857, "lon": 37.3671184, "tags": {"name": "Mabogini", "place": "village", "population": "11855", "source": "OpenData-NBS2012-HealthFacilities2014"}}, {"type": "node", "id": 7067981433, "lat": -3.4852167, "lon": 37.4330664, "tags": {"name": "Oria", "place": "village", "population": "9323", "source": "OpenData-NBS2012-SecondarySchools2016", "ward": "Kahe"}}, {"type": "node", "id": 7067981434, "lat": -3.4984535, "lon": 37.4533897, "tags": {"name": "Ngasinyi", "place": "village", "population": "575", "source": "OpenData-NBS2012-SecondarySchools2016"}}, {"type": "node", "id": 7067981436, "lat": -3.4542953, "lon": 37.4515992, "tags": {"name": "Kisangesangeni", "place": "village", "population": "2669", "source": "OpenData-NBS2012-PrimarySchools2016"}}, {"type": "node", "id": 7556583782, "lat": -3.2275475, "lon": 37.0869981, "tags": {"country": "Tanzania", "district": "Siha", "name": "Ngumbaru", "place": "village", "region": "Kilimanjaro", "ward": "Biriri"}}, {"type": "node", "id": 7556599889, "lat": -3.1911145, "lon": 37.1232459, "tags": {"country": "Tanzania", "district": "Siha", "name": "Manio", "place": "hamlet", "region": "Kilimanjaro", "ward": "Kashisha"}}, {"type": "node", "id": 7556599892, "lat": -3.1821028, "lon": 37.0874923, "tags": {"country": "Tanzania", "district": "Siha", "name": "Koboko Kaskaz, Nasai", "place": "village", "region": "Kilimanjaro", "ward": "Nasai"}}, {"type": "node", "id": 7579791020, "lat": -3.2188331, "lon": 37.1293909, "tags": {"country": "Tanzania", "district": "Hai", "name": "Mashua", "place": "village", "region": "Kilimanjaro", "ward": "Masama Magharibi"}}, {"type": "node", "id": 7579791029, "lat": -3.1929182, "lon": 37.2356429, "tags": {"country": "Tanzania", "district": "Hai", "name": "Foo", "place": "village", "region": "Kilimanjaro", "ward": "Machame Kaskazini"}}, {"type": "node", "id": 7579791030, "lat": -3.2361993, "lon": 37.2283766, "tags": {"country": "Tanzania", "district": "Hai", "name": "Uduru", "place": "village", "region": "Kilimanjaro", "ward": "Machame Kaskazini"}}, {"type": "node", "id": 7579791031, "lat": -3.2190963, "lon": 37.2241957, "tags": {"country": "Tanzania", "district": "Hai", "name": "Wari", "place": "village", "region": "Kilimanjaro", "ward": "Machame Kaskazini"}}, {"type": "node", "id": 7579791033, "lat": -3.2324919, "lon": 37.2378254, "tags": {"country": "Tanzania", "district": "Hai", "name": "Lyamungo Sinde", "place": "village", "region": "Kilimanjaro", "ward": "Machame Mashariki"}}, {"type": "node", "id": 7579791034, "lat": -3.2167325, "lon": 37.2545499, "tags": {"country": "Tanzania", "district": "Hai", "name": "Lyamungo Kati", "place": "village", "region": "Kilimanjaro", "ward": "Machame Mashariki"}}, {"type": "node", "id": 7579791037, "lat": -3.2011669, "lon": 37.2621793, "tags": {"country": "Tanzania", "district": "Hai", "name": "Kilanya", "place": "village", "region": "Kilimanjaro", "ward": "Machame Mashariki"}}, {"type": "node", "id": 7579791038, "lat": -3.2168861, "lon": 37.2372977, "tags": {"country": "Tanzania", "district": "Hai", "name": "Nkuusinde", "place": "village", "region": "Kilimanjaro", "ward": "Machame Mashariki"}}, {"type": "node", "id": 7579791039, "lat": -3.1917332, "lon": 37.2032596, "tags": {"country": "Tanzania", "district": "Hai", "name": "Kyeeri", "place": "village", "region": "Kilimanjaro", "ward": "Machame Magharibi"}}, {"type": "node", "id": 7579791040, "lat": -3.2075121, "lon": 37.2406545, "tags": {"country": "Tanzania", "district": "Hai", "name": "Nkuundoo", "place": "village", "region": "Kilimanjaro", "ward": "Machame Mashariki"}}, {"type": "node", "id": 7579808763, "lat": -3.3850571, "lon": 37.280054, "tags": {"country": "Tanzania", "district": "Hai", "name": "Kwatito", "place": "village", "region": "Kilimanjaro", "ward": "Machame Kusini"}}, {"type": "node", "id": 7579808766, "lat": -3.3403319, "lon": 37.2548916, "tags": {"country": "Tanzania", "district": "Hai", "name": "Kimashuku", "place": "village", "region": "Kilimanjaro", "ward": "Machame Kusini"}}, {"type": "node", "id": 7579808769, "lat": -3.337179, "lon": 37.220763, "tags": {"country": "Tanzania", "district": "Hai", "name": "Mbatakero", "place": "village", "region": "Kilimanjaro", "ward": "Masama Kusini"}}, {"type": "node", "id": 7579808770, "lat": -3.2773624, "lon": 37.2446351, "tags": {"country": "Tanzania", "district": "Hai", "name": "Orori", "place": "village", "region": "Kilimanjaro", "ward": "Machame Narumu"}}, {"type": "node", "id": 7579808771, "lat": -3.2586669, "lon": 37.2417625, "tags": {"country": "Tanzania", "district": "Hai", "name": "Mlama", "place": "village", "region": "Kilimanjaro", "ward": "Machame Narumu"}}, {"type": "node", "id": 7579808774, "lat": -3.2738746, "lon": 37.1990795, "tags": {"country": "Tanzania", "district": "Hai", "name": "Roo", "place": "hamlet", "region": "Kilimanjaro", "ward": "Masama Mashariki"}}, {"type": "node", "id": 7579808775, "lat": -3.2577031, "lon": 37.2343953, "tags": {"country": "Tanzania", "district": "Hai", "name": "Tella", "place": "village", "region": "Kilimanjaro", "ward": "Machame Narumu"}}, {"type": "node", "id": 7579808776, "lat": -3.2789729, "lon": 37.148529, "tags": {"country": "Tanzania", "district": "Hai", "name": "Kware", "place": "village", "region": "Kilimanjaro", "ward": "Masama Kusini"}}, {"type": "node", "id": 7579808778, "lat": -3.2656988, "lon": 37.2492216, "tags": {"country": "Tanzania", "district": "Hai", "name": "Usari", "place": "village", "region": "Kilimanjaro", "ward": "Machame Narumu"}}, {"type": "node", "id": 8019654057, "lat": -3.3411739, "lon": 37.3748128, "tags": {"country": "Tanzania", "district": "Moshi Urban", "name": "Msaranga Street", "place": "village", "region": "Kilimanjaro", "ward": "Ng'ambo"}}, {"type": "node", "id": 8019654058, "lat": -3.3480477, "lon": 37.3428034, "tags": {"country": "Tanzania", "district": "Moshi Urban", "name": "Hindu Street", "place": "village", "region": "Kilimanjaro", "ward": "Mawenzi"}}, {"type": "node", "id": 8019654077, "lat": -3.3654146, "lon": 37.3418664, "tags": {"country": "Tanzania", "district": "Moshi Urban", "name": "Kalimani Street", "place": "village", "region": "Kilimanjaro", "ward": "Njoro"}}, {"type": "node", "id": 8019666371, "lat": -3.2064306, "lon": 37.2934392, "tags": {"country": "Tanzania", "district": "Moshi Rural", "name": "Sisamaro", "place": "village", "region": "Kilimanjaro", "ward": "Okaoni"}}, {"type": "node", "id": 8019666373, "lat": -3.2981718, "lon": 37.4500708, "tags": {"country": "Tanzania", "district": "Moshi Rural", "name": "Kanango", "place": "village", "region": "Kilimanjaro", "ward": "KiruaVunjo Magharibi"}}, {"type": "node", "id": 8019666374, "lat": -3.2286225, "lon": 37.3003312, "tags": {"country": "Tanzania", "district": "Moshi Rural", "name": "Uchau Kaskazini", "place": "village", "region": "Kilimanjaro", "ward": "Kibosho Kati"}}, {"type": "node", "id": 8019666376, "lat": -3.4397439, "lon": 37.446623, "tags": {"country": "Tanzania", "district": "Moshi Rural", "name": "Kisangesangeni", "place": "village", "region": "Kilimanjaro", "ward": "Kahe"}}, {"type": "node", "id": 8019666377, "lat": -3.2461808, "lon": 37.2997699, "tags": {"country": "Tanzania", "district": "Moshi Rural", "name": "Uchau Kusini", "place": "village", "region": "Kilimanjaro", "ward": "Kibosho Kati"}}, {"type": "node", "id": 8019666380, "lat": -3.3254893, "lon": 37.4133122, "tags": {"country": "Tanzania", "district": "Moshi Rural", "name": "Shia", "place": "village", "region": "Kilimanjaro", "ward": "Kimochi"}}, {"type": "node", "id": 8019666384, "lat": -3.2413905, "lon": 37.2949457, "tags": {"country": "Tanzania", "district": "Moshi Rural", "name": "Kitandu", "place": "village", "region": "Kilimanjaro", "ward": "Okaoni"}}, {"type": "node", "id": 8019687287, "lat": -3.2443359, "lon": 37.3565099, "tags": {"country": "Tanzania", "district": "Moshi Rural", "name": "Njari", "place": "village", "region": "Kilimanjaro", "ward": "Uru Kaskazini"}}, {"type": "node", "id": 8019687292, "lat": -3.2889602, "lon": 37.3540536, "tags": {"country": "Tanzania", "district": "Moshi Rural", "name": "Mnini", "place": "village", "region": "Kilimanjaro", "ward": "Uru Mashariki"}}, {"type": "node", "id": 8019687294, "lat": -3.2931931, "lon": 37.3443001, "tags": {"country": "Tanzania", "district": "Moshi Rural", "name": "Kimanganuni", "place": "village", "region": "Kilimanjaro", "ward": "Uru Kusini"}}, {"type": "node", "id": 8019687295, "lat": -3.2830993, "lon": 37.3048288, "tags": {"country": "Tanzania", "district": "Moshi Rural", "name": "Kirima Kati", "place": "village", "region": "Kilimanjaro", "ward": "Kirima"}}, {"type": "node", "id": 8019687296, "lat": -3.379205, "lon": 37.4311782, "tags": {"country": "Tanzania", "district": "Moshi Rural", "name": "Yamu Makaa", "place": "village", "region": "Kilimanjaro", "ward": "KiruaVunjo Kusini"}}, {"type": "node", "id": 8019687299, "lat": -3.3373982, "lon": 37.4495139, "tags": {"country": "Tanzania", "district": "Moshi Rural", "name": "Yamu", "place": "village", "region": "Kilimanjaro", "ward": "KiruaVunjo Kusini"}}, {"type": "node", "id": 8019687300, "lat": -3.2269627, "lon": 37.3131152, "tags": {"country": "Tanzania", "district": "Moshi Rural", "name": "Maua", "place": "village", "region": "Kilimanjaro", "ward": "Kibosho Kati"}}, {"type": "node", "id": 8019687301, "lat": -3.2830093, "lon": 37.2783842, "tags": {"country": "Tanzania", "district": "Moshi Rural", "name": "Kindi", "place": "village", "region": "Kilimanjaro", "ward": "Kindi"}}, {"type": "node", "id": 8019687302, "lat": -3.2392522, "lon": 37.3209586, "tags": {"country": "Tanzania", "district": "Moshi Rural", "name": "Sungu", "place": "village", "region": "Kilimanjaro", "ward": "Kibosho Mashariki"}}, {"type": "node", "id": 8019687303, "lat": -3.3211335, "lon": 37.4077979, "tags": {"country": "Tanzania", "district": "Moshi Rural", "name": "Mdawi", "place": "village", "region": "Kilimanjaro", "ward": "Kimochi"}}, {"type": "node", "id": 8019687304, "lat": -3.3039514, "lon": 37.3331427, "tags": {"country": "Tanzania", "district": "Moshi Rural", "name": "Kariwa", "place": "village", "region": "Kilimanjaro", "ward": "Uru Kusini"}}, {"type": "node", "id": 8019687306, "lat": -3.2769375, "lon": 37.2629285, "tags": {"country": "Tanzania", "district": "Moshi Rural", "name": "Manushi Sinde", "place": "village", "region": "Kilimanjaro", "ward": "Kibosho Magharibi"}}, {"type": "node", "id": 8019687308, "lat": -3.23755, "lon": 37.2752806, "tags": {"country": "Tanzania", "district": "Moshi Rural", "name": "Umbwe Sinde", "place": "village", "region": "Kilimanjaro", "ward": "Kibosho Magharibi"}}, {"type": "node", "id": 8019687311, "lat": -3.3521813, "lon": 37.4110056, "tags": {"country": "Tanzania", "district": "Moshi Rural", "name": "Sangu", "place": "village", "region": "Kilimanjaro", "ward": "Kimochi"}}, {"type": "node", "id": 8019687312, "lat": -3.3103034, "lon": 37.3701488, "tags": {"country": "Tanzania", "district": "Moshi Rural", "name": "Korini Kusini", "place": "village", "region": "Kilimanjaro", "ward": "Mbokomu"}}, {"type": "node", "id": 8019687314, "lat": -3.2866307, "lon": 37.3390953, "tags": {"country": "Tanzania", "district": "Moshi Rural", "name": "Okaseni", "place": "village", "region": "Kilimanjaro", "ward": "Uru Kusini"}}, {"type": "node", "id": 8019687315, "lat": -3.2747359, "lon": 37.3691961, "tags": {"country": "Tanzania", "district": "Moshi Rural", "name": "Kyaseni", "place": "village", "region": "Kilimanjaro", "ward": "Uru Mashariki"}}, {"type": "node", "id": 8019687321, "lat": -3.2532699, "lon": 37.3322736, "tags": {"country": "Tanzania", "district": "Moshi Rural", "name": "Mrawi", "place": "village", "region": "Kilimanjaro", "ward": "Uru Kaskazini"}}, {"type": "node", "id": 8019687323, "lat": -3.243033, "lon": 37.3500882, "tags": {"country": "Tanzania", "district": "Moshi Rural", "name": "Msuni", "place": "village", "region": "Kilimanjaro", "ward": "Uru Kaskazini"}}, {"type": "node", "id": 8019687324, "lat": -3.2940837, "lon": 37.4198429, "tags": {"country": "Tanzania", "district": "Moshi Rural", "name": "Kidia", "place": "village", "region": "Kilimanjaro", "ward": "Old Moshi Mashariki"}}, {"type": "node", "id": 8019687326, "lat": -3.3287003, "lon": 37.3888464, "tags": {"country": "Tanzania", "district": "Moshi Rural", "name": "Kikarara", "place": "village", "region": "Kilimanjaro", "ward": "Old Moshi Mashariki"}}, {"type": "node", "id": 8019687327, "lat": -3.2496436, "lon": 37.3870193, "tags": {"country": "Tanzania", "district": "Moshi Rural", "name": "Uru Shimbwe Juu", "place": "village", "region": "Kilimanjaro", "ward": "Uru Shimbwe"}}, {"type": "node", "id": 8019687328, "lat": -3.255104, "lon": 37.4030302, "tags": {"country": "Tanzania", "district": "Moshi Rural", "name": "Materuni", "place": "village", "region": "Kilimanjaro", "ward": "Uru Mashariki", "wikidata": "Q107555575", "wikipedia": "en:Materuni"}}, {"type": "node", "id": 8019687331, "lat": -3.2384911, "lon": 37.3163639, "tags": {"country": "Tanzania", "district": "Moshi Rural", "name": "Singa", "place": "village", "region": "Kilimanjaro", "ward": "Kibosho Mashariki"}}, {"type": "node", "id": 8019687335, "lat": -3.2552567, "lon": 37.266773, "tags": {"country": "Tanzania", "district": "Moshi Rural", "name": "Manushi Ndoo", "place": "village", "region": "Kilimanjaro", "ward": "Kibosho Magharibi"}}, {"type": "node", "id": 8019687336, "lat": -3.1974873, "lon": 37.2740578, "tags": {"country": "Tanzania", "district": "Moshi Rural", "name": "Kifuni", "place": "village", "region": "Kilimanjaro", "ward": "Kibosho Magharibi"}}, {"type": "node", "id": 8019687337, "lat": -3.2122694, "lon": 37.2796408, "tags": {"country": "Tanzania", "district": "Moshi Rural", "name": "Umbwe Onana", "place": "village", "region": "Kilimanjaro", "ward": "Kibosho Magharibi"}}, {"type": "node", "id": 8019687338, "lat": -3.3143106, "lon": 37.442884, "tags": {"country": "Tanzania", "district": "Moshi Rural", "name": "Manu", "place": "village", "region": "Kilimanjaro", "ward": "KiruaVunjo Magharibi"}}, {"type": "node", "id": 8019687341, "lat": -3.3020718, "lon": 37.3264716, "tags": {"country": "Tanzania", "district": "Moshi Rural", "name": "Longuo 'A'", "place": "village", "region": "Kilimanjaro", "ward": "Uru Kusini"}}, {"type": "node", "id": 8019687344, "lat": -3.2275798, "lon": 37.3075131, "tags": {"country": "Tanzania", "district": "Moshi Rural", "name": "Otaruni", "place": "village", "region": "Kilimanjaro", "ward": "Kibosho Kati"}}, {"type": "node", "id": 8019687345, "lat": -3.2789767, "lon": 37.3728578, "tags": {"country": "Tanzania", "district": "Moshi Rural", "name": "Kishumundu", "place": "village", "region": "Kilimanjaro", "ward": "Uru Mashariki"}}, {"type": "node", "id": 8019687348, "lat": -3.4854336, "lon": 37.4547464, "tags": {"country": "Tanzania", "district": "Moshi Rural", "name": "Ngasinyi", "place": "village", "region": "Kilimanjaro", "ward": "Kahe"}}, {"type": "node", "id": 8019687351, "lat": -3.2309398, "lon": 37.2630802, "tags": {"country": "Tanzania", "district": "Moshi Rural", "name": "Kombo", "place": "village", "region": "Kilimanjaro", "ward": "Kibosho Magharibi"}}, {"type": "node", "id": 8019687360, "lat": -3.2166542, "lon": 37.2670712, "tags": {"country": "Tanzania", "district": "Moshi Rural", "name": "Mkomongo", "place": "village", "region": "Kilimanjaro", "ward": "Kibosho Magharibi", "wikidata": "Q22906984", "wikipedia": "en:Mkomongo"}}, {"type": "node", "id": 8019687367, "lat": -3.246645, "lon": 37.303745, "tags": {"country": "Tanzania", "district": "Moshi Rural", "name": "Kirima Chini", "place": "village", "region": "Kilimanjaro", "ward": "Kirima"}}, {"type": "node", "id": 8019687368, "lat": -3.3090581, "lon": 37.3454417, "tags": {"country": "Tanzania", "district": "Moshi Rural", "name": "Rau", "place": "village", "region": "Kilimanjaro", "ward": "Uru Kusini", "wikidata": "Q13124742", "wikipedia": "en:Rau (Tanzanian ward)"}}, {"type": "node", "id": 8019687370, "lat": -3.2322572, "lon": 37.2866927, "tags": {"country": "Tanzania", "district": "Moshi Rural", "name": "Dakau", "place": "village", "region": "Kilimanjaro", "ward": "Okaoni"}}, {"type": "node", "id": 8019687373, "lat": -3.3952014, "lon": 37.4061812, "tags": {"country": "Tanzania", "district": "Moshi Rural", "name": "Sango", "place": "village", "region": "Kilimanjaro", "ward": "Old Moshi Magharibi"}}, {"type": "node", "id": 8019687374, "lat": -3.4274753, "lon": 37.3917069, "tags": {"country": "Tanzania", "district": "Moshi Rural", "name": "Rau River, Kahe", "place": "village", "region": "Kilimanjaro", "ward": "Kahe"}}, {"type": "node", "id": 8019687375, "lat": -3.2873, "lon": 37.392018, "tags": {"country": "Tanzania", "district": "Moshi Rural", "name": "Korini Kati", "place": "village", "region": "Kilimanjaro", "ward": "Mbokomu"}}, {"type": "node", "id": 8019687376, "lat": -3.3308087, "lon": 37.4222096, "tags": {"country": "Tanzania", "district": "Moshi Rural", "name": "Sango", "place": "village", "region": "Kilimanjaro", "ward": "Kimochi"}}, {"type": "node", "id": 8019687378, "lat": -3.316887, "lon": 37.3663873, "tags": {"country": "Tanzania", "district": "Moshi Rural", "name": "Korini Chini", "place": "village", "region": "Kilimanjaro", "ward": "Mbokomu"}}, {"type": "node", "id": 8019687381, "lat": -3.2947588, "lon": 37.2999375, "tags": {"country": "Tanzania", "district": "Moshi Rural", "name": "Boro", "place": "village", "region": "Kilimanjaro", "ward": "Kirima"}}, {"type": "node", "id": 8019687382, "lat": -3.2643121, "lon": 37.3891607, "tags": {"country": "Tanzania", "district": "Moshi Rural", "name": "Mruwia", "place": "village", "region": "Kilimanjaro", "ward": "Uru Mashariki"}}, {"type": "node", "id": 8019687383, "lat": -3.28989, "lon": 37.306113, "tags": {"country": "Tanzania", "district": "Moshi Rural", "name": "Kncu", "place": "village", "region": "Kilimanjaro", "ward": "Kirima"}}, {"type": "node", "id": 8019687384, "lat": -3.2336674, "lon": 37.2912264, "tags": {"country": "Tanzania", "district": "Moshi Rural", "name": "Mloe", "place": "village", "region": "Kilimanjaro", "ward": "Okaoni"}}, {"type": "node", "id": 8019687386, "lat": -3.2967482, "lon": 37.4312338, "tags": {"country": "Tanzania", "district": "Moshi Rural", "name": "Mowo", "place": "village", "region": "Kilimanjaro", "ward": "Kimochi"}}, {"type": "node", "id": 8019687388, "lat": -3.2603076, "lon": 37.3677097, "tags": {"country": "Tanzania", "district": "Moshi Rural", "name": "Uru Shimbwe Chini", "place": "village", "region": "Kilimanjaro", "ward": "Uru Shimbwe"}}, {"type": "node", "id": 8019687389, "lat": -3.2718617, "lon": 37.2594371, "tags": {"country": "Tanzania", "district": "Moshi Rural", "name": "Miono", "place": "village", "region": "Kilimanjaro", "ward": "Kibosho Magharibi"}}, {"type": "node", "id": 8019687391, "lat": -3.310191, "lon": 37.2965274, "tags": {"country": "Tanzania", "district": "Moshi Rural", "name": "Smbarai", "place": "village", "region": "Kilimanjaro", "ward": "Kindi"}}, {"type": "node", "id": 8019687392, "lat": -3.3094144, "lon": 37.398383, "tags": {"country": "Tanzania", "district": "Moshi Rural", "name": "Mahoma", "place": "village", "region": "Kilimanjaro", "ward": "Old Moshi Mashariki"}}, {"type": "node", "id": 8019687394, "lat": -3.2959796, "lon": 37.4011791, "tags": {"country": "Tanzania", "district": "Moshi Rural", "name": "Tella", "place": "village", "region": "Kilimanjaro", "ward": "Old Moshi Magharibi"}}, {"type": "node", "id": 8019687397, "lat": -3.2599727, "lon": 37.3483222, "tags": {"country": "Tanzania", "district": "Moshi Rural", "name": "Ongoma", "place": "village", "region": "Kilimanjaro", "ward": "Uru Kaskazini"}}, {"type": "node", "id": 8019687399, "lat": -3.4481399, "lon": 37.4006495, "tags": {"country": "Tanzania", "district": "Moshi Rural", "name": "Chekereni", "place": "village", "region": "Kilimanjaro", "ward": "Mabogini"}}, {"type": "node", "id": 8019687400, "lat": -3.210145, "lon": 37.3063604, "tags": {"country": "Tanzania", "district": "Moshi Rural", "name": "Uri", "place": "village", "region": "Kilimanjaro", "ward": "Kibosho Kati"}}, {"type": "node", "id": 8019687403, "lat": -3.2158549, "lon": 37.2977285, "tags": {"country": "Tanzania", "district": "Moshi Rural", "name": "Omarini", "place": "village", "region": "Kilimanjaro", "ward": "Okaoni"}}, {"type": "node", "id": 8019687405, "lat": -3.2851096, "lon": 37.3904419, "tags": {"country": "Tanzania", "district": "Moshi Rural", "name": "Korini Juu", "place": "village", "region": "Kilimanjaro", "ward": "Mbokomu"}}, {"type": "node", "id": 8019687407, "lat": -3.2754956, "lon": 37.3353115, "tags": {"country": "Tanzania", "district": "Moshi Rural", "name": "Kitandu", "place": "village", "region": "Kilimanjaro", "ward": "Uru Kusini"}}, {"type": "node", "id": 8019687408, "lat": -3.277566, "lon": 37.300585, "tags": {"country": "Tanzania", "district": "Moshi Rural", "name": "Ngirini", "place": "village", "region": "Kilimanjaro", "ward": "Kirima"}}, {"type": "node", "id": 8019687413, "lat": -3.1987618, "lon": 37.2878243, "tags": {"country": "Tanzania", "district": "Moshi Rural", "name": "Mkomilo", "place": "village", "region": "Kilimanjaro", "ward": "Okaoni"}}, {"type": "node", "id": 8019687415, "lat": -3.2577425, "lon": 37.308317, "tags": {"country": "Tanzania", "district": "Moshi Rural", "name": "Kirima", "place": "village", "region": "Kilimanjaro", "ward": "Kirima"}}, {"type": "node", "id": 8019687416, "lat": -3.3102886, "lon": 37.403962, "tags": {"country": "Tanzania", "district": "Moshi Rural", "name": "Tsuduni", "place": "village", "region": "Kilimanjaro", "ward": "Old Moshi Mashariki"}}, {"type": "node", "id": 8019687419, "lat": -3.3080855, "lon": 37.3873118, "tags": {"country": "Tanzania", "district": "Moshi Rural", "name": "Mande", "place": "village", "region": "Kilimanjaro", "ward": "Old Moshi Magharibi"}}, {"type": "node", "id": 8019687420, "lat": -3.2507981, "lon": 37.3073064, "tags": {"country": "Tanzania", "district": "Moshi Rural", "name": "Kirima Juu", "place": "village", "region": "Kilimanjaro", "ward": "Kirima"}}, {"type": "node", "id": 9260157185, "lat": -3.37001, "lon": 37.31006, "tags": {"name": "Shirimatunda", "place": "village"}}, {"type": "node", "id": 9260157186, "lat": -3.3717082, "lon": 37.3481438, "tags": {"name": "Kaloleni", "place": "village"}}, {"type": "node", "id": 9260157187, "lat": -3.3722417, "lon": 37.3405765, "tags": {"name": "Boma Mbuzi", "place": "village"}}, {"type": "node", "id": 9260157188, "lat": -3.3563447, "lon": 37.3472089, "tags": {"name": "Njoro", "place": "village"}}, {"type": "node", "id": 9260293156, "lat": -3.3502844, "lon": 37.3543818, "tags": {"name": "Miembeni", "place": "village"}}, {"type": "node", "id": 9260293168, "lat": -3.3574011, "lon": 37.3396578, "tags": {"name": "Bondeni", "place": "village"}}, {"type": "node", "id": 9260293169, "lat": -3.3514832, "lon": 37.3338473, "tags": {"name": "Kiusa", "place": "village"}}, {"type": "node", "id": 9260293170, "lat": -3.3689011, "lon": 37.3253917, "tags": {"name": "Korongoni", "place": "village"}}, {"type": "node", "id": 9260293171, "lat": -3.3436995, "lon": 37.3032857, "tags": {"name": "Karanga", "place": "village", "wikidata": "Q28458155", "wikipedia": "en:Karanga (Moshi Urban Ward)"}}, {"type": "node", "id": 9260293172, "lat": -3.3376921, "lon": 37.3267921, "tags": {"name": "Kilimanjaro", "place": "village"}}, {"type": "node", "id": 9260293173, "lat": -3.3203149, "lon": 37.3218048, "tags": {"place": "village"}}, {"type": "node", "id": 9260293176, "lat": -3.3489229, "lon": 37.3427344, "tags": {"name": "Mawenzi", "place": "village"}}, {"type": "node", "id": 9260293177, "lat": -3.3429806, "lon": 37.3535062, "tags": {"name": "Majengo", "place": "village"}}, {"type": "node", "id": 9260293178, "lat": -3.3499321, "lon": 37.3614808, "tags": {"name": "Mji Mpya", "place": "village"}}]}