{"version": 0.6, "generator": "Overpass API 0.7.61.5 4133829e", "osm3s": {"timestamp_osm_base": "2024-03-06T11:12:35Z", "copyright": "The data included in this document is from www.openstreetmap.org. The data is made available under ODbL."}, "elements": [{"type": "node", "id": 4858581826, "lat": 35.6734242, "lon": 44.0751706, "tags": {"amenity": "hospital", "healthcare": "hospital", "name": "\u0642\u0637\u0627\u0639 \u0627\u0644\u062f\u0628\u0633 \u0644\u0644\u0631\u0639\u0627\u064a\u0629 \u0627\u0644\u0635\u062d\u064a\u0629 \u0627\u0644\u0623\u0648\u0644\u064a\u0629", "opening_hours": "24/7"}}, {"type": "node", "id": 4888976822, "lat": 35.7879114, "lon": 44.1145837, "tags": {"amenity": "hospital", "name": "\u0646\u06d5\u062e\u06c6\u0634\u062e\u0627\u0646\u06cc \u0634\u06ce\u0631\u0627\u0648\u06d5", "name:ar": "\u0645\u0633\u062a\u0634\u0641\u0649 \u0634\u064a\u0631\u0627\u0648\u0629", "name:en": "Sherawa Hospital"}}, {"type": "node", "id": 5704215138, "lat": 35.7584492, "lon": 44.1400023, "tags": {"amenity": "hospital", "name": "\u0645\u0633\u062a\u0634\u0641\u0649 \u0627\u0644\u062a\u0648\u0646 \u0643\u0648\u0628\u0631\u064a", "name:ar": "\u0645\u0633\u062a\u0634\u0641\u0649 \u0627\u0644\u062a\u0648\u0646 \u0643\u0648\u0628\u0631\u064a", "name:ckb": "\u0646\u06d5\u062e\u06c6\u0634\u062e\u0627\u0646\u06d5\u06cc \u067e\u0631\u062f\u06ce"}}, {"type": "node", "id": 5705225123, "lat": 35.6735461, "lon": 44.0758421, "tags": {"amenity": "hospital", "healthcare": "hospital", "name": "\u0645\u0633\u062a\u0634\u0641\u0649 \u0627\u0644\u062f\u0628\u0633", "name:ckb": "\u0646\u06d5\u062e\u06c6\u0634\u062e\u0627\u0646\u06d5\u06cc \u062f\u0648\u0648\u0628\u0632"}}, {"type": "node", "id": 6051754586, "lat": 35.871794, "lon": 44.4437821, "tags": {"amenity": "hospital", "name": "\u0646\u06d5\u062e\u06c6\u0634\u062e\u0627\u0646\u06d5\u06cc \u0633\u06ce\u06af\u0631\u062f\u06a9\u0627\u0646", "name:en": "Segrdkan Hospital"}}, {"type": "node", "id": 6361367930, "lat": 35.8240928, "lon": 44.0733925, "tags": {"addr:city": "\u0647\u06d5\u0648\u0644\u06ce\u0631", "amenity": "hospital", "healthcare": "hospital"}}, {"type": "node", "id": 6361399533, "lat": 35.8242002, "lon": 44.073496}, {"type": "node", "id": 6361399534, "lat": 35.8240969, "lon": 44.0730695}, {"type": "node", "id": 6361399535, "lat": 35.8238435, "lon": 44.0731741}, {"type": "node", "id": 6361399536, "lat": 35.8239425, "lon": 44.0736127}, {"type": "node", "id": 6361399537, "lat": 35.8240523, "lon": 44.0735604}, {"type": "node", "id": 6467101852, "lat": 36.04838, "lon": 44.0630924}, {"type": "node", "id": 6467101853, "lat": 36.0483345, "lon": 44.0627625}, {"type": "node", "id": 6467101854, "lat": 36.0480916, "lon": 44.0628402}, {"type": "node", "id": 6467101855, "lat": 36.0481415, "lon": 44.0631487}, {"type": "node", "id": 9926757767, "lat": 35.8876343, "lon": 44.1503036, "tags": {"amenity": "hospital", "healthcare": "hospital", "name": "\u0628\u0646\u06a9\u06d5\u06cc \u062a\u06d5\u0646\u062f\u0631\u0648\u0633\u062a\u06cc \u06af\u0631\u062f\u06d5\u0633\u06c6\u0631", "name:en": "Grda sor Health Center"}}, {"type": "node", "id": 9930343522, "lat": 35.7344156, "lon": 44.4681121, "tags": {"addr:city": "kirkuk", "addr:country": "IQ", "addr:housenumber": "123", "addr:postcode": "36001", "addr:street": "\u0695\u06ce\u06af\u0627\u06cc \u0634\u0648\u0627\u0646", "amenity": "hospital", "emergency": "yes", "healthcare": "hospital", "healthcare:speciality": "general", "name": "\u0628\u0646\u06a9\u06d5\u06cc \u062a\u06d5\u0646\u062f\u0631\u0648\u0633\u062a\u06cc \u0634\u0648\u0627\u0646", "operator": "\u06a9\u0648\u0631\u062f\u0633\u062a\u0627\u0646", "operator:type": "public"}}, {"type": "node", "id": 11005463905, "lat": 35.9364911, "lon": 44.3353597, "tags": {"addr:street": "koya general hospital", "amenity": "hospital"}}, {"type": "way", "id": 679345764, "nodes": [6361399533, 6361399534, 6361399535, 6361399536, 6361399537, 6361399533], "tags": {"amenity": "hospital", "healthcare": "hospital"}}, {"type": "way", "id": 689381615, "nodes": [6467101852, 6467101853, 6467101854, 6467101855, 6467101852], "tags": {"addr:city": "\u0647\u06d5\u0648\u0644\u06ce\u0631", "addr:street": "Murtka-BaxamraAfandi-Daratu Road", "amenity": "hospital", "healthcare": "hospital"}}]}