{"version": 0.6, "generator": "Overpass API 0.7.61.5 4133829e", "osm3s": {"timestamp_osm_base": "2024-03-06T11:01:15Z", "copyright": "The data included in this document is from www.openstreetmap.org. The data is made available under ODbL."}, "elements": [{"type": "node", "id": 6038681137, "lat": -4.03975, "lon": 39.6988594, "tags": {"addr:city": "Mombasa", "addr:street": "Bandari road", "amenity": "school", "name": "Jeddys Academy School Compound"}}, {"type": "node", "id": 6038733333, "lat": -4.0595462, "lon": 39.6957166, "tags": {"addr:city": "Mombasa", "addr:street": "Green wood Drive", "amenity": "school", "name": "The Light Academy International School"}}, {"type": "node", "id": 7200072685, "lat": -4.0416937, "lon": 39.6956405, "tags": {"amenity": "school", "name": "The Cornerstone Elites"}}, {"type": "node", "id": 11484531490, "lat": -4.0462172, "lon": 39.6966535, "tags": {"barrier": "gate"}}, {"type": "node", "id": 11484531491, "lat": -4.0459306, "lon": 39.6971668, "tags": {"barrier": "gate"}}, {"type": "node", "id": 11484531492, "lat": -4.0446893, "lon": 39.6956769}, {"type": "node", "id": 11484531493, "lat": -4.0462518, "lon": 39.6965915}, {"type": "node", "id": 11484531494, "lat": -4.0457689, "lon": 39.6974565}, {"type": "node", "id": 11484531495, "lat": -4.0444338, "lon": 39.6966384}, {"type": "node", "id": 11484531496, "lat": -4.0444298, "lon": 39.6965459}, {"type": "node", "id": 11484531497, "lat": -4.0444338, "lon": 39.6964413}, {"type": "node", "id": 11484531498, "lat": -4.0444351, "lon": 39.6963058}, {"type": "node", "id": 11484531499, "lat": -4.0444351, "lon": 39.6961476}, {"type": "node", "id": 11484531500, "lat": -4.0443749, "lon": 39.6959156}, {"type": "node", "id": 11484531501, "lat": -4.0442973, "lon": 39.695693}, {"type": "node", "id": 11484531502, "lat": -4.0442612, "lon": 39.6954516}, {"type": "way", "id": 1236768021, "nodes": [11484531502, 11484531501, 11484531500, 11484531499, 11484531498, 11484531497, 11484531496, 11484531495, 11484531494, 11484531491, 11484531490, 11484531493, 11484531492, 11484531502]}, {"type": "relation", "id": 16929891, "members": [{"type": "way", "ref": 1236768021, "role": "outer"}], "tags": {"amenity": "school", "name": "Nyali Primary & Junior Secondary School", "operator": "Ministry of Education", "operator:type": "public", "type": "multipolygon", "website": "https://education.go.ke"}}]}