{"version": 0.6, "generator": "Overpass API 0.7.61.5 4133829e", "osm3s": {"timestamp_osm_base": "2024-03-05T13:38:43Z", "copyright": "The data included in this document is from www.openstreetmap.org. The data is made available under ODbL."}, "elements": [{"type": "node", "id": 4397280976, "lat": 35.766644, "lon": 65.764862, "tags": {"alt_name": "\u06a9\u0648\u0647\u0633\u062a\u0627\u0646\u0627\u062a;Kohistanat", "name": "\u067e\u0633\u0646\u06cc", "name:en": "Pasnay", "name:ps": "\u067e\u0633\u0646\u06cc", "place": "town", "source:name": "GNS"}}, {"type": "node", "id": 5928418319, "lat": 35.5461135, "lon": 65.9678, "tags": {"alt_name": "Asmatak;\u2018I\u015fmatak", "name": "Esmatak", "place": "village", "source:name": "Afghanistan and Pakistan Joint Operations Graphics (http://legacy.lib.utexas.edu/maps/jog/afghanistan/index_map.html)"}}, {"type": "node", "id": 7603314617, "lat": 35.7004967, "lon": 66.0510868, "tags": {"place": "village"}}, {"type": "node", "id": 7603314618, "lat": 35.69973, "lon": 66.0620088, "tags": {"place": "hamlet"}}, {"type": "node", "id": 7603314619, "lat": 35.6963494, "lon": 66.0670513, "tags": {"place": "hamlet"}}, {"type": "node", "id": 7603329634, "lat": 35.8556063, "lon": 66.1764786, "tags": {"place": "village"}}]}