{"version": 0.6, "generator": "Overpass API 0.7.61.5 4133829e", "osm3s": {"timestamp_osm_base": "2024-03-06T11:30:59Z", "copyright": "The data included in this document is from www.openstreetmap.org. The data is made available under ODbL."}, "elements": [{"type": "node", "id": 11290358692, "lat": -3.1312928, "lon": 39.8915298, "tags": {"amenity": "pharmacy", "evacuation_center": "no", "flood_prone": "no", "name": "Garashi chemist", "opening_hours": "24/7", "operational_status": "operational", "operator": "Janet kithi kombe", "operator:type": "private", "phone": "+254 746 045 347", "source": "KRCS2023", "storage_area": "no"}}, {"type": "node", "id": 11290358696, "lat": -3.1316392, "lon": 39.8924046, "tags": {"amenity": "pharmacy", "evacuation_center": "yes", "flood_prone": "no", "name": "Jamal chemist", "opening_hours": "sunrise-sunset", "operational_status": "operational", "operator": "Private", "operator:type": "private", "phone": "+254 741 101 736", "source": "KRCS2023", "storage_area": "no"}}, {"type": "node", "id": 11290358701, "lat": -3.1469458, "lon": 39.7210856, "tags": {"amenity": "pharmacy", "evacuation_center": "no", "flood_prone": "no", "name": "Star Chemist", "opening_hours": "sunrise-sunset", "operational_status": "operational", "operator": "Christian Safari", "operator:type": "private", "phone": "+254 717 029 260", "source": "KRCS2023", "storage_area": "no"}}, {"type": "node", "id": 11290358712, "lat": -3.1602144, "lon": 40.1230292, "tags": {"amenity": "pharmacy", "evacuation_center": "no", "flood_prone": "no", "name": "Oasis Community Health Moi", "opening_hours": "sunrise-sunset", "operational_status": "operational", "operator": "Jonathan Ndurya", "operator:type": "private", "phone": "+254 721 279 510", "source": "KRCS2023", "storage_area": "yes"}}, {"type": "node", "id": 11290358715, "lat": -3.16272, "lon": 40.1026863, "tags": {"amenity": "pharmacy", "evacuation_center": "no", "flood_prone": "yes", "name": "Maboromokoni", "opening_hours": "sunrise-sunset", "operational_status": "operational", "operator": "Private", "operator:type": "private", "phone": "+254 723 427 572", "source": "KRCS2023", "storage_area": "yes"}}, {"type": "node", "id": 11290358718, "lat": -3.1298867, "lon": 39.7821415, "tags": {"amenity": "clinic", "evacuation_center": "no", "flood_prone": "no", "name": "Ufanisi medical clinic", "opening_hours": "24/7", "operational_status": "operational", "operator": "Jonathan shumba", "operator:type": "private", "phone": "+254 720 169 874", "source": "KRCS2023", "storage_area": "no"}}, {"type": "node", "id": 11290358719, "lat": -3.1298298, "lon": 39.781254, "tags": {"amenity": "pharmacy", "evacuation_center": "no", "flood_prone": "no", "name": "Thoya Chemist", "operator:type": "private", "source": "KRCS2023"}}, {"type": "node", "id": 11290358727, "lat": -3.1309178, "lon": 39.891307, "tags": {"amenity": "hospital", "evacuation_center": "yes", "flood_prone": "no", "name": "Garashi health centre", "opening_hours": "24/7", "operational_status": "operational", "operator": "Ministry of Health", "operator:type": "public", "phone": "+254 720 919 890", "source": "KRCS2023", "storage_area": "yes"}}]}