{"version": 0.6, "generator": "Overpass API 0.7.61.5 4133829e", "osm3s": {"timestamp_osm_base": "2024-03-05T18:54:43Z", "copyright": "The data included in this document is from www.openstreetmap.org. The data is made available under ODbL."}, "elements": [{"type": "node", "id": 250998985, "lat": 56.1600311, "lon": 14.8168148, "tags": {"amenity": "ferry_terminal", "ferry": "yes", "name": "Stillerydshamnen", "name:ru": "\u041f\u0430\u0440\u043e\u043c \u043d\u0430 \u041a\u043b\u0430\u0439\u043f\u0435\u0434\u0443", "public_transport": "station"}}, {"type": "node", "id": 281193933, "lat": 56.1242616, "lon": 15.5504671, "tags": {"amenity": "ferry_terminal", "ferry": "yes", "name": "V\u00e4gf\u00e4rja till Karlskrona", "public_transport": "station"}}, {"type": "node", "id": 559160249, "lat": 56.206551, "lon": 15.2837148, "tags": {"amenity": "bus_station", "name": "Ronneby resecentrum", "public_transport": "station", "route_ref": "21;22;23;24;25;26;150;152;154;171;172;173;211;240;241;242;243;250;255;256;370;600;840"}}, {"type": "node", "id": 866553013, "lat": 56.1814791, "lon": 15.0727379, "tags": {"amenity": "ferry_terminal", "ferry": "yes", "name": "F\u00e4rja till Tj\u00e4r\u00f6", "public_transport": "station"}}, {"type": "node", "id": 4066896345, "lat": 56.1605371, "lon": 14.8640112, "tags": {"amenity": "ferry_terminal", "ferry": "yes", "name": "Kastellet", "public_transport": "station"}}, {"type": "node", "id": 5516384282, "lat": 56.2069878, "lon": 15.2829889, "tags": {"name": "Ronneby", "official_name": "Ronneby resecentrum", "public_transport": "station", "railway": "station", "train": "yes", "wikidata": "Q99463064", "wikipedia": "sv:Stationshuset, Ronneby"}}, {"type": "node", "id": 10621526333, "lat": 56.1588031, "lon": 14.819064, "tags": {"amenity": "ferry_terminal", "ferry": "yes", "public_transport": "station"}}, {"type": "node", "id": 10642662552, "lat": 56.1592451, "lon": 14.8173101, "tags": {"amenity": "ferry_terminal", "ferry": "yes", "public_transport": "station"}}]}