{"version": 0.6, "generator": "Overpass API 0.7.61.5 4133829e", "osm3s": {"timestamp_osm_base": "2024-03-05T11:10:29Z", "copyright": "The data included in this document is from www.openstreetmap.org. The data is made available under ODbL."}, "elements": [{"type": "node", "id": 5126547835, "lat": 6.2324742, "lon": -2.266699, "tags": {"amenity": "bank", "name": "GN Bank", "name:en": "GN Bank"}}, {"type": "node", "id": 7633321245, "lat": 6.1954411, "lon": -2.3224495, "tags": {"amenity": "bank", "atm": "no", "branch": "Sefwi Bekwai", "brand": "Amanfiman", "level": "1", "name": "Amanfiman Rural Bank"}}, {"type": "node", "id": 7745727974, "lat": 6.1961793, "lon": -2.3214729}, {"type": "node", "id": 7745727975, "lat": 6.1965621, "lon": -2.3210191}, {"type": "node", "id": 7745727976, "lat": 6.1964074, "lon": -2.320887}, {"type": "node", "id": 7745727977, "lat": 6.1960246, "lon": -2.3213408}, {"type": "node", "id": 7745747257, "lat": 6.195352, "lon": -2.3222171, "tags": {"addr:city": "Sefwi Bekwai", "addr:street": "Bibiani - Sefwi Bekwai", "amenity": "bank", "opening_hours": "Mo-Fr 09:00-17:00"}}, {"type": "way", "id": 829913707, "nodes": [7745727974, 7745727975, 7745727976, 7745727977, 7745727974], "tags": {"addr:city": "Sefwi Bekwai", "addr:street": "Bibiani - Sefwi Bekwai Rd", "amenity": "bank", "atm": "yes", "building": "yes", "drive_through": "no", "name": "Republic Bank", "opening_hours": "Mo-Fr 08:00-17:00"}}]}