{"version": 0.6, "generator": "Overpass API 0.7.61.5 4133829e", "osm3s": {"timestamp_osm_base": "2024-03-05T13:35:45Z", "copyright": "The data included in this document is from www.openstreetmap.org. The data is made available under ODbL."}, "elements": [{"type": "node", "id": 4394431429, "lat": 36.919393, "lon": 65.064904, "tags": {"alt_name": "\u0628\u0627\u0632\u0627\u0631 \u0642\u0631\u063a\u0627\u0646;Bazar-e Qurghan;Qorghan;Kurghan", "name": "\u0642\u0631\u063a\u0627\u0646", "name:en": "Qurghan", "name:ps": "\u0642\u0631\u063a\u0627\u0646", "name:ru": "\u041a\u0443\u0440\u0433\u0430\u043d", "place": "town", "source:name": "GNS"}}, {"type": "node", "id": 4394941837, "lat": 36.8636557, "lon": 65.0634514, "tags": {"alt_name": "Qaramqul", "name": "\u0642\u0631\u0645\u0642\u0644", "name:en": "Qaramqol", "name:ps": "\u0642\u0631\u0645\u0642\u0644", "name:ru": "\u041a\u0430\u0440\u0430\u043c\u043a\u043e\u043b\u044c", "place": "town", "source:name": "GNS"}}, {"type": "node", "id": 4394960608, "lat": 36.840867, "lon": 65.072003, "tags": {"name": "\u0627\u0644\u062a\u06cc \u0628\u0648\u0644\u0627\u0642", "name:en": "Alti Bulaq", "name:ps": "\u0627\u0644\u062a\u06cc \u0628\u0648\u0644\u0627\u0642", "place": "village", "source:name": "GNS"}}, {"type": "node", "id": 6262397212, "lat": 36.7215873, "lon": 64.8933938}, {"type": "node", "id": 6262397213, "lat": 36.7222408, "lon": 64.8947456}, {"type": "node", "id": 6262397214, "lat": 36.7194201, "lon": 64.8977497}, {"type": "node", "id": 6262397215, "lat": 36.7148964, "lon": 64.9002602}, {"type": "node", "id": 6262397216, "lat": 36.7146556, "lon": 64.8966124}, {"type": "node", "id": 6262397217, "lat": 36.715636, "lon": 64.8929432}, {"type": "way", "id": 668728587, "nodes": [6262397212, 6262397213, 6262397214, 6262397215, 6262397216, 6262397217, 6262397212], "tags": {"place": "hamlet"}}]}