{"version": 0.6, "generator": "Overpass API 0.7.61.5 4133829e", "osm3s": {"timestamp_osm_base": "2024-03-05T15:08:58Z", "copyright": "The data included in this document is from www.openstreetmap.org. The data is made available under ODbL."}, "elements": [{"type": "node", "id": 61146423, "lat": 64.5958617, "lon": 18.6777559, "tags": {"name": "Lycksele", "name:ru": "\u041b\u044e\u043a\u0441\u0435\u043b\u0435", "name:sju": "L\u00efkssjuo", "name:sma": "Liksjoe", "place": "town", "population": "8513", "ref:se:pts:postort": "LYCKSELE", "ref:se:scb": "8232"}}, {"type": "node", "id": 312667756, "lat": 64.5431948, "lon": 18.7479808, "tags": {"name": "\u00d6sterlund", "place": "hamlet"}}, {"type": "node", "id": 312703020, "lat": 64.6188848, "lon": 18.6401359, "tags": {"name": "Norrlunda", "place": "hamlet"}}, {"type": "node", "id": 312703124, "lat": 64.6583308, "lon": 18.4533991, "tags": {"name": "Br\u00e4nnland", "place": "hamlet"}}, {"type": "node", "id": 312703144, "lat": 64.6983086, "lon": 18.3772094, "tags": {"name": "Umgransele", "place": "village", "ref:se:scb": "S8909", "wikidata": "Q1792739", "wikipedia": "sv:Umgransele"}}, {"type": "node", "id": 822583998, "lat": 64.5381169, "lon": 18.7204961, "tags": {"name": "Hedlunda", "place": "hamlet", "ref:se:scb": "S8565", "wikidata": "Q2251168", "wikipedia": "sv:Hedlunda"}}, {"type": "node", "id": 822584000, "lat": 64.526528, "lon": 18.7471036, "tags": {"name": "Tannb\u00e4ck", "place": "hamlet"}}, {"type": "node", "id": 822584017, "lat": 64.5538315, "lon": 18.6988667, "tags": {"name": "H\u00e4lsingfors", "place": "hamlet"}}, {"type": "node", "id": 822765930, "lat": 64.5579558, "lon": 18.6933106, "tags": {"name": "Berglunda", "place": "hamlet"}}, {"type": "node", "id": 888033992, "lat": 64.2946185, "lon": 18.642367, "tags": {"name": "V\u00e4njaurtr\u00e4sk", "place": "hamlet"}}, {"type": "node", "id": 888106398, "lat": 64.3454177, "lon": 18.4805592, "tags": {"name": "Nyby", "place": "hamlet"}}, {"type": "node", "id": 888107313, "lat": 64.3749618, "lon": 18.5799194, "tags": {"name": "V\u00e4njaurb\u00e4ck", "place": "village", "ref:se:scb": "S8933", "wikidata": "Q1794805", "wikipedia": "sv:V\u00e4njaurb\u00e4ck"}}, {"type": "node", "id": 888109421, "lat": 64.3203512, "lon": 18.3307536, "tags": {"name": "Grantr\u00e4sk", "place": "hamlet"}}, {"type": "node", "id": 1833445504, "lat": 64.6327331, "lon": 18.5578184, "tags": {"name": "Betsele", "place": "hamlet", "ref:se:scb": "S8433", "wikidata": "Q1792760", "wikipedia": "sv:Betsele"}}, {"type": "node", "id": 1862980323, "lat": 64.6364137, "lon": 18.6794995, "tags": {"name": "Lyckan", "place": "hamlet"}}, {"type": "node", "id": 1862980327, "lat": 64.6441045, "lon": 18.6605662, "tags": {"name": "Ulriksdal", "place": "hamlet"}}, {"type": "node", "id": 1864969549, "lat": 64.3622483, "lon": 18.1114881, "tags": {"name": "L\u00e5ngb\u00e4cken", "place": "hamlet", "ref:se:pts:postort": "L\u00c5NGB\u00c4CKEN"}}, {"type": "node", "id": 1864969824, "lat": 64.3969125, "lon": 17.9947584, "tags": {"name": "V\u00e4stermyrriset", "place": "hamlet"}}, {"type": "node", "id": 1864970061, "lat": 64.4256055, "lon": 18.061363, "tags": {"name": "\u00c5ttontr\u00e4sk", "place": "hamlet"}}, {"type": "node", "id": 1864998769, "lat": 64.589803, "lon": 18.5864124, "tags": {"name": "V\u00e5gn\u00e4s", "place": "hamlet"}}, {"type": "node", "id": 1864999727, "lat": 64.6032793, "lon": 18.5088215, "tags": {"name": "\u00c4lgtr\u00e4sk", "place": "hamlet"}}, {"type": "node", "id": 1865011694, "lat": 64.5815243, "lon": 18.6341128, "tags": {"name": "Hammarkulla", "place": "hamlet"}}, {"type": "node", "id": 1865287447, "lat": 64.6486102, "lon": 18.4900875, "tags": {"name": "B\u00e5lforsen", "place": "village"}}, {"type": "node", "id": 1865292077, "lat": 64.4500258, "lon": 18.6317081, "tags": {"name": "Knaften", "name:sma": "Knafta", "name:sv": "Knaften", "place": "hamlet", "ref:se:scb": "S8637", "wikidata": "Q1792752", "wikipedia": "sv:Knaften"}}, {"type": "node", "id": 2125124202, "lat": 64.4365372, "lon": 18.5093288, "tags": {"name": "\u00c5liden", "place": "hamlet"}}, {"type": "node", "id": 2125124206, "lat": 64.4634499, "lon": 18.4925226, "tags": {"name": "R\u00f6dingtr\u00e4sk", "place": "hamlet"}}, {"type": "node", "id": 2226880685, "lat": 64.4014583, "lon": 18.402982, "tags": {"name": "Hornmyr", "place": "village", "ref:se:pts:postort": "HORNMYR"}}, {"type": "node", "id": 2670309676, "lat": 64.7112091, "lon": 18.3432835, "tags": {"name": "Stenkulla", "place": "hamlet"}}, {"type": "node", "id": 2671232863, "lat": 64.6835373, "lon": 17.8294068, "tags": {"name": "Bj\u00f6rkberg", "name:sma": "Tjaerhvie\u00e5ejjie", "name:sv": "Bj\u00f6rkberg", "place": "hamlet"}}, {"type": "node", "id": 2952524738, "lat": 64.5260295, "lon": 18.3857469, "tags": {"name": "Bratten", "place": "hamlet"}}, {"type": "node", "id": 3408941693, "lat": 64.6493534, "lon": 17.861479, "tags": {"name": "Vinliden", "place": "hamlet"}}, {"type": "node", "id": 3408996187, "lat": 64.4510316, "lon": 17.760073, "tags": {"name": "Sandsj\u00f6", "place": "hamlet"}}, {"type": "node", "id": 3408997010, "lat": 64.3561145, "lon": 17.9166281, "tags": {"name": "Lill\u00f6gda", "place": "hamlet"}}, {"type": "node", "id": 8097574228, "lat": 64.454547, "lon": 18.3149286, "tags": {"name": "Ytterfors", "place": "hamlet"}}, {"type": "node", "id": 8097574579, "lat": 64.5019705, "lon": 18.2659468, "tags": {"name": "V\u00e4gsele", "place": "hamlet"}}, {"type": "node", "id": 8100541221, "lat": 64.4543549, "lon": 18.1341318, "tags": {"name": "Ledningsmark", "place": "hamlet"}}, {"type": "node", "id": 8100541349, "lat": 64.4886183, "lon": 17.9533913, "tags": {"name": "Myrtr\u00e4sk", "place": "hamlet"}}, {"type": "node", "id": 8100541350, "lat": 64.5080835, "lon": 17.9925516, "tags": {"name": "Kroksj\u00f6", "place": "hamlet", "wikidata": "Q2035440"}}, {"type": "node", "id": 8100594245, "lat": 64.3425743, "lon": 17.7825458, "tags": {"name": "Siksj\u00f6", "place": "hamlet"}}, {"type": "node", "id": 8108703046, "lat": 64.3735863, "lon": 18.1828672, "tags": {"name": "Alskaliden", "place": "hamlet"}}, {"type": "node", "id": 8108703131, "lat": 64.442899, "lon": 18.007391, "tags": {"name": "Ledningsvall", "place": "hamlet"}}, {"type": "node", "id": 8453605948, "lat": 64.3337674, "lon": 18.3733147, "tags": {"name": "Grantr\u00e4skliden", "place": "hamlet"}}, {"type": "node", "id": 8463385948, "lat": 64.6269852, "lon": 18.0774021, "tags": {"name": "\u00d6ravan", "place": "hamlet"}}, {"type": "node", "id": 8463709837, "lat": 64.6157009, "lon": 18.4760642, "tags": {"name": "Holmlund", "place": "hamlet"}}, {"type": "node", "id": 8463709839, "lat": 64.5839286, "lon": 18.5710788, "tags": {"name": "Tanntr\u00e4sk", "place": "hamlet"}}, {"type": "node", "id": 8495176535, "lat": 64.613345, "lon": 18.1851935, "tags": {"name": "Talltr\u00e4sk", "place": "hamlet"}}, {"type": "node", "id": 8495176536, "lat": 64.6164829, "lon": 18.3377391, "tags": {"alt_name": "Mietskejaevrie", "name": "B\u00e4vertr\u00e4sk", "place": "hamlet"}}, {"type": "node", "id": 8528894403, "lat": 64.6010661, "lon": 17.9696127, "tags": {"name": "F\u00e4boliden", "place": "hamlet"}}, {"type": "node", "id": 8531405311, "lat": 64.562163, "lon": 18.1322655, "tags": {"name": "Svanamyran", "place": "hamlet"}}, {"type": "node", "id": 8998135064, "lat": 64.3459215, "lon": 17.936415, "tags": {"name": "L\u00f6gdaberg", "place": "hamlet"}}, {"type": "node", "id": 8998626812, "lat": 64.569114, "lon": 17.9148985, "tags": {"name": "Bjurtr\u00e4sk", "place": "hamlet"}}]}