{"version": 0.6, "generator": "Overpass API 0.7.61.5 4133829e", "osm3s": {"timestamp_osm_base": "2024-03-06T11:18:45Z", "copyright": "The data included in this document is from www.openstreetmap.org. The data is made available under ODbL."}, "elements": [{"type": "node", "id": 567056362, "lat": 35.6568283, "lon": 40.7513733, "tags": {"alt_name": "\u0634\u064a\u062a\u062d \u0627\u0644\u0634\u064a\u062e \u0623\u062d\u0645\u062f", "int_name": "Chaitah Cheikh Ahmed, Cha\u00eftah Che\u00efkh Ahmed, Shayta\u1e29 ash Shaykh A\u1e29mad", "is_in": "Syria, \u0627\u0644\u062c\u0645\u0647\u0648\u0631\u064a\u0629 \u0627\u0644\u0639\u0631\u0628\u064a\u0629 \u0627\u0644\u0633\u0648\u0631\u064a\u0629 \u060c \u0633\u0648\u0631\u064a\u0627", "name": "\u0634\u064a\u062a\u062d \u0627\u0644\u0634\u064a\u062e \u0623\u062d\u0645\u062f", "name:ar": "\u0634\u064a\u062a\u062d \u0627\u0644\u0634\u064a\u062e \u0623\u062d\u0645\u062f", "name:ar1": "\u0634\u064a\u062a\u062d \u0627\u0644\u0634\u064a\u062e \u0623\u062d\u0645\u062f", "name:de": "Shaytah ash Shaykh Ahmad", "name:en": "Shaytah ash Shaykh Ahmad", "name:fr": "Shaytah ash Shaykh Ahmad", "place": "village"}}, {"type": "node", "id": 567056367, "lat": 35.6628257, "lon": 40.7228131, "tags": {"alt_name": "\u0627\u0644\u0633\u0639\u062f\u0629", "int_name": "Es Saada, As Sa`dah", "is_in": "Syria, \u0627\u0644\u062c\u0645\u0647\u0648\u0631\u064a\u0629 \u0627\u0644\u0639\u0631\u0628\u064a\u0629 \u0627\u0644\u0633\u0648\u0631\u064a\u0629 \u060c \u0633\u0648\u0631\u064a\u0627", "name": "\u0627\u0644\u0633\u0639\u062f\u0629", "name:ar": "\u0627\u0644\u0633\u0639\u062f\u0629", "name:ar1": "\u0627\u0644\u0633\u0639\u062f\u0629", "name:de": "As Sa`dah", "name:en": "As Sa`dah", "name:fr": "As Sa`dah", "place": "village"}}, {"type": "node", "id": 567056369, "lat": 35.6431059, "lon": 40.7510943, "tags": {"alt_name": "\u0627\u0644\u0634\u064a\u062e \u0623\u062d\u0645\u062f", "int_name": "Cheikh Ahmed, Che\u00efkh Ahmed, Ash Shaykh A\u1e29mad", "is_in": "Syria, \u0627\u0644\u062c\u0645\u0647\u0648\u0631\u064a\u0629 \u0627\u0644\u0639\u0631\u0628\u064a\u0629 \u0627\u0644\u0633\u0648\u0631\u064a\u0629 \u060c \u0633\u0648\u0631\u064a\u0627", "name": "\u0627\u0644\u0634\u064a\u062e \u0623\u062d\u0645\u062f", "name:ar": "\u0627\u0644\u0634\u064a\u062e \u0623\u062d\u0645\u062f", "name:ar1": "\u0627\u0644\u0634\u064a\u062e \u0623\u062d\u0645\u062f", "name:de": "Ash Shaykh Ahmad", "name:en": "Ash Shaykh Ahmad", "name:fr": "Ash Shaykh Ahmad", "place": "village"}}, {"type": "node", "id": 567056377, "lat": 35.5794242, "lon": 40.7196004, "tags": {"alt_name": "\u0645\u0639\u064a\u062c\u0644", "int_name": "Moueijel, Moue\u00efjel, Mu`ayjil", "is_in": "Syria, \u0627\u0644\u062c\u0645\u0647\u0648\u0631\u064a\u0629 \u0627\u0644\u0639\u0631\u0628\u064a\u0629 \u0627\u0644\u0633\u0648\u0631\u064a\u0629 \u060c \u0633\u0648\u0631\u064a\u0627", "name": "\u0645\u0639\u064a\u062c\u0644", "name:ar": "\u0645\u0639\u064a\u062c\u0644", "name:ar1": "\u0645\u0639\u064a\u062c\u0644", "name:de": "Mu`ayjil", "name:en": "Mu`ayjil", "name:fr": "Mu`ayjil", "place": "village"}}, {"type": "node", "id": 4020270834, "lat": 35.7381266, "lon": 40.7461047, "tags": {"int_name": "Murayqib", "name": "\u0645\u0631\u064a\u0642\u0628", "name:en": "Murayqib", "name:ru": "\u041c\u0440\u0435\u043a\u0435\u0431", "place": "village"}}, {"type": "node", "id": 4040541844, "lat": 35.7044287, "lon": 40.7548494, "tags": {"int_name": "A\u015f \u015eaf\u0101", "name": "\u0627\u0644\u0635\u0641\u0627", "name:en": "A\u015f \u015eaf\u0101", "place": "village"}}, {"type": "node", "id": 4040541845, "lat": 35.6960819, "lon": 40.7465453, "tags": {"int_name": "Mazra\u2018at al \u2018Ushaytah", "name": "\u0645\u0632\u0631\u0639\u0629 \u0627\u0644\u0639\u0634\u064a\u062a\u0629", "name:en": "Mazra\u2018at al \u2018Ushaytah", "place": "village"}}, {"type": "node", "id": 4040550298, "lat": 35.6846843, "lon": 40.7445712, "tags": {"int_name": "\u1e28aw\u012bjat al Quwaylah", "name": "\u062d\u0648\u064a\u062c\u0629 \u0627\u0644\u0642\u0648\u064a\u0644\u0629", "name:en": "\u1e28aw\u012bjat al Quwaylah", "place": "village"}}, {"type": "node", "id": 4040550299, "lat": 35.6792812, "lon": 40.7443781, "tags": {"int_name": "Mazra\u2018at Ghuwayl\u012byah", "name": "\u0645\u0632\u0631\u0639\u0629 \u063a\u0648\u064a\u0644\u064a\u0629", "place": "village"}}, {"type": "node", "id": 4040550300, "lat": 35.6731979, "lon": 40.7477254, "tags": {"int_name": "Mazra\u2018at Bin\u0101\u1e11", "name": "\u0645\u0632\u0631\u0639\u0629 \u0628\u0646\u0627\u0636", "name:en": "Mazra\u2018at Bin\u0101\u1e11", "place": "village"}}, {"type": "node", "id": 4040556048, "lat": 35.6744878, "lon": 40.717792, "tags": {"int_name": "Al Mafr\u016bdah", "name": "\u0627\u0644\u0645\u0641\u0631\u0648\u062f\u0629", "name:en": "Al Mafr\u016bdah", "place": "village"}}, {"type": "node", "id": 4040557279, "lat": 35.6881526, "lon": 40.7190151, "tags": {"int_name": "Kabbar", "name": "\u0643\u0628\u0627\u0631", "name:en": "Kabbar", "place": "village"}}, {"type": "node", "id": 4040569986, "lat": 35.7237152, "lon": 40.7315249, "tags": {"int_name": "Bul\u016bk\u012b", "name": "\u0628\u0644\u0648\u0643\u064a", "name:en": "Bul\u016bk\u012b", "place": "village"}}, {"type": "node", "id": 4040569987, "lat": 35.71098, "lon": 40.7281131, "tags": {"int_name": "Al Jann\u0101", "name": "\u0627\u0644\u062c\u0646\u0627", "name:en": "Al Jann\u0101", "place": "village"}}, {"type": "node", "id": 4040570124, "lat": 35.7039582, "lon": 40.7252163, "tags": {"int_name": "Al \u2018Ushaytah", "name": "\u0627\u0644\u0639\u0634\u064a\u062a\u0629", "name:en": "Al \u2018Ushaytah", "place": "village"}}, {"type": "node", "id": 4569220895, "lat": 35.6200187, "lon": 40.7460872, "tags": {"name": "Guraybah", "name:en": "Guraybah", "place": "village"}}, {"type": "node", "id": 4569220896, "lat": 35.7140502, "lon": 40.7682745, "tags": {"name": "Al Kaw\u0101sh\u012br", "name:en": "Al Kaw\u0101sh\u012br", "place": "village"}}]}