{"version": 0.6, "generator": "Overpass API 0.7.61.5 4133829e", "osm3s": {"timestamp_osm_base": "2024-03-05T14:50:30Z", "copyright": "The data included in this document is from www.openstreetmap.org. The data is made available under ODbL."}, "elements": [{"type": "node", "id": 1680808430, "lat": 55.4305938, "lon": 13.8272952, "tags": {"amenity": "bank", "name": "Sparbanken Sk\u00e5ne", "wheelchair": "yes"}}, {"type": "node", "id": 1680808645, "lat": 55.4292736, "lon": 13.820448, "tags": {"amenity": "bank", "name": "Sparbanken Syd", "toilets:wheelchair": "yes", "wheelchair": "yes"}}, {"type": "node", "id": 2489401124, "lat": 55.4375501, "lon": 13.3189516}, {"type": "node", "id": 2489401131, "lat": 55.4375782, "lon": 13.318851}, {"type": "node", "id": 2489401157, "lat": 55.4376842, "lon": 13.3189429}, {"type": "node", "id": 2489401171, "lat": 55.4377348, "lon": 13.3187616}, {"type": "node", "id": 2489401172, "lat": 55.4377364, "lon": 13.3191131}, {"type": "node", "id": 2489401192, "lat": 55.437815, "lon": 13.3188312}, {"type": "node", "id": 4311098758, "lat": 55.5443111, "lon": 13.952921, "tags": {"amenity": "bank", "name": "Sparbanken Syd"}}, {"type": "node", "id": 8996121017, "lat": 55.4303975, "lon": 13.8267442, "tags": {"amenity": "bank", "name": "Forex Bank"}}, {"type": "node", "id": 8996249118, "lat": 55.4289702, "lon": 13.8193864, "tags": {"amenity": "bank", "name": "Nordea", "opening_hours": "Mo-Fr 10:00-13:00"}}, {"type": "node", "id": 8996353617, "lat": 55.4290331, "lon": 13.8211978, "tags": {"amenity": "bank", "name": "Handelsbanken"}}, {"type": "way", "id": 241249330, "nodes": [2489401192, 2489401172, 2489401124, 2489401131, 2489401157, 2489401171, 2489401192], "tags": {"amenity": "bank", "building": "yes", "name": "Swedbank Andersl\u00f6v", "old_name": "Wemmenh\u00f6gs h\u00e4rads sparbank"}}]}