{"version": 0.6, "generator": "Overpass API 0.7.61.5 4133829e", "osm3s": {"timestamp_osm_base": "2024-03-05T14:50:30Z", "copyright": "The data included in this document is from www.openstreetmap.org. The data is made available under ODbL."}, "elements": [{"type": "node", "id": 497186587, "lat": 56.2552465, "lon": 14.0773078, "tags": {"addr:country": "SE", "addr:housenumber": "2", "addr:street": "Torggatan", "amenity": "bank", "atm": "yes", "contact:phone": "+4644182600", "name": "Sparbanken Sk\u00e5ne", "opening_hours": "Mo,Th 10:00-18:00; Tu-Fr 10:00-13:00"}}, {"type": "node", "id": 1149610291, "lat": 56.0437561, "lon": 14.1513834}, {"type": "node", "id": 1149657126, "lat": 56.0292314, "lon": 14.1560529, "tags": {"amenity": "bank", "name": "Sparbanken Syd", "opening_hours": "Mo,We,Fr 10:00-13:00; Th 10:00-18:00"}}, {"type": "node", "id": 1669543749, "lat": 56.046629, "lon": 14.6794201, "tags": {"addr:country": "SE", "addr:housenumber": "2", "addr:postcode": "29471", "addr:street": "Centrumv\u00e4gen", "amenity": "bank", "atm": "yes", "name": "S\u00f6lvesborg Mj\u00e4llby Sparbank"}}, {"type": "node", "id": 2295517599, "lat": 56.0525737, "lon": 14.5832423, "tags": {"amenity": "bank", "atm": "no", "brand": "Handelsbanken", "brand:wikidata": "Q1421630", "brand:wikipedia": "sv:Handelsbanken", "drive_through": "no", "name": "Handelsbanken", "wheelchair": "limited"}}, {"type": "node", "id": 2295517601, "lat": 56.0525047, "lon": 14.5875768, "tags": {"amenity": "bank", "atm": "yes", "brand": "SEB", "brand:wikidata": "Q975655", "brand:wikipedia": "sv:Skandinaviska Enskilda Banken", "name": "SEB"}}, {"type": "node", "id": 2295517623, "lat": 56.0515558, "lon": 14.5839144, "tags": {"amenity": "bank", "atm": "yes", "name": "S\u00f6lvesborg-Mj\u00e4llby Sparbank"}}, {"type": "node", "id": 3494175151, "lat": 56.0276182, "lon": 14.1586518, "tags": {"amenity": "bank", "brand": "Nordea", "brand:wikidata": "Q1123823", "brand:wikipedia": "sv:Nordea", "name": "Nordea"}}, {"type": "node", "id": 3499825387, "lat": 56.0436976, "lon": 14.1515207}, {"type": "node", "id": 3499825388, "lat": 56.043704, "lon": 14.1518703}, {"type": "node", "id": 3499825389, "lat": 56.0437052, "lon": 14.1519667}, {"type": "node", "id": 3499825391, "lat": 56.0437625, "lon": 14.1518679}, {"type": "node", "id": 3499826673, "lat": 56.0436247, "lon": 14.1515237}, {"type": "node", "id": 3499826674, "lat": 56.0436305, "lon": 14.1519698}, {"type": "node", "id": 3499826676, "lat": 56.0436959, "lon": 14.151386}, {"type": "node", "id": 4012873799, "lat": 56.2780396, "lon": 14.524058, "tags": {"amenity": "bank", "atm": "yes", "name": "Sparbanken 1826"}}, {"type": "node", "id": 4333952491, "lat": 56.0736585, "lon": 14.4672745, "tags": {"addr:city": "Brom\u00f6lla", "addr:street": "Storgatan", "amenity": "bank", "atm": "yes", "drive_through": "no", "name": "Ivetofta Sparbank", "website": "https://www.ivetoftasparbank.se/"}}, {"type": "node", "id": 4595524003, "lat": 56.3559413, "lon": 14.5873308, "tags": {"amenity": "bank", "name": "Kyrkhults sparbank"}}, {"type": "node", "id": 9020764020, "lat": 56.0298363, "lon": 14.158181, "tags": {"amenity": "bank", "name": "Sparbanken Sk\u00e5ne", "opening_hours": "Mo-We,Fr 10:00-15:00; Th 10:00-18:00"}}, {"type": "node", "id": 10579058836, "lat": 56.0285194, "lon": 14.15695, "tags": {"amenity": "bank", "name": "L\u00e4nsf\u00f6rs\u00e4kringar", "opening_hours": "Mo-Fr 10:00-15:00; PH: off", "phone": "+46 44 19 62 00", "website": "https://lansforsakringar.se"}}, {"type": "way", "id": 343060203, "nodes": [1149610291, 3499825391, 3499825388, 3499825389, 3499826674, 3499826673, 3499825387, 3499826676, 1149610291], "tags": {"amenity": "bank", "atm": "yes", "building": "commercial", "name": "Sparbanken Sk\u00e5ne N\u00e4sby", "opening_hours": "Mo-We 10:00-15:00; Th 10:00-18:00; Fr 10:00-13:00"}}]}