{"version": 0.6, "generator": "Overpass API 0.7.61.5 4133829e", "osm3s": {"timestamp_osm_base": "2024-03-06T11:03:20Z", "copyright": "The data included in this document is from www.openstreetmap.org. The data is made available under ODbL."}, "elements": [{"type": "node", "id": 3783508565, "lat": -2.7504619, "lon": 36.6712359}, {"type": "node", "id": 3783508570, "lat": -2.7504621, "lon": 36.6711484}, {"type": "node", "id": 3783508578, "lat": -2.750564, "lon": 36.6711485}, {"type": "node", "id": 3783508587, "lat": -2.7506072, "lon": 36.6712361}, {"type": "node", "id": 4139098710, "lat": -3.1642883, "lon": 36.9983502}, {"type": "node", "id": 4139098711, "lat": -3.1647926, "lon": 36.9980889}, {"type": "node", "id": 4139098712, "lat": -3.1647505, "lon": 36.9980074}, {"type": "node", "id": 4139098713, "lat": -3.1648854, "lon": 36.9979375}, {"type": "node", "id": 4139098714, "lat": -3.1653449, "lon": 36.9988266}, {"type": "node", "id": 4139098715, "lat": -3.1647057, "lon": 36.9991579}, {"type": "node", "id": 4935165428, "lat": -2.7823826, "lon": 36.956189, "tags": {"amenity": "school", "name": "Pre-School Sinya", "name:en": "Pre-School Sinya"}}, {"type": "node", "id": 4935165622, "lat": -3.1108574, "lon": 36.920848, "tags": {"amenity": "school", "name": "Maasai Vision English Medium Academy - Africa Amini Ngabobo Government School", "name:en": "Maasai Vision English Medium Academy - Africa Amini Ngabobo Government School"}}, {"type": "node", "id": 6640898344, "lat": -2.7505639, "lon": 36.6711688}, {"type": "node", "id": 6640898345, "lat": -2.7506073, "lon": 36.6711689}, {"type": "node", "id": 10804641970, "lat": -3.1483976, "lon": 36.9711884, "tags": {"addr:city": "Kilimanjaro", "addr:district": "Siha District Council", "addr:subward": "Mawasiliano", "addr:ward": "Gararagua", "amenity": "school", "isced:level": "1", "name": "Shule ya Msingi Mawasiliano", "name:en": "Mawasiliano Primary School", "name:sw": "Shule ya Msingi Mawasiliano", "operator:type": "government", "source": "WFP Primary Schools Feeding Program Survey, 2023 by OMDTZ"}}, {"type": "node", "id": 10804642002, "lat": -3.0430046, "lon": 37.0012027, "tags": {"addr:city": "Kilimanjaro", "addr:district": "Siha District Council", "addr:subward": "Mitimirefu", "addr:ward": "Miti Mirefu", "amenity": "school", "isced:level": "1", "name": "Shule ya Msingi Olmolog Vety", "name:en": "Olmolog Vety Primary School", "name:sw": "Shule ya Msingi Olmolog Vety", "operator:type": "government", "source": "WFP Primary Schools Feeding Program Survey, 2023 by OMDTZ"}}, {"type": "node", "id": 10804642011, "lat": -3.1636347, "lon": 37.0002639, "tags": {"addr:city": "Kilimanjaro", "addr:district": "Siha District Council", "addr:subward": "Magadini", "addr:ward": "Gararagua", "amenity": "school", "isced:level": "1", "name": "Shule ya Msingi Magadini", "name:en": "Magadini Primary School", "name:sw": "Shule ya Msingi Magadini", "operator:type": "government", "source": "WFP Primary Schools Feeding Program Survey, 2023 by OMDTZ"}}, {"type": "node", "id": 10837136422, "lat": -2.9781854, "lon": 36.9561245, "tags": {"addr:city": "Arusha", "addr:district": "Longido District Council", "addr:subward": "Tingtinga", "addr:ward": "Tingatinga", "amenity": "school", "isced:level": "1", "name": "Shule ya Msingi Tinga Tinga", "name:en": "Tinga Tinga Primary School", "name:sw": "Shule ya Msingi Tinga Tinga", "operator:type": "government", "source": "WFP Primary Schools Feeding Program Survey, 2023 by OMDTZ"}}, {"type": "node", "id": 10837136425, "lat": -2.7836399, "lon": 36.9550019, "tags": {"addr:city": "Arusha", "addr:district": "Longido District Council", "addr:subward": "Sinya", "addr:ward": "Sinya", "amenity": "school", "isced:level": "1", "name": "Shule ya Msingi Sinya", "name:en": "Sinya Primary School", "name:sw": "Shule ya Msingi Sinya", "operator:type": "government", "source": "WFP Primary Schools Feeding Program Survey, 2023 by OMDTZ"}}, {"type": "node", "id": 10837136427, "lat": -2.7947833, "lon": 36.6722236, "tags": {"addr:city": "Arusha", "addr:district": "Longido District Council", "addr:subward": "Ranch", "addr:ward": "Orbomba", "amenity": "school", "isced:level": "1", "name": "Shule ya Msingi Ranchi", "name:en": "Ranchi Primary School", "name:sw": "Shule ya Msingi Ranchi", "operator:type": "government", "source": "WFP Primary Schools Feeding Program Survey, 2023 by OMDTZ"}}, {"type": "node", "id": 10837136430, "lat": -2.7367054, "lon": 36.7190668, "tags": {"addr:city": "Arusha", "addr:district": "Longido District Council", "addr:subward": "Oltepes", "addr:ward": "Orbomba", "amenity": "school", "isced:level": "1", "name": "Shule ya Msingi Oltepes", "name:en": "Oltepes Primary School", "name:sw": "Shule ya Msingi Oltepes", "operator:type": "government", "source": "WFP Primary Schools Feeding Program Survey, 2023 by OMDTZ"}}, {"type": "node", "id": 10837136436, "lat": -2.9811396, "lon": 36.8543852, "tags": {"addr:city": "Arusha", "addr:district": "Longido District Council", "addr:subward": "Tingatinga", "addr:ward": "Tingatinga", "amenity": "school", "isced:level": "1", "name": "Shule ya Msingi Ngereyani", "name:en": "Ngereyani Primary School", "name:sw": "Shule ya Msingi Ngereyani", "operator:type": "government", "source": "WFP Primary Schools Feeding Program Survey, 2023 by OMDTZ"}}, {"type": "node", "id": 10837136438, "lat": -2.7611998, "lon": 36.6188083, "tags": {"addr:city": "Arusha", "addr:district": "Longido District Council", "addr:subward": "Orbomba", "addr:ward": "Orbomba", "amenity": "school", "isced:level": "1", "name": "Shule ya Msingi Naiborsoit", "name:en": "Naiborsoit Primary School", "name:sw": "Shule ya Msingi Naiborsoit", "operator:type": "government", "source": "WFP Primary Schools Feeding Program Survey, 2023 by OMDTZ"}}, {"type": "node", "id": 10837136465, "lat": -2.980794, "lon": 36.8552755, "tags": {"addr:city": "Arusha", "addr:district": "Longido District Council", "addr:subward": "Ongongosunyai", "addr:ward": "Tingatinga", "amenity": "school", "isced:level": "1", "name": "Shule ya Msingi Engongosunyai", "name:en": "Engongosunyai Primary School", "name:sw": "Shule ya Msingi Engongosunyai", "operator:type": "government", "source": "WFP Primary Schools Feeding Program Survey, 2023 by OMDTZ"}}, {"type": "node", "id": 10837136466, "lat": -3.0494977, "lon": 36.8675583, "tags": {"addr:city": "Arusha", "addr:district": "Longido District Council", "addr:subward": "Tingatinga", "addr:ward": "Tingatinga", "amenity": "school", "isced:level": "1", "name": "Shule ya Msingi Engongosunyai", "name:en": "Engongosunyai Primary School", "name:sw": "Shule ya Msingi Engongosunyai", "operator:type": "government", "source": "WFP Primary Schools Feeding Program Survey, 2023 by OMDTZ"}}, {"type": "node", "id": 10837349475, "lat": -3.1067215, "lon": 36.8991802, "tags": {"addr:city": "Arusha", "addr:district": "Arumeru District Council", "addr:subward": "Kimosoni", "addr:ward": "Ngabobo", "amenity": "school", "isced:level": "1", "name": "Shule ya Awali Ngabobo Pekee", "name:en": "Shule ya Awali Ngabobo Pekee Primary School", "name:sw": "Shule ya Awali Ngabobo Pekee", "operator:type": "government", "source": "WFP Primary Schools Feeding Program Survey, 2023 by OMDTZ"}}, {"type": "node", "id": 10837349503, "lat": -3.0864743, "lon": 36.9059695, "tags": {"addr:city": "Arusha", "addr:district": "Arumeru District Council", "addr:subward": "Oltepes", "addr:ward": "Ngabobo", "amenity": "school", "isced:level": "1", "name": "Shule ya Msingi Oltepes", "name:en": "Oltepes Primary School", "name:sw": "Shule ya Msingi Oltepes", "operator:type": "government", "source": "WFP Primary Schools Feeding Program Survey, 2023 by OMDTZ"}}, {"type": "node", "id": 10837349525, "lat": -3.1107807, "lon": 36.8945821, "tags": {"addr:city": "Arusha", "addr:district": "Arumeru District Council", "addr:subward": "Madukani", "addr:ward": "Ngabobo", "amenity": "school", "isced:level": "1", "name": "Shule ya Msingi Ngabobo", "name:en": "Ngabobo Primary School", "name:sw": "Shule ya Msingi Ngabobo", "operator:type": "government", "source": "WFP Primary Schools Feeding Program Survey, 2023 by OMDTZ"}}, {"type": "node", "id": 10837349546, "lat": -3.1109799, "lon": 36.9215644, "tags": {"addr:city": "Arusha", "addr:district": "Arumeru District Council", "addr:subward": "Kilimasimba", "addr:ward": "Ngabobo", "amenity": "school", "isced:level": "1", "name": "Shule ya Msingi Masai Vision", "name:en": "Masai Vision Primary School", "name:sw": "Shule ya Msingi Masai Vision", "operator:type": "government", "source": "WFP Primary Schools Feeding Program Survey, 2023 by OMDTZ"}}, {"type": "way", "id": 374968778, "nodes": [3783508570, 3783508565, 3783508587, 6640898345, 6640898344, 3783508578, 3783508570], "tags": {"amenity": "school", "building": "yes", "name": "Orbomba nursery school"}}, {"type": "way", "id": 412495981, "nodes": [4139098710, 4139098711, 4139098712, 4139098713, 4139098714, 4139098715, 4139098710], "tags": {"amenity": "school", "name": "MAGADINI SECONDARY SCHOOL"}}]}