{"version": 0.6, "generator": "Overpass API 0.7.61.5 4133829e", "osm3s": {"timestamp_osm_base": "2024-03-05T14:55:42Z", "copyright": "The data included in this document is from www.openstreetmap.org. The data is made available under ODbL."}, "elements": [{"type": "node", "id": 1899002230, "lat": 62.579425, "lon": 17.0969569, "tags": {"amenity": "doctors", "name": "Distriktssk\u00f6teska", "wheelchair": "limited"}}, {"type": "node", "id": 8812762381, "lat": 62.7002731, "lon": 16.8027272}, {"type": "node", "id": 8812762382, "lat": 62.7002739, "lon": 16.8028519}, {"type": "node", "id": 8812762383, "lat": 62.7001673, "lon": 16.8028551}, {"type": "node", "id": 8812762384, "lat": 62.7001686, "lon": 16.8030678}, {"type": "node", "id": 8812762385, "lat": 62.7004087, "lon": 16.8030606}, {"type": "node", "id": 8812762386, "lat": 62.7004091, "lon": 16.8031313}, {"type": "node", "id": 8812762387, "lat": 62.7005191, "lon": 16.803128}, {"type": "node", "id": 8812762388, "lat": 62.7005181, "lon": 16.802959}, {"type": "node", "id": 8812762389, "lat": 62.7005959, "lon": 16.8029566}, {"type": "node", "id": 8812762390, "lat": 62.7005943, "lon": 16.8027176}, {"type": "way", "id": 952123738, "nodes": [8812762390, 8812762389, 8812762388, 8812762387, 8812762386, 8812762385, 8812762384, 8812762383, 8812762382, 8812762381, 8812762390], "tags": {"addr:city": "Liden", "addr:country": "SE", "addr:housenumber": "18", "addr:postcode": "85599", "addr:street": "Hus\u00e5sv\u00e4gen", "amenity": "clinic", "building": "yes", "name": "H\u00e4lsocentralen Liden", "operator": "Region V\u00e4sternorrland"}}]}