{"version": 0.6, "generator": "Overpass API 0.7.61.5 4133829e", "osm3s": {"timestamp_osm_base": "2024-03-05T11:04:15Z", "copyright": "The data included in this document is from www.openstreetmap.org. The data is made available under ODbL."}, "elements": [{"type": "node", "id": 132021012, "lat": 4.887401, "lon": -1.7519316, "tags": {"name": "Takoradi", "name:ar": "\u062a\u0627\u0643\u0648\u0631\u0627\u062f\u064a", "name:en": "Takoradi", "name:ru": "\u0422\u0430\u043a\u043e\u0440\u0430\u0434\u0438", "name:uk": "\u0422\u0430\u043a\u043e\u0440\u0430\u0434\u0456", "place": "town", "population": "539548", "wikidata": "Q2022168"}}, {"type": "node", "id": 132021927, "lat": 4.937, "lon": -1.7127928, "tags": {"name": "Sekondi", "name:en": "Sekondi", "name:ru": "\u0421\u0435\u043a\u043e\u043d\u0434\u0438", "name:uk": "\u0421\u0435\u043a\u043e\u043d\u0434\u0456", "place": "town", "population": "150000"}}, {"type": "node", "id": 936564954, "lat": 4.794787, "lon": -1.9464, "tags": {"name": "Dixcove", "place": "town", "source": "PGS", "wikidata": "Q1231673"}}, {"type": "node", "id": 1820144498, "lat": 4.7699061, "lon": -1.9745742, "tags": {"place": "village"}}, {"type": "node", "id": 1820144503, "lat": 4.7868839, "lon": -1.9779347, "tags": {"place": "village"}}, {"type": "node", "id": 1820144506, "lat": 4.8025902, "lon": -2.0050413, "tags": {"place": "village"}}, {"type": "node", "id": 1820144535, "lat": 4.8153116, "lon": -1.9743475, "tags": {"place": "village"}}, {"type": "node", "id": 1820144548, "lat": 4.8272105, "lon": -1.9623246, "tags": {"place": "village"}}, {"type": "node", "id": 1820144549, "lat": 4.833543, "lon": -1.9854256, "tags": {"place": "village"}}, {"type": "node", "id": 1820144556, "lat": 4.834062, "lon": -1.9989924, "tags": {"place": "village"}}, {"type": "node", "id": 1820144560, "lat": 4.8346713, "lon": -1.9285717, "tags": {"place": "village"}}, {"type": "node", "id": 1820144564, "lat": 4.8363959, "lon": -2.0044208, "tags": {"place": "village"}}, {"type": "node", "id": 1820144569, "lat": 4.8414085, "lon": -1.9259811, "tags": {"place": "village"}}, {"type": "node", "id": 1820144573, "lat": 4.8506391, "lon": -2.003024, "tags": {"place": "village"}}, {"type": "node", "id": 1820144580, "lat": 4.8634331, "lon": -1.9237794, "tags": {"place": "village"}}, {"type": "node", "id": 1820144582, "lat": 4.865159, "lon": -1.9181853, "tags": {"place": "village"}}, {"type": "node", "id": 1820144585, "lat": 4.869172, "lon": -1.9210695, "tags": {"place": "village"}}, {"type": "node", "id": 1820144591, "lat": 4.8693793, "lon": -1.8149447, "tags": {"name": "Ajua", "place": "village"}}, {"type": "node", "id": 1820144595, "lat": 4.8757829, "lon": -1.7869899, "tags": {"name": "Amaful", "place": "village"}}, {"type": "node", "id": 1820144624, "lat": 4.9043898, "lon": -1.941572, "tags": {"place": "village"}}, {"type": "node", "id": 1820144632, "lat": 4.9272147, "lon": -1.9440041, "tags": {"place": "village"}}, {"type": "node", "id": 1820144648, "lat": 4.9616177, "lon": -1.7512797, "tags": {"place": "village"}}, {"type": "node", "id": 1830247412, "lat": 4.7862235, "lon": -2.0016599, "tags": {"place": "village", "source": "Microsoft Bing satellite imagery 2012"}}, {"type": "node", "id": 1830247413, "lat": 4.8008959, "lon": -1.9967587, "tags": {"place": "village"}}, {"type": "node", "id": 1830247415, "lat": 4.9029406, "lon": -1.9885842, "tags": {"place": "village"}}, {"type": "node", "id": 1884449644, "lat": 4.828313, "lon": -1.9052351, "tags": {"place": "hamlet", "source": "Microsoft Bing satellite imagery 2012"}}, {"type": "node", "id": 1884449825, "lat": 4.836712, "lon": -1.9548868, "tags": {"place": "hamlet", "source": "Microsoft Bing satellite imagery 2012"}}, {"type": "node", "id": 1884506175, "lat": 4.8532462, "lon": -1.8381397, "tags": {"place": "hamlet", "source": "Microsoft Bing satellite imagery 2012"}}, {"type": "node", "id": 1884506669, "lat": 4.8585962, "lon": -1.9510098, "tags": {"place": "hamlet", "source": "Microsoft Bing satellite imagery 2012"}}, {"type": "node", "id": 2145887322, "lat": 4.972723, "lon": -1.650084, "tags": {"name": "Aboadze", "place": "town", "wikidata": "Q4668197"}}, {"type": "node", "id": 2145887397, "lat": 4.8949173, "lon": -1.8175408, "tags": {"name": "Apowa", "place": "village", "wikidata": "Q4780772"}}, {"type": "node", "id": 2145887420, "lat": 4.830177, "lon": -1.8905021, "tags": {"name": "Asemko", "place": "village", "source": "Microsoft Bing satellite imagery 2012"}}, {"type": "node", "id": 2145887474, "lat": 4.8229415, "lon": -1.9169347, "tags": {"name": "Butre", "place": "village", "source": "Microsoft Bing satellite imagery 2012", "wikidata": "Q5002741", "wikipedia": "en:Butre, Ghana"}}, {"type": "node", "id": 2145887498, "lat": 4.8729749, "lon": -1.8559714, "tags": {"name": "Eian", "place": "village", "source": "Microsoft Bing satellite imagery 2012"}}, {"type": "node", "id": 2145887569, "lat": 4.8429433, "lon": -1.8744584, "tags": {"name": "Mpatano", "place": "village"}}, {"type": "node", "id": 2145887855, "lat": 4.8535842, "lon": -1.892172, "tags": {"name": "Asemasa", "place": "village"}}, {"type": "node", "id": 2145887868, "lat": 4.8549864, "lon": -1.8781862, "tags": {"name": "Kanfakrom", "place": "village"}}, {"type": "node", "id": 2145889064, "lat": 4.903789, "lon": -1.8511581, "tags": {"name": "Yabu", "place": "village"}}, {"type": "node", "id": 3517909432, "lat": 4.8066603, "lon": -1.9388814, "tags": {"name": "Busua", "place": "town", "source": "Microsoft Bing satellite imagery 2012", "wikidata": "Q1017789", "wikipedia": "en:Busua"}}, {"type": "node", "id": 3675034321, "lat": 4.8797335, "lon": -1.9102035, "tags": {"place": "village", "source": "Microsoft Bing orbital imagery"}}, {"type": "node", "id": 3675034451, "lat": 4.8901537, "lon": -1.9664135, "tags": {"capital": "6", "name": "Agona", "place": "town", "source": "Microsoft Bing orbital imagery", "wikidata": "Q4693338"}}, {"type": "node", "id": 3675034885, "lat": 4.9377424, "lon": -1.9151444, "tags": {"place": "village", "source": "Microsoft Bing orbital imagery"}}, {"type": "node", "id": 3675035530, "lat": 4.9705877, "lon": -1.8927971, "tags": {"capital": "6", "name": "Mpohor", "place": "town", "source": "Microsoft Bing orbital imagery", "wikidata": "Q20976908"}}, {"type": "node", "id": 4360087121, "lat": 4.9209222, "lon": -1.9783939, "tags": {"alt_name": "Apemanim", "name": "Apemanyim", "place": "village", "source": "Bing;survey"}}, {"type": "node", "id": 4563088958, "lat": 4.927456, "lon": -1.7490216, "tags": {"capital": "4", "name": "Sekondi-Takoradi", "name:en": "Sekondi-Takoradi", "name:ru": "\u0421\u0435\u043a\u043e\u043d\u0434\u0438-\u0422\u0430\u043a\u043e\u0440\u0430\u0434\u0438", "name:uk": "\u0421\u0435\u043a\u043e\u043d\u0434\u0456-\u0422\u0430\u043a\u043e\u0440\u0430\u0434\u0456", "place": "city", "population": "445000", "wikidata": "Q243293", "wikipedia": "en:Sekondi-Takoradi"}}, {"type": "node", "id": 5047955084, "lat": 4.8600747, "lon": -1.8329251, "tags": {"place": "village"}}, {"type": "node", "id": 5540406721, "lat": 4.8962469, "lon": -1.9029683, "tags": {"name": "Ewusiejoe", "place": "village"}}, {"type": "node", "id": 5573412590, "lat": 4.902006, "lon": -1.9037783, "tags": {"name": "Nyameyekrom", "place": "village", "source": "Bing"}}, {"type": "node", "id": 5658662660, "lat": 4.9480474, "lon": -1.8671714, "tags": {"place": "village"}}, {"type": "node", "id": 5658662663, "lat": 4.909485, "lon": -1.8344688, "tags": {"alt_name": "Kejebril", "name": "Kejeberi", "place": "town"}}, {"type": "node", "id": 6375911093, "lat": 4.9133128, "lon": -2.0135987, "tags": {"name": "Adiewoso", "place": "village"}}, {"type": "node", "id": 8565749874, "lat": 4.9477131, "lon": -1.9788051, "tags": {"name": "Tetrem", "place": "village"}}, {"type": "node", "id": 8565749876, "lat": 4.9807034, "lon": -2.0037818, "tags": {"name": "Kyekyewere", "place": "village"}}, {"type": "node", "id": 8946154914, "lat": 4.9140584, "lon": -1.7869306, "tags": {"capital": "6", "name": "Kwesimintsim", "place": "town", "wikidata": "Q6450352"}}, {"type": "node", "id": 8977213299, "lat": 4.8946087, "lon": -1.9392318, "tags": {"name": "Aboade", "place": "village"}}, {"type": "node", "id": 8983094623, "lat": 4.8615393, "lon": -1.960094, "tags": {"place": "hamlet", "source": "Microsoft Bing satellite imagery 2012"}}, {"type": "node", "id": 8986166218, "lat": 4.8927327, "lon": -1.8820417, "tags": {"name": "Bokoro", "place": "village"}}, {"type": "node", "id": 8986166230, "lat": 4.8934061, "lon": -1.8418837, "tags": {"name": "Beaho", "place": "village"}}, {"type": "node", "id": 9633317502, "lat": 4.9029902, "lon": -1.9060799, "tags": {"name": "Oil Village", "place": "village"}}]}