{"version": 0.6, "generator": "Overpass API 0.7.61.5 4133829e", "osm3s": {"timestamp_osm_base": "2024-03-06T11:45:15Z", "copyright": "The data included in this document is from www.openstreetmap.org. The data is made available under ODbL."}, "elements": [{"type": "node", "id": 44924262, "lat": 0.0666, "lon": 35.9333, "tags": {"is_in": "Nakuru,Kenya", "name": "Noiwe", "place": "village", "wikidata": "Q7047786"}}, {"type": "node", "id": 44927086, "lat": -0.022313, "lon": 35.9618378, "tags": {"name": "Mogotio", "place": "town", "wikidata": "Q6890687"}}, {"type": "node", "id": 44927175, "lat": 0.1, "lon": 36.0333, "tags": {"created_by": "JOSM", "is_in": "Baringo,Kenya", "name": "Mugerin", "place": "village"}}, {"type": "node", "id": 44927575, "lat": 0.1, "lon": 36.0333, "tags": {"is_in": "Baringo,Kenya", "name": "Mugurin", "place": "village", "wikidata": "Q6932242"}}, {"type": "node", "id": 44930350, "lat": 0.0833, "lon": 35.9166, "tags": {"created_by": "JOSM", "is_in": "Baringo,Kenya", "name": "Machege", "place": "village", "wikidata": "Q6723479"}}, {"type": "node", "id": 44930795, "lat": 0.2652482, "lon": 36.0493134, "tags": {"alt_name": "Maji Ya Moto", "name": "Maji Moto", "place": "village", "wikidata": "Q6737792"}}, {"type": "node", "id": 44931978, "lat": 0.2166, "lon": 35.9, "tags": {"alt_name": "Kimoset", "is_in": "Baringo,Kenya", "name": "Kimose", "place": "village", "wikidata": "Q6410232"}}, {"type": "node", "id": 44931984, "lat": 0.1666, "lon": 35.8166, "tags": {"created_by": "JOSM", "is_in": "Baringo,Kenya", "name": "Kimngorom", "place": "village"}}, {"type": "node", "id": 44998750, "lat": 0.024258, "lon": 35.785078, "tags": {"is_in": "Baringo,Kenya", "name": "Kabimoi", "place": "village", "wikidata": "Q6344168"}}, {"type": "node", "id": 44999368, "lat": 0.2666, "lon": 36.0166, "tags": {"is_in": "Baringo,Kenya", "name": "Kamarr", "place": "village", "wikidata": "Q15233166"}}, {"type": "node", "id": 45002967, "lat": 0.0497446, "lon": 35.722761, "tags": {"is_in:constituency": "Eldama Ravine", "is_in:county": "Baringo", "is_in:district": "Koibatek", "name": "Eldama Ravine", "place": "town", "wikidata": "Q1009186"}}, {"type": "node", "id": 45003011, "lat": 0.2333, "lon": 35.8333, "tags": {"is_in": "Baringo,Kenya", "name": "Cheberen", "place": "village", "wikidata": "Q5088972"}}, {"type": "node", "id": 45003124, "lat": 0.0166, "lon": 35.9333, "tags": {"is_in": "Baringo,Kenya", "name": "Chemogoch", "place": "village", "wikidata": "Q5090606"}}, {"type": "node", "id": 45004163, "lat": 0.1436945, "lon": 35.8888037, "tags": {"alt_name": "Emining", "is_in:county": "Baringo", "name": "Emening", "place": "village", "wikidata": "Q5370375"}}, {"type": "node", "id": 45004467, "lat": 0.0166, "lon": 35.8166, "tags": {"is_in": "Baringo,Kenya", "name": "Esageri", "place": "village", "wikidata": "Q5396679"}}, {"type": "node", "id": 45005785, "lat": 0.0666, "lon": 35.9833, "tags": {"created_by": "JOSM", "is_in": "Baringo,Kenya", "name": "Athinai", "place": "village"}}, {"type": "node", "id": 45006883, "lat": 0.15, "lon": 36.1166, "tags": {"created_by": "JOSM", "is_in": "Baringo,Kenya", "name": "Bahati Settlement", "place": "village"}}, {"type": "node", "id": 1634521889, "lat": -0.0347423, "lon": 35.8757591, "tags": {"name": "Muserechi", "place": "village"}}, {"type": "node", "id": 1634524808, "lat": 0.2874649, "lon": 35.9198761, "tags": {"name": "Radat", "place": "village"}}, {"type": "node", "id": 1821807027, "lat": -0.0220986, "lon": 35.6913332, "tags": {"name": "Maji Mazuri", "place": "town"}}, {"type": "node", "id": 1821844128, "lat": -0.0243131, "lon": 35.7877496, "tags": {"name": "Lebolos", "place": "village"}}, {"type": "node", "id": 5327257635, "lat": 0.0685935, "lon": 36.0034435, "tags": {"name": "Kipkitur", "place": "hamlet"}}, {"type": "node", "id": 5611434345, "lat": -0.066667, "lon": 35.983333, "tags": {"name": "Athinai", "place": "village", "source:name": "GNS"}}, {"type": "node", "id": 5611434346, "lat": -0.117998, "lon": 36.075575, "tags": {"name": "Banita", "place": "village", "source:name": "GNS"}}, {"type": "node", "id": 5611434348, "lat": -0.097152, "lon": 36.025916, "tags": {"name": "El Bonwala", "place": "village", "source:name": "GNS"}}, {"type": "node", "id": 5611434352, "lat": -0.123349, "lon": 36.123779, "tags": {"name": "Taramuka", "place": "village", "source:name": "GNS"}}, {"type": "node", "id": 6799293710, "lat": 0.099202, "lon": 35.85693, "tags": {"image": "https://kc.humanitarianresponse.info/attachment/original?media_file=mapkibera/attachments/1568362695695.jpg", "is_in:village": "Rosoga", "name": "Rosoga Center", "place": "village"}}, {"type": "node", "id": 7496454755, "lat": 0.1056346, "lon": 35.8139553, "tags": {"name": "Saos", "place": "village"}}, {"type": "node", "id": 9020730853, "lat": -0.0253252, "lon": 35.8692907}, {"type": "node", "id": 9020730854, "lat": -0.0247706, "lon": 35.8708559}, {"type": "node", "id": 9020730855, "lat": -0.0291211, "lon": 35.8729263}, {"type": "node", "id": 9020730856, "lat": -0.0300454, "lon": 35.8714228}, {"type": "node", "id": 9239193208, "lat": 0.0067064, "lon": 35.7093599, "tags": {"name": "Benonin", "place": "village"}}, {"type": "node", "id": 9498080148, "lat": -0.1314563, "lon": 36.010408, "tags": {"name": "Kichwa B", "place": "village"}}, {"type": "node", "id": 9566095121, "lat": -0.0275714, "lon": 36.1054444, "tags": {"name": "Kenya", "place": "village"}}, {"type": "node", "id": 9566095122, "lat": -0.0452601, "lon": 36.1102935, "tags": {"name": "Central A", "place": "village"}}, {"type": "node", "id": 9566095124, "lat": 0.0165141, "lon": 36.1214306, "tags": {"name": "Kapsebeltin", "place": "village"}}, {"type": "node", "id": 9566095518, "lat": -0.066551, "lon": 36.0788958, "tags": {"name": "Kapisaga", "place": "village"}}, {"type": "node", "id": 9566095717, "lat": -0.0590791, "lon": 36.0963428, "tags": {"name": "Rukwaro", "place": "village"}}, {"type": "node", "id": 9566095817, "lat": -0.0558535, "lon": 36.1133542, "tags": {"name": "Central B", "place": "village"}}, {"type": "node", "id": 9566095818, "lat": -0.0450505, "lon": 36.0947809, "tags": {"name": "Kirima", "place": "village"}}, {"type": "node", "id": 9566095820, "lat": -0.0248818, "lon": 36.1249997, "tags": {"name": "Sigito", "place": "village"}}, {"type": "node", "id": 9566095821, "lat": -0.0079919, "lon": 36.1166139, "tags": {"name": "Chemasis", "place": "village"}}, {"type": "node", "id": 9566095917, "lat": -0.0251346, "lon": 36.0950953, "tags": {"name": "Kianda Kenya", "place": "village"}}, {"type": "node", "id": 9566095918, "lat": -0.0363549, "lon": 36.1205614, "tags": {"name": "Nairobi", "place": "village"}}, {"type": "node", "id": 9566096119, "lat": 0.0473198, "lon": 36.1175131, "tags": {"name": "Tuiyotich", "place": "village"}}, {"type": "node", "id": 9566097619, "lat": -0.0025714, "lon": 36.0453793, "tags": {"name": "Ruandet", "place": "village"}}, {"type": "node", "id": 9566097620, "lat": 0.0150482, "lon": 36.0268177, "tags": {"name": "Soymet", "place": "village"}}, {"type": "node", "id": 9566097621, "lat": -0.0065622, "lon": 36.0310235, "tags": {"name": "Siriat", "place": "village"}}, {"type": "node", "id": 9566097622, "lat": -0.0152637, "lon": 36.0623821, "tags": {"name": "Punyerian", "place": "village"}}, {"type": "node", "id": 9566097623, "lat": -0.0427387, "lon": 36.0620279, "tags": {"name": "Kokwamoi", "place": "village"}}, {"type": "node", "id": 9566097624, "lat": -0.0095681, "lon": 36.0524046, "tags": {"name": "Olbang", "place": "village"}}, {"type": "node", "id": 9566097625, "lat": -0.0395052, "lon": 36.0517392, "tags": {"name": "Ruiyobei", "place": "village"}}, {"type": "node", "id": 9566097820, "lat": -0.1113011, "lon": 35.9749342, "tags": {"name": "Losibil B", "place": "village"}}, {"type": "node", "id": 9566097923, "lat": -0.0821768, "lon": 36.0769265, "tags": {"name": "Banita Gichagi B", "place": "village"}}, {"type": "node", "id": 9566097924, "lat": -0.0954811, "lon": 36.0695185, "tags": {"name": "Bruce", "place": "village"}}, {"type": "node", "id": 9566097925, "lat": -0.0717292, "lon": 36.0630137, "tags": {"name": "Pombo", "place": "village"}}, {"type": "node", "id": 9566097926, "lat": -0.0608358, "lon": 36.0611995, "tags": {"name": "Machine", "place": "village"}}, {"type": "node", "id": 9566097927, "lat": -0.0634147, "lon": 36.0528633, "tags": {"name": "Sawaiti/Kapkwes", "place": "village"}}, {"type": "node", "id": 9566097928, "lat": -0.0719823, "lon": 36.0215461, "tags": {"name": "Sawaiti A", "place": "village"}}, {"type": "node", "id": 9566097929, "lat": -0.0024074, "lon": 36.0410477, "tags": {"name": "Tembwo", "place": "village"}}, {"type": "node", "id": 9566097930, "lat": 0.0166617, "lon": 36.0342908, "tags": {"name": "Kimugul", "place": "village"}}, {"type": "node", "id": 9566097931, "lat": -0.0355247, "lon": 36.0444837, "tags": {"name": "Ruiyobei", "place": "village"}}, {"type": "node", "id": 9566097932, "lat": -0.0214284, "lon": 36.083045, "tags": {"name": "Bunyerian", "place": "village"}}, {"type": "node", "id": 9566098219, "lat": -0.0784901, "lon": 36.0794608, "tags": {"name": "Kimomora", "place": "village"}}, {"type": "node", "id": 9566098817, "lat": -0.0525755, "lon": 36.0776356, "tags": {"name": "Kipkoi/Kaportin", "place": "village"}}, {"type": "node", "id": 9566098818, "lat": -0.0843322, "lon": 36.0766777, "tags": {"name": "Banita Gishagi A", "place": "village"}}, {"type": "node", "id": 9566098819, "lat": -0.0594279, "lon": 36.0400738, "tags": {"name": "Nyororo Moja", "place": "village"}}, {"type": "node", "id": 9566098820, "lat": -0.0716606, "lon": 36.0377818, "tags": {"name": "Sawaiti B", "place": "village"}}, {"type": "node", "id": 9566098821, "lat": -0.0907778, "lon": 36.0146018, "tags": {"name": "Barina", "place": "village"}}, {"type": "node", "id": 9566098822, "lat": -0.0128056, "lon": 36.044851, "tags": {"name": "Kondamet B", "place": "village"}}, {"type": "node", "id": 9566098823, "lat": 0.0080869, "lon": 36.0360747, "tags": {"name": "Kondamet A", "place": "village"}}, {"type": "node", "id": 9566098824, "lat": 0.0172154, "lon": 36.0402909, "tags": {"name": "Kongasis", "place": "village"}}, {"type": "node", "id": 9566098917, "lat": -0.0470181, "lon": 36.034566, "tags": {"name": "Malaika", "place": "village"}}, {"type": "node", "id": 9566098918, "lat": -0.0563899, "lon": 36.024094, "tags": {"name": "Lower Majani Mingi", "place": "village"}}, {"type": "node", "id": 9566098919, "lat": -0.0258548, "lon": 35.9743128, "tags": {"name": "Kampi Samaki", "place": "village"}}, {"type": "node", "id": 9566099017, "lat": -0.0375494, "lon": 36.0726799, "tags": {"name": "Kokwomoi", "place": "village"}}, {"type": "node", "id": 9566099018, "lat": -0.0169327, "lon": 36.0728385, "tags": {"name": "Chelitit", "place": "village"}}, {"type": "node", "id": 9566099117, "lat": -0.0288067, "lon": 36.0347723, "tags": {"name": "Kimamoi", "place": "village"}}, {"type": "node", "id": 9566099118, "lat": -0.0435159, "lon": 36.0254192, "tags": {"name": "Bangoroni", "place": "village"}}, {"type": "node", "id": 9566099119, "lat": -0.0154702, "lon": 36.0000386, "tags": {"name": "Kaptembwo/Molilelwe", "place": "village"}}, {"type": "node", "id": 9566099120, "lat": 0.0229194, "lon": 35.9996606, "tags": {"name": "Lomolo", "place": "village"}}, {"type": "node", "id": 9566099121, "lat": -0.0337895, "lon": 35.9620165, "tags": {"name": "Athinai Sisal Estate", "place": "village"}}, {"type": "node", "id": 9566099122, "lat": -0.1173276, "lon": 36.0049937, "tags": {"name": "Emkwen", "place": "village"}}, {"type": "node", "id": 9566099126, "lat": -0.0949263, "lon": 35.9974261, "tags": {"name": "Black", "place": "village"}}, {"type": "node", "id": 9566099217, "lat": -0.0418545, "lon": 36.0019951, "tags": {"name": "Kaptera", "place": "village"}}, {"type": "node", "id": 9566099317, "lat": 0.058611, "lon": 35.9587107, "tags": {"name": "Alphega Estate", "place": "village"}}, {"type": "node", "id": 9566099318, "lat": -0.1193569, "lon": 36.0148089, "tags": {"name": "Kichwa", "place": "village"}}, {"type": "node", "id": 9566099321, "lat": -0.1235741, "lon": 35.9828965, "tags": {"name": "Losibil A", "place": "village"}}, {"type": "node", "id": 9566099517, "lat": -0.1307321, "lon": 35.995134, "tags": {"name": "Eastgate Farm", "place": "village"}}, {"type": "node", "id": 9566099518, "lat": -0.104144, "lon": 36.0083797, "tags": {"name": "Kiwanja Ndege", "place": "village"}}, {"type": "node", "id": 9566099617, "lat": -0.0606413, "lon": 35.9927971, "tags": {"name": "Mulwang", "place": "village"}}, {"type": "node", "id": 9566099717, "lat": -0.0728716, "lon": 35.9783658, "tags": {"name": "Sarambei A", "place": "village"}}, {"type": "node", "id": 9566099718, "lat": -0.093346, "lon": 35.9771683, "tags": {"name": "Koisamo B", "place": "village"}}, {"type": "node", "id": 9566099817, "lat": -0.0564259, "lon": 35.9637816, "tags": {"name": "Koyomtich", "place": "village"}}, {"type": "node", "id": 9566099917, "lat": -0.0887623, "lon": 35.9621938, "tags": {"name": "Koisamo A", "place": "village"}}, {"type": "node", "id": 9566099918, "lat": -0.1040797, "lon": 35.8644348, "tags": {"name": "Kapkatet", "place": "village"}}, {"type": "node", "id": 9566099925, "lat": -0.1081628, "lon": 35.9032198, "tags": {"name": "Lower Legetio", "place": "village"}}, {"type": "node", "id": 9566099927, "lat": -0.1274372, "lon": 35.8560439, "tags": {"name": "Kiptenden", "place": "village"}}, {"type": "node", "id": 9566099928, "lat": -0.126581, "lon": 35.8177842, "tags": {"name": "Kandutura Central", "place": "village"}}, {"type": "node", "id": 9566100017, "lat": -0.0705769, "lon": 35.948693, "tags": {"name": "Sarambei B", "place": "village"}}, {"type": "node", "id": 9566100117, "lat": -0.0760204, "lon": 35.9355561, "tags": {"name": "Molok", "place": "village"}}, {"type": "node", "id": 9566100118, "lat": -0.0529661, "lon": 35.899593, "tags": {"name": "Ngoswet", "place": "village"}}, {"type": "node", "id": 9566100217, "lat": -0.0686096, "lon": 35.9087657, "tags": {"name": "Kaplegetet", "place": "village"}}, {"type": "node", "id": 9566100317, "lat": -0.0598179, "lon": 35.8879469, "tags": {"name": "Kapsetek", "place": "village"}}, {"type": "node", "id": 9566100318, "lat": -0.0666757, "lon": 35.8654576, "tags": {"name": "Kamonong", "place": "village"}}, {"type": "node", "id": 9566100319, "lat": -0.126109, "lon": 35.9548815, "tags": {"name": "Upper Morop", "place": "village"}}, {"type": "node", "id": 9566100320, "lat": -0.1251655, "lon": 35.9416161, "tags": {"name": "Kampi Ya Moto Center", "place": "village"}}, {"type": "node", "id": 9566100321, "lat": -0.1226777, "lon": 35.9396286, "tags": {"name": "West Lands", "place": "village"}}, {"type": "node", "id": 9566100322, "lat": -0.1255298, "lon": 35.9372646, "tags": {"name": "Kasarani", "place": "village"}}, {"type": "node", "id": 9566100323, "lat": -0.1178256, "lon": 35.9311861, "tags": {"name": "Ranjuera", "place": "village"}}, {"type": "node", "id": 9566100417, "lat": -0.0680104, "lon": 35.8719727, "tags": {"name": "Ngoilale", "place": "village"}}, {"type": "node", "id": 9566100517, "lat": -0.0799793, "lon": 35.8565462, "tags": {"name": "Seventy One", "place": "village"}}, {"type": "node", "id": 9566100518, "lat": -0.1354234, "lon": 35.9392873, "tags": {"name": "Upper Kampi Ya Moto", "place": "village"}}, {"type": "node", "id": 9566100718, "lat": -0.1062545, "lon": 35.9476348, "tags": {"name": "Lower Morop", "place": "village"}}, {"type": "node", "id": 9566100719, "lat": -0.1151744, "lon": 35.9355987, "tags": {"name": "Ranjuera", "place": "village"}}, {"type": "node", "id": 9566100917, "lat": -0.128899, "lon": 35.9316425, "tags": {"name": "Lower Kampi Ya Moto", "place": "village"}}, {"type": "node", "id": 9566101018, "lat": -0.1072193, "lon": 35.9248933, "tags": {"name": "Nessuit", "place": "village"}}, {"type": "node", "id": 9566101118, "lat": -0.0865175, "lon": 35.9445847, "tags": {"name": "Rongai", "place": "village"}}, {"type": "node", "id": 9566101119, "lat": -0.0904329, "lon": 35.931332, "tags": {"name": "Malkelwet", "place": "village"}}, {"type": "node", "id": 9566101120, "lat": -0.0831354, "lon": 35.8730423, "tags": {"name": "Kapkemeloi", "place": "village"}}, {"type": "node", "id": 9566101318, "lat": -0.0843569, "lon": 35.9233508, "tags": {"name": "Lelechwet", "place": "village"}}, {"type": "node", "id": 9566101319, "lat": -0.0928305, "lon": 35.917807, "tags": {"name": "Mahinga", "place": "village"}}, {"type": "node", "id": 9566101320, "lat": -0.0907534, "lon": 35.8921845, "tags": {"name": "Buttler", "place": "village"}}, {"type": "node", "id": 9566101417, "lat": -0.1231993, "lon": 35.898252, "tags": {"name": "Poromoko", "place": "village"}}, {"type": "node", "id": 9566101517, "lat": -0.0893093, "lon": 35.8660732, "tags": {"name": "Kipsirich", "place": "village"}}, {"type": "node", "id": 9566102618, "lat": -0.1336602, "lon": 35.9032885, "tags": {"name": "Lengenet Centre", "place": "village"}}, {"type": "node", "id": 9566102620, "lat": -0.1174487, "lon": 35.8113392, "tags": {"name": "Kandutura Makanisani", "place": "village"}}, {"type": "node", "id": 9566103018, "lat": -0.1145792, "lon": 35.8899847, "tags": {"name": "Upper Legetio", "place": "village"}}, {"type": "node", "id": 9566103019, "lat": -0.1345058, "lon": 35.8754125, "tags": {"name": "Tuiyobei A", "place": "village"}}, {"type": "node", "id": 9566103020, "lat": -0.114408, "lon": 35.8737597, "tags": {"name": "Punda Mingi", "place": "village"}}, {"type": "node", "id": 9566103022, "lat": -0.1348252, "lon": 35.8182573, "tags": {"name": "Kimangu West", "place": "village"}}, {"type": "node", "id": 9566103023, "lat": -0.1224672, "lon": 35.7955149, "tags": {"name": "Sulutia", "place": "village"}}, {"type": "node", "id": 9566103717, "lat": -0.1240759, "lon": 35.9154426, "tags": {"name": "Kapkatet", "place": "village"}}, {"type": "node", "id": 9566103817, "lat": -0.1000466, "lon": 35.9101917, "tags": {"name": "Magare", "place": "village"}}, {"type": "node", "id": 9566103917, "lat": -0.1229503, "lon": 35.8894172, "tags": {"name": "Poromoko", "place": "village"}}, {"type": "node", "id": 9566103919, "lat": -0.1238567, "lon": 35.870866, "tags": {"name": "Mololine B", "place": "village"}}, {"type": "node", "id": 9566103920, "lat": -0.0965769, "lon": 35.8494415, "tags": {"name": "Mlimani", "place": "village"}}, {"type": "node", "id": 9566104017, "lat": -0.1311941, "lon": 35.8834563, "tags": {"name": "Mololine A", "place": "village"}}, {"type": "node", "id": 9566104018, "lat": -0.1239338, "lon": 35.8438756, "tags": {"name": "Mawe", "place": "village"}}, {"type": "node", "id": 9566104020, "lat": -0.114748, "lon": 35.8381823, "tags": {"name": "Kilombe", "place": "village"}}, {"type": "node", "id": 9566104217, "lat": -0.118083, "lon": 35.857473, "tags": {"name": "Metkei", "place": "village"}}, {"type": "node", "id": 9566104317, "lat": -0.1116507, "lon": 35.84754, "tags": {"name": "Bongoloya", "place": "village"}}, {"type": "node", "id": 9566104319, "lat": -0.1114946, "lon": 35.8324392, "tags": {"name": "Thirando", "place": "village"}}, {"type": "node", "id": 9566104320, "lat": -0.1276913, "lon": 35.8255147, "tags": {"name": "Kandutura Waka", "place": "village"}}, {"type": "node", "id": 9566104321, "lat": -0.1103739, "lon": 35.8037607, "tags": {"name": "Kandutura Station", "place": "village"}}, {"type": "node", "id": 9566104617, "lat": -0.1328637, "lon": 35.8023345, "tags": {"name": "Tuiyotich", "place": "village"}}, {"type": "node", "id": 9737054751, "lat": -0.1315034, "lon": 36.1138349, "tags": {"name": "Ngenda", "place": "village"}}, {"type": "node", "id": 9770291738, "lat": -0.0896354, "lon": 35.6876992, "tags": {"name": "Bureti A", "place": "village"}}, {"type": "node", "id": 9770291751, "lat": -0.0840718, "lon": 35.6863489, "tags": {"name": "Tarkwet", "place": "village"}}, {"type": "node", "id": 9770291752, "lat": -0.0774894, "lon": 35.6854602, "tags": {"name": "Kamata", "place": "village"}}, {"type": "node", "id": 9770291753, "lat": -0.0864002, "lon": 35.6844505, "tags": {"name": "Bureti B", "place": "village"}}, {"type": "node", "id": 9770291759, "lat": -0.0928385, "lon": 35.6834986, "tags": {"name": "Bureti Netebes", "place": "village"}}, {"type": "node", "id": 9770291763, "lat": -0.1125424, "lon": 35.68364, "tags": {"name": "Chepsir", "place": "village"}}, {"type": "node", "id": 9770291764, "lat": -0.1115124, "lon": 35.6912278, "tags": {"name": "Miti Moja", "place": "village"}}, {"type": "node", "id": 9770291765, "lat": -0.1026365, "lon": 35.6821727, "tags": {"name": "Silibwet", "place": "village"}}, {"type": "node", "id": 9770291766, "lat": -0.1051781, "lon": 35.6877805, "tags": {"name": "Tuiyotich", "place": "village"}}, {"type": "node", "id": 9770291767, "lat": -0.0990663, "lon": 35.6875194, "tags": {"name": "Sigowet", "place": "village"}}, {"type": "node", "id": 9770291804, "lat": -0.1227903, "lon": 35.6945972, "tags": {"name": "Big Fifteen", "place": "village"}}, {"type": "node", "id": 9770291805, "lat": -0.0804807, "lon": 35.6852625, "tags": {"name": "Kimugul", "place": "village"}}, {"type": "node", "id": 9784007401, "lat": -0.1151125, "lon": 36.0523565, "tags": {"name": "Mutukanio C Lower", "place": "village"}}, {"type": "node", "id": 9784007404, "lat": -0.112253, "lon": 36.0322086, "tags": {"name": "Ime", "place": "village"}}, {"type": "node", "id": 9784007405, "lat": -0.0921185, "lon": 36.0408891, "tags": {"name": "Mutukanio B", "place": "village"}}, {"type": "node", "id": 9784007406, "lat": -0.0844552, "lon": 36.0566393, "tags": {"name": "Mutukanio A", "place": "village"}}, {"type": "node", "id": 9784007407, "lat": -0.1152931, "lon": 36.0837028, "tags": {"name": "Banita Center/Marigat", "place": "village"}}, {"type": "node", "id": 9784007410, "lat": -0.1238637, "lon": 36.0982589, "tags": {"name": "Olbonata", "place": "village"}}, {"type": "node", "id": 9784007411, "lat": -0.1258883, "lon": 36.0666808, "tags": {"name": "Gituamba Lower", "place": "village"}}, {"type": "node", "id": 9784007412, "lat": -0.0951363, "lon": 36.0834712, "tags": {"name": "Canyon", "place": "village"}}, {"type": "node", "id": 9784007413, "lat": -0.1293313, "lon": 36.0499334, "tags": {"name": "Mutukanio C Upper", "place": "village"}}, {"type": "node", "id": 9784007416, "lat": -0.0577264, "lon": 36.1240512, "tags": {"name": "Kariua", "place": "village"}}, {"type": "node", "id": 9784070818, "lat": -0.0712977, "lon": 36.1108894, "tags": {"name": "Barafu", "place": "village"}}, {"type": "node", "id": 9784070819, "lat": -0.1175505, "lon": 36.1225551, "tags": {"name": "Ndururumo", "place": "village"}}, {"type": "node", "id": 9784070821, "lat": -0.0552772, "lon": 36.1241451, "tags": {"name": "Marigu", "place": "village"}}, {"type": "node", "id": 9784070823, "lat": -0.0788737, "lon": 36.1204114, "tags": {"name": "Lulunga", "place": "village"}}, {"type": "node", "id": 9784070824, "lat": -0.0752966, "lon": 36.1017459, "tags": {"name": "Israel", "place": "village"}}, {"type": "node", "id": 9784070826, "lat": -0.0856231, "lon": 36.1166658, "tags": {"name": "Endau Dam", "place": "village"}}, {"type": "node", "id": 9784070827, "lat": -0.0691543, "lon": 36.0928666, "tags": {"name": "Silage", "place": "village"}}, {"type": "node", "id": 9784070832, "lat": -0.0648601, "lon": 36.1217984, "tags": {"name": "Buster", "place": "village"}}, {"type": "node", "id": 9784070833, "lat": -0.0982377, "lon": 36.0975958, "tags": {"name": "Baraka", "place": "village"}}, {"type": "node", "id": 9784070838, "lat": -0.0813782, "lon": 36.0920618, "tags": {"name": "Ruiru Lower", "place": "village"}}, {"type": "node", "id": 9784070839, "lat": -0.0986071, "lon": 36.1090137, "tags": {"name": "Gatune", "place": "village"}}, {"type": "node", "id": 9784070840, "lat": -0.0956578, "lon": 36.1228317, "tags": {"name": "Makara", "place": "village"}}, {"type": "node", "id": 9784070841, "lat": -0.097349, "lon": 36.1166536, "tags": {"name": "Mbombo", "place": "village"}}, {"type": "node", "id": 9784070842, "lat": -0.0913509, "lon": 36.1140619, "tags": {"name": "Kiambogo", "place": "village"}}, {"type": "node", "id": 9784070843, "lat": -0.0893747, "lon": 36.1244342, "tags": {"name": "Kimunya", "place": "village"}}, {"type": "node", "id": 9784070844, "lat": -0.0891593, "lon": 36.1035567, "tags": {"name": "Ruiru Upper", "place": "village"}}, {"type": "way", "id": 974766919, "nodes": [9020730853, 9020730854, 9020730855, 9020730856, 9020730853], "tags": {"name": "Muserechi Shopping Centre", "place": "town"}}]}