{"version": 0.6, "generator": "Overpass API 0.7.61.5 4133829e", "osm3s": {"timestamp_osm_base": "2024-03-05T11:04:15Z", "copyright": "The data included in this document is from www.openstreetmap.org. The data is made available under ODbL."}, "elements": [{"type": "node", "id": 434415958, "lat": 10.4548033, "lon": -1.3065309, "tags": {"name": "Fumbusi", "place": "village"}}, {"type": "node", "id": 434416418, "lat": 10.6797291, "lon": -1.4937029, "tags": {"place": "town", "source": "landsat"}}, {"type": "node", "id": 1811902902, "lat": 10.5707337, "lon": -1.323798, "tags": {"name": "Gbedema", "place": "village"}}, {"type": "node", "id": 1866507323, "lat": 10.7353788, "lon": -1.2867192, "tags": {"capital": "6", "name": "Sandema", "place": "town", "wikidata": "Q7416106"}}, {"type": "node", "id": 1904746059, "lat": 10.3247136, "lon": -1.2607706, "tags": {"cellular_signal": "low", "description": "Borehole", "ele": "167.800003051757812", "grid_proximity": "further_than_500m", "has_latrines": "no", "loc_name": "Ameyere", "minigrid_proximity": "further_than_500m", "name": "Dalaasa", "num_latrines": "n/a", "place": "hamlet", "source": "MVP, Columbia University", "source:date": "2012-02-14", "source:ele": "gps"}}, {"type": "node", "id": 1904746090, "lat": 10.3265623, "lon": -1.238215, "tags": {"cellular_signal": "low", "description": "main road", "ele": "182.300003051757812", "grid_proximity": "further_than_500m", "has_latrines": "no", "loc_name": "Akpaanaayere", "minigrid_proximity": "further_than_500m", "name": "Bazeesa", "num_latrines": "n/a", "place": "hamlet", "source": "MVP, Columbia University", "source:date": "2012-02-14", "source:ele": "gps"}}, {"type": "node", "id": 1904746106, "lat": 10.3269358, "lon": -1.2493602, "tags": {"cellular_signal": "low", "description": "Station", "ele": "154.100006103515625", "grid_proximity": "further_than_500m", "has_latrines": "no", "loc_name": "Gbadembilisi station", "minigrid_proximity": "within_500m", "name": "Gbedembilisi", "num_latrines": "n/a", "place": "hamlet", "source": "MVP, Columbia University", "source:date": "2012-02-14", "source:ele": "gps"}}, {"type": "node", "id": 1904746132, "lat": 10.3572424, "lon": -1.3365232, "tags": {"cellular_signal": "low", "description": "Near Fumbisi Road", "ele": "179.600006103515625", "grid_proximity": "further_than_500m", "has_latrines": "yes", "loc_name": "Nab yeri", "minigrid_proximity": "further_than_500m", "name": "Wiesi Atong Yeri", "num_latrines": "6", "place": "hamlet", "source": "MVP, Columbia University", "source:date": "2012-02-14", "source:ele": "gps"}}, {"type": "node", "id": 1904746153, "lat": 10.3598109, "lon": -1.1906071, "tags": {"cellular_signal": "no", "ele": "170.800003051757812", "grid_proximity": "further_than_500m", "has_latrines": "no", "loc_name": "katigri", "minigrid_proximity": "further_than_500m", "name": "Katigri", "num_latrines": "n/a", "place": "hamlet", "source": "MVP, Columbia University", "source:date": "2012-02-11", "source:ele": "gps"}}, {"type": "node", "id": 1904746193, "lat": 10.4283317, "lon": -1.3045462, "tags": {"cellular_signal": "high", "description": "baasa community", "ele": "217", "grid_proximity": "further_than_500m", "has_latrines": "no", "loc_name": "baasa", "minigrid_proximity": "further_than_500m", "name": "Baasa", "num_latrines": "n/a", "place": "hamlet", "source": "MVP, Columbia University", "source:date": "2012-02-13", "source:ele": "gps"}}, {"type": "node", "id": 1904746221, "lat": 10.4321315, "lon": -1.3296814, "tags": {"cellular_signal": "high", "ele": "196.199996948242188", "grid_proximity": "further_than_500m", "has_latrines": "no", "loc_name": "pintensi", "minigrid_proximity": "further_than_500m", "name": "Pintengsa", "num_latrines": "n/a", "place": "hamlet", "source": "MVP, Columbia University", "source:date": "2012-02-13", "source:ele": "gps"}}, {"type": "node", "id": 1904746283, "lat": 10.453476, "lon": -1.2634795, "tags": {"cellular_signal": "high", "description": "Two borehoreslocated there", "ele": "197.600006103515625", "grid_proximity": "further_than_500m", "has_latrines": "yes", "loc_name": "Doctor. Anankra House", "minigrid_proximity": "further_than_500m", "name": "Naadem", "num_latrines": "30", "place": "hamlet", "source": "MVP, Columbia University", "source:date": "2012-02-13", "source:ele": "gps"}}, {"type": "node", "id": 1904746365, "lat": 10.4620478, "lon": -1.2654268, "tags": {"cellular_signal": "low", "description": "Nearf a baobab Tree", "ele": "205.899993896484375", "grid_proximity": "further_than_500m", "has_latrines": "yes", "loc_name": "Luisa Chief Palace", "minigrid_proximity": "further_than_500m", "name": "Luisa", "num_latrines": "10", "place": "hamlet", "source": "MVP, Columbia University", "source:date": "2012-02-13", "source:ele": "gps"}}, {"type": "node", "id": 1904746381, "lat": 10.4666362, "lon": -1.2911034, "tags": {"cellular_signal": "high", "ele": "216.800003051757812", "grid_proximity": "further_than_500m", "has_latrines": "no", "loc_name": "Batuisa", "minigrid_proximity": "further_than_500m", "name": "Butuisa", "num_latrines": "n/a", "place": "hamlet", "source": "MVP, Columbia University", "source:date": "2012-02-14", "source:ele": "gps"}}, {"type": "node", "id": 1904746422, "lat": 10.4803916, "lon": -1.2812442, "tags": {"cellular_signal": "high", "ele": "215", "grid_proximity": "further_than_500m", "has_latrines": "no", "loc_name": "Biterisa", "minigrid_proximity": "further_than_500m", "name": "Buterisa", "num_latrines": "n/a", "place": "hamlet", "source": "MVP, Columbia University", "source:date": "2012-02-14", "source:ele": "gps"}}, {"type": "node", "id": 1904746434, "lat": 10.4813615, "lon": -1.302979, "tags": {"cellular_signal": "low", "ele": "216.699996948242188", "grid_proximity": "within_500m", "has_latrines": "no", "loc_name": "sinsungsa", "minigrid_proximity": "within_500m", "name": "Sinsangsa", "num_latrines": "n/a", "place": "hamlet", "source": "MVP, Columbia University", "source:date": "2012-02-14", "source:ele": "gps"}}, {"type": "node", "id": 1904746447, "lat": 10.4817218, "lon": -1.2281945, "tags": {"cellular_signal": "low", "description": "chief compound", "ele": "223.5", "grid_proximity": "further_than_500m", "has_latrines": "no", "loc_name": "Uwasa Naayili", "minigrid_proximity": "reaches_connects", "name": "Uwasi Kazengsa Jinigsa", "num_latrines": "n/a", "place": "hamlet", "source": "MVP, Columbia University", "source:date": "2012-02-13", "source:ele": "gps"}}, {"type": "node", "id": 1904746517, "lat": 10.4922377, "lon": -1.2883177, "tags": {"cellular_signal": "high", "description": "Kasiesa Yemona", "ele": "203.699996948242188", "grid_proximity": "further_than_500m", "has_latrines": "no", "loc_name": "Yemona", "minigrid_proximity": "further_than_500m", "name": "Kasiesa-Yemona", "num_latrines": "n/a", "place": "hamlet", "source": "MVP, Columbia University", "source:date": "2012-02-14", "source:ele": "gps"}}, {"type": "node", "id": 1904746556, "lat": 10.4929796, "lon": -1.3012803, "tags": {"cellular_signal": "high", "ele": "213.600006103515625", "grid_proximity": "within_500m", "has_latrines": "no", "loc_name": "xxx", "minigrid_proximity": "further_than_500m", "name": "Kasiesa", "num_latrines": "n/a", "place": "hamlet", "source": "MVP, Columbia University", "source:date": "2012-02-14", "source:ele": "gps"}}, {"type": "node", "id": 1904746671, "lat": 10.5369443, "lon": -1.2233621, "tags": {"cellular_signal": "low", "description": "wiaga zamsa", "ele": "226.5", "grid_proximity": "further_than_500m", "has_latrines": "no", "loc_name": "zamsa", "minigrid_proximity": "further_than_500m", "name": "Zamsa", "num_latrines": "n/a", "place": "hamlet", "source": "MVP, Columbia University", "source:date": "2012-02-15", "source:ele": "gps"}}, {"type": "node", "id": 1904746709, "lat": 10.5746751, "lon": -1.1923251, "tags": {"cellular_signal": "low", "ele": "174.100006103515625", "grid_proximity": "further_than_500m", "has_latrines": "no", "loc_name": "chansa community", "minigrid_proximity": "further_than_500m", "name": "Chansa", "num_latrines": "n/a", "place": "village", "source": "MVP, Columbia University", "source:date": "2012-02-15", "source:ele": "gps"}}, {"type": "node", "id": 1909032418, "lat": 10.5112837, "lon": -1.3707947, "tags": {"place": "hamlet", "source": "Bing"}}, {"type": "node", "id": 2306436940, "lat": 10.3798089, "lon": -1.1921752, "tags": {"place": "hamlet"}}, {"type": "node", "id": 2306436945, "lat": 10.3814838, "lon": -1.1912949, "tags": {"place": "hamlet"}}, {"type": "node", "id": 6345225767, "lat": 10.6566857, "lon": -1.2629557, "tags": {"name": "Wiaga", "place": "town", "wikidata": "Q15045820"}}, {"type": "node", "id": 7074359523, "lat": 10.4528307, "lon": -1.3070863, "tags": {"capital": "6", "name": "Fumbisi", "place": "village", "wikidata": "Q21406837"}}, {"type": "node", "id": 11368739831, "lat": 10.4338402, "lon": -1.3307224, "tags": {"name": "Yerinsa", "place": "hamlet"}}, {"type": "node", "id": 11368739832, "lat": 10.427379, "lon": -1.3382669, "tags": {"name": "Bacheesa", "place": "hamlet"}}, {"type": "node", "id": 11368803106, "lat": 10.4785226, "lon": -1.2268478, "tags": {"name": "Siuk", "place": "hamlet"}}, {"type": "node", "id": 11368803134, "lat": 10.4691861, "lon": -1.2982867, "tags": {"name": "Vayaasa", "place": "hamlet"}}, {"type": "node", "id": 11368803135, "lat": 10.465293, "lon": -1.3153089, "tags": {"name": "Vayaasa-Logmiisa", "place": "hamlet"}}, {"type": "node", "id": 11368868342, "lat": 10.4866554, "lon": -1.268914, "tags": {"name": "Buterisa-Ngadem", "place": "hamlet"}}, {"type": "node", "id": 11368868343, "lat": 10.482963, "lon": -1.2810772, "tags": {"name": "Buterisa-Nalingsa", "place": "hamlet"}}, {"type": "node", "id": 11368868344, "lat": 10.480104, "lon": -1.268927, "tags": {"name": "Buterisa-Nasugsa", "place": "hamlet"}}, {"type": "node", "id": 11368868345, "lat": 10.4847242, "lon": -1.2670816, "tags": {"name": "Buterisa-Jongsa", "place": "hamlet"}}]}