{"version": 0.6, "generator": "Overpass API 0.7.61.5 4133829e", "osm3s": {"timestamp_osm_base": "2024-03-06T11:46:14Z", "copyright": "The data included in this document is from www.openstreetmap.org. The data is made available under ODbL."}, "elements": [{"type": "node", "id": 305385710, "lat": 1.9125082, "lon": 33.9587933, "tags": {"name": "Katakwi", "name:ru": "\u041a\u0430\u0442\u0430\u043a\u0432\u0438", "place": "town", "wikidata": "Q2544864", "wikipedia": "en:Katakwi"}}, {"type": "node", "id": 1825992285, "lat": 1.9768385, "lon": 34.22199, "tags": {"place": "hamlet"}}, {"type": "node", "id": 2229099953, "lat": 1.883333, "lon": 33.95, "tags": {"GNS:dsg_code": "PPL", "GNS:dsg_string": "populated place", "GNS:id": "-1725987", "fixme": "no population estimate available, defaulted to village", "name": "Alelesi", "place": "village", "source": "GNS"}}, {"type": "node", "id": 2229100111, "lat": 1.683333, "lon": 34.1, "tags": {"GNS:dsg_code": "PPL", "GNS:dsg_string": "populated place", "GNS:id": "-1726051", "fixme": "no population estimate available, defaulted to village", "is_in:country": "Uganda", "name": "Amenu", "place": "village", "source": "GNS"}}, {"type": "node", "id": 2229100150, "lat": 1.8, "lon": 33.966667, "tags": {"GNS:dsg_code": "PPL", "GNS:dsg_string": "populated place", "GNS:id": "-1726113", "fixme": "no population estimate available, defaulted to village", "is_in:country": "Uganda", "name": "Angodingodi", "place": "village", "source": "GNS"}}, {"type": "node", "id": 2229100191, "lat": 1.983333, "lon": 33.966667, "tags": {"GNS:dsg_code": "PPL", "GNS:dsg_string": "populated place", "GNS:id": "-1726162", "fixme": "no population estimate available, defaulted to village", "is_in:country": "Uganda", "name": "Aparisa", "place": "village", "source": "GNS"}}, {"type": "node", "id": 2229100217, "lat": 1.933333, "lon": 33.983333, "tags": {"GNS:dsg_code": "PPL", "GNS:dsg_string": "populated place", "GNS:id": "-1726193", "fixme": "no population estimate available, defaulted to village", "name": "Apolino", "place": "village", "source": "GNS"}}, {"type": "node", "id": 2229100257, "lat": 1.833333, "lon": 34.0, "tags": {"GNS:dsg_code": "PPL", "GNS:dsg_string": "populated place", "GNS:id": "-1726244", "fixme": "no population estimate available, defaulted to village", "is_in:country": "Uganda", "name": "Arubela", "place": "village", "source": "GNS"}}, {"type": "node", "id": 2229100258, "lat": 1.9, "lon": 33.983333, "tags": {"GNS:dsg_code": "PPL", "GNS:dsg_string": "populated place", "GNS:id": "-1726247", "fixme": "no population estimate available, defaulted to village", "name": "Aryawo", "place": "village", "source": "GNS"}}, {"type": "node", "id": 2229100272, "lat": 1.983333, "lon": 33.95, "tags": {"GNS:dsg_code": "PPL", "GNS:dsg_string": "populated place", "GNS:id": "-1726268", "fixme": "no population estimate available, defaulted to village", "is_in:country": "Uganda", "name": "Asuret", "place": "village", "source": "GNS"}}, {"type": "node", "id": 2229106955, "lat": 1.85, "lon": 33.966667, "tags": {"GNS:dsg_code": "PPL", "GNS:dsg_string": "populated place", "GNS:id": "-1727667", "fixme": "no population estimate available, defaulted to village", "is_in:country": "Uganda", "name": "Dadasi", "place": "village", "source": "GNS"}}, {"type": "node", "id": 2229110053, "lat": 1.85, "lon": 34.133333, "tags": {"GNS:dsg_code": "PPL", "GNS:dsg_string": "populated place", "GNS:id": "-1728574", "fixme": "no population estimate available, defaulted to village", "is_in:country": "Uganda", "name": "Kaikamosi", "place": "village", "source": "GNS"}}, {"type": "node", "id": 2229110509, "lat": 1.591389, "lon": 34.048889, "tags": {"GNS:dsg_code": "PPL", "GNS:dsg_string": "populated place", "GNS:id": "-1725952", "fixme": "no population estimate available, defaulted to village", "is_in:country": "Uganda", "name": "Kakum", "place": "village", "source": "GNS"}}, {"type": "node", "id": 2229114823, "lat": 1.6, "lon": 34.05, "tags": {"GNS:dsg_code": "PPL", "GNS:dsg_string": "populated place", "GNS:id": "-1729828", "fixme": "no population estimate available, defaulted to village", "is_in:country": "Uganda", "name": "Kide", "place": "village", "source": "GNS"}}, {"type": "node", "id": 2229118212, "lat": 2.0, "lon": 34.15, "tags": {"GNS:dsg_code": "PPL", "GNS:dsg_string": "populated place", "GNS:id": "-1731617", "fixme": "no population estimate available, defaulted to village", "is_in:country": "Uganda", "name": "Luya", "place": "village", "source": "GNS"}}, {"type": "node", "id": 2229118573, "lat": 1.696111, "lon": 34.104722, "tags": {"GNS:dsg_code": "PPL", "GNS:dsg_string": "populated place", "GNS:id": "-1731842", "fixme": "no population estimate available, defaulted to village", "is_in:country": "Uganda", "name": "Magoro", "place": "village", "source": "GNS"}}, {"type": "node", "id": 2229121134, "lat": 1.883333, "lon": 34.133333, "tags": {"GNS:dsg_code": "PPL", "GNS:dsg_string": "populated place", "GNS:id": "-1733361", "fixme": "no population estimate available, defaulted to village", "is_in:country": "Uganda", "name": "Nariam", "place": "village", "source": "GNS"}}, {"type": "node", "id": 2229121573, "lat": 1.916667, "lon": 34.016667, "tags": {"GNS:dsg_code": "PPL", "GNS:dsg_string": "populated place", "GNS:id": "-1733511", "fixme": "no population estimate available, defaulted to village", "is_in:country": "Uganda", "name": "Ngobo", "place": "village", "source": "GNS"}}, {"type": "node", "id": 2229123089, "lat": 2.016667, "lon": 33.983333, "tags": {"GNS:dsg_code": "PPL", "GNS:dsg_string": "populated place", "GNS:id": "-1734198", "fixme": "no population estimate available, defaulted to village", "is_in:country": "Uganda", "name": "Ogwapesuru", "place": "village", "source": "GNS"}}, {"type": "node", "id": 2229123137, "lat": 1.683333, "lon": 33.966667, "tags": {"GNS:dsg_code": "PPL", "GNS:dsg_string": "populated place", "GNS:id": "-1734254", "fixme": "no population estimate available, defaulted to village", "is_in:country": "Uganda", "name": "Okurao", "place": "village", "source": "GNS"}}, {"type": "node", "id": 2229123167, "lat": 1.929167, "lon": 34.108056, "tags": {"GNS:dsg_code": "PPL", "GNS:dsg_string": "populated place", "GNS:id": "-1734270", "fixme": "no population estimate available, defaulted to village", "is_in:country": "Uganda", "name": "Old", "place": "village", "source": "GNS"}}, {"type": "node", "id": 2229123206, "lat": 1.666667, "lon": 33.966667, "tags": {"GNS:dsg_code": "PPL", "GNS:dsg_string": "populated place", "GNS:id": "-1734306", "fixme": "no population estimate available, defaulted to village", "is_in:country": "Uganda", "name": "Olupe", "place": "village", "source": "GNS"}}, {"type": "node", "id": 2229123227, "lat": 1.666667, "lon": 33.95, "tags": {"GNS:dsg_code": "PPL", "GNS:dsg_string": "populated place", "GNS:id": "-1734335", "fixme": "no population estimate available, defaulted to village", "is_in:country": "Uganda", "name": "Ominya", "place": "village", "source": "GNS"}}, {"type": "node", "id": 2229123233, "lat": 1.816667, "lon": 34.0, "tags": {"GNS:dsg_code": "PPL", "GNS:dsg_string": "populated place", "GNS:id": "-1734356", "fixme": "no population estimate available, defaulted to village", "is_in:country": "Uganda", "name": "Omodoi", "place": "village", "source": "GNS"}}, {"type": "node", "id": 2229124146, "lat": 1.783333, "lon": 34.133333, "tags": {"GNS:dsg_code": "PPL", "GNS:dsg_string": "populated place", "GNS:id": "-1734556", "fixme": "no population estimate available, defaulted to village", "is_in:country": "Uganda", "name": "Pakwi", "place": "village", "source": "GNS"}}, {"type": "node", "id": 2229125037, "lat": 1.598889, "lon": 34.100278, "tags": {"GNS:dsg_code": "PPL", "GNS:dsg_string": "populated place", "GNS:id": "9150383", "fixme": "no population estimate available, defaulted to village", "is_in:country": "Uganda", "name": "Peta", "place": "village", "source": "GNS"}}, {"type": "node", "id": 2229128589, "lat": 1.725, "lon": 33.961111, "tags": {"GNS:dsg_code": "PPL", "GNS:dsg_string": "populated place", "GNS:id": "-1735289", "fixme": "no population estimate available, defaulted to village", "is_in:country": "Uganda", "name": "Toroma", "place": "village", "source": "GNS"}}, {"type": "node", "id": 2229128877, "lat": 1.988333, "lon": 33.971667, "tags": {"GNS:dsg_code": "PPL", "GNS:dsg_string": "populated place", "GNS:id": "-1735355", "fixme": "no population estimate available, defaulted to village", "is_in:country": "Uganda", "name": "Usuku", "place": "village", "source": "GNS"}}, {"type": "node", "id": 8409436629, "lat": 1.9546491, "lon": 34.0974725, "tags": {"name": "Nigariam", "place": "village"}}, {"type": "node", "id": 8409436630, "lat": 1.9918298, "lon": 34.0853136, "tags": {"name": "Orungo", "place": "village"}}, {"type": "node", "id": 10576118651, "lat": 1.6292061, "lon": 34.0961045, "tags": {"name": "Tisai", "place": "village", "source": "Ubos_2014"}}, {"type": "node", "id": 10576118652, "lat": 1.5963456, "lon": 34.1014322, "tags": {"name": "Aacera", "place": "village", "source": "Ubos_2014"}}, {"type": "node", "id": 10576118654, "lat": 1.6051471, "lon": 33.9806608, "tags": {"name": "Aaduka", "place": "village", "source": "Ubos_2014"}}, {"type": "node", "id": 10576118660, "lat": 1.612878, "lon": 34.0060775, "tags": {"name": "Munyal", "place": "village", "source": "Ubos_2014"}}, {"type": "node", "id": 10576118661, "lat": 1.5981044, "lon": 34.0204097, "tags": {"name": "Kareu", "place": "village", "source": "Ubos_2014"}}, {"type": "node", "id": 10576118662, "lat": 1.6327306, "lon": 34.0043266, "tags": {"name": "Atirir", "place": "village", "source": "Ubos_2014"}}, {"type": "node", "id": 10576118678, "lat": 1.6092355, "lon": 34.1464532, "tags": {"name": "Asinge", "place": "village", "source": "Ubos_2014"}}, {"type": "node", "id": 10576118679, "lat": 1.6112338, "lon": 34.1950444, "tags": {"name": "Aderina", "place": "village", "source": "Ubos_2014"}}, {"type": "node", "id": 10576118683, "lat": 1.5935394, "lon": 34.0489012, "tags": {"name": "Akide", "place": "village", "source": "Ubos_2014"}}, {"type": "node", "id": 10576118684, "lat": 1.612126, "lon": 34.0335093, "tags": {"name": "Aguya", "place": "village", "source": "Ubos_2014"}}, {"type": "node", "id": 10576118780, "lat": 1.6000598, "lon": 33.9452693, "tags": {"name": "Agolitom", "place": "village", "source": "Ubos_2014"}}, {"type": "node", "id": 10586736855, "lat": 1.998872, "lon": 33.9891319, "tags": {"building": "yes", "name": "Anyanga", "place": "village", "source": "Ubos_2014"}}, {"type": "node", "id": 10586736856, "lat": 1.9925208, "lon": 33.9990584, "tags": {"building": "yes", "name": "Obwapesur", "place": "village", "source": "Ubos_2014"}}, {"type": "node", "id": 10586736857, "lat": 1.9970998, "lon": 34.0225238, "tags": {"building": "yes", "name": "Oongole", "place": "village", "source": "Ubos_2014"}}, {"type": "node", "id": 10586736858, "lat": 2.0109836, "lon": 34.0125571, "tags": {"building": "yes", "name": "Amuli", "place": "village", "source": "Ubos_2014"}}, {"type": "node", "id": 10586736859, "lat": 1.9923109, "lon": 33.9738544, "tags": {"building": "yes", "name": "Usuret", "place": "village", "source": "Ubos_2014"}}, {"type": "node", "id": 10586736860, "lat": 1.9875579, "lon": 33.9560615, "tags": {"building": "yes", "name": "Aduruko(usuk)", "place": "village", "source": "Ubos_2014"}}, {"type": "node", "id": 10586736862, "lat": 2.0091067, "lon": 33.9749835, "tags": {"building": "yes", "name": "Ogetoma", "place": "village", "source": "Ubos_2014"}}, {"type": "node", "id": 10586736863, "lat": 2.0024078, "lon": 33.967549, "tags": {"building": "yes", "name": "Usuk Trc East", "place": "village", "source": "Ubos_2014"}}, {"type": "node", "id": 10586736864, "lat": 2.0028187, "lon": 33.9627674, "tags": {"building": "yes", "name": "Usuk Trc West", "place": "village", "source": "Ubos_2014"}}, {"type": "node", "id": 10586736865, "lat": 2.0036377, "lon": 33.952753, "tags": {"building": "yes", "name": "Akisim(usuk)", "place": "village", "source": "Ubos_2014"}}, {"type": "node", "id": 10586736870, "lat": 2.0152853, "lon": 33.9990736, "tags": {"building": "yes", "name": "Otinda", "place": "village", "source": "Ubos_2014"}}, {"type": "node", "id": 10586736872, "lat": 2.0149731, "lon": 33.9840922, "tags": {"building": "yes", "name": "Adukait", "place": "village", "source": "Ubos_2014"}}, {"type": "node", "id": 10586736874, "lat": 2.011111, "lon": 34.0864984, "tags": {"building": "yes", "name": "Ameritele", "place": "village", "source": "Ubos_2014"}}, {"type": "node", "id": 10586736881, "lat": 2.0167935, "lon": 33.9605368, "tags": {"building": "yes", "name": "Ameca", "place": "village", "source": "Ubos_2014"}}, {"type": "node", "id": 10586736885, "lat": 1.9729669, "lon": 34.0249695, "tags": {"building": "yes", "name": "Osudio", "place": "village", "source": "Ubos_2014"}}, {"type": "node", "id": 10586736886, "lat": 1.9587681, "lon": 34.0212427, "tags": {"building": "yes", "name": "Aparisia (cheleuko)", "place": "village", "source": "Ubos_2014"}}, {"type": "node", "id": 10586736893, "lat": 1.9895974, "lon": 34.0923183, "tags": {"building": "yes", "name": "Amukurat", "place": "village", "source": "Ubos_2014"}}, {"type": "node", "id": 10586736894, "lat": 1.9823037, "lon": 34.0536187, "tags": {"building": "yes", "name": "Apuutonokinyang(aakum)", "place": "village", "source": "Ubos_2014"}}, {"type": "node", "id": 10586736895, "lat": 1.9735395, "lon": 34.0727125, "tags": {"building": "yes", "name": "Apuuton(aakum)", "place": "village", "source": "Ubos_2014"}}, {"type": "node", "id": 10586736896, "lat": 1.9603221, "lon": 34.0596774, "tags": {"building": "yes", "name": "Toibong", "place": "village", "source": "Ubos_2014"}}, {"type": "node", "id": 10586736897, "lat": 1.9952125, "lon": 34.0467686, "tags": {"building": "yes", "name": "Achanga", "place": "village", "source": "Ubos_2014"}}, {"type": "node", "id": 10586736898, "lat": 1.9411509, "lon": 34.0361416, "tags": {"building": "yes", "name": "Oitela", "place": "village", "source": "Ubos_2014"}}, {"type": "node", "id": 10586812215, "lat": 1.7555287, "lon": 33.9497011, "tags": {"building": "yes", "name": "Epaku", "place": "village", "source": "Ubos_2014"}}, {"type": "node", "id": 10586812216, "lat": 1.7484979, "lon": 33.9526743, "tags": {"building": "yes", "name": "Senior Quarters", "place": "village", "source": "Ubos_2014"}}, {"type": "node", "id": 10586812217, "lat": 1.7392278, "lon": 33.9552511, "tags": {"building": "yes", "name": "Toroma Obungut", "place": "village", "source": "Ubos_2014"}}, {"type": "node", "id": 10586812218, "lat": 1.7505328, "lon": 33.9559188, "tags": {"building": "yes", "name": "Kk Cell", "place": "village", "source": "Ubos_2014"}}, {"type": "node", "id": 10586812219, "lat": 1.7566188, "lon": 33.9581477, "tags": {"building": "yes", "name": "Majengo", "place": "village", "source": "Ubos_2014"}}, {"type": "node", "id": 10586812220, "lat": 1.7503174, "lon": 33.9537787, "tags": {"building": "yes", "name": "Tr Cell", "place": "village", "source": "Ubos_2014"}}, {"type": "node", "id": 10586812221, "lat": 1.7510541, "lon": 33.9630646, "tags": {"building": "yes", "name": "Toroma Tc", "place": "village", "source": "Ubos_2014"}}, {"type": "node", "id": 10586812222, "lat": 1.7569914, "lon": 33.9540493, "tags": {"building": "yes", "name": "Aburosinge (toroma)", "place": "village", "source": "Ubos_2014"}}, {"type": "node", "id": 10586812223, "lat": 1.7139662, "lon": 33.9939251, "tags": {"building": "yes", "name": "Munyanga", "place": "village", "source": "Ubos_2014"}}, {"type": "node", "id": 10586812224, "lat": 1.73804, "lon": 33.9666408, "tags": {"building": "yes", "name": "Obobore", "place": "village", "source": "Ubos_2014"}}, {"type": "node", "id": 10586812225, "lat": 1.6905772, "lon": 33.969595, "tags": {"building": "yes", "name": "Onyurutu Fr", "place": "village", "source": "Ubos_2014"}}, {"type": "node", "id": 10586812226, "lat": 1.697171, "lon": 34.0153089, "tags": {"building": "yes", "name": "Odokuna", "place": "village", "source": "Ubos_2014"}}, {"type": "node", "id": 10586812227, "lat": 1.7200273, "lon": 34.0033029, "tags": {"building": "yes", "name": "Asinge", "place": "village", "source": "Ubos_2014"}}, {"type": "node", "id": 10586812228, "lat": 1.7057144, "lon": 34.025231, "tags": {"building": "yes", "name": "Angiriny", "place": "village", "source": "Ubos_2014"}}, {"type": "node", "id": 10586812229, "lat": 1.7384102, "lon": 33.9955874, "tags": {"building": "yes", "name": "Adapur", "place": "village", "source": "Ubos_2014"}}, {"type": "node", "id": 10586812230, "lat": 1.7030568, "lon": 33.9770293, "tags": {"building": "yes", "name": "Ongatunyo Agule", "place": "village", "source": "Ubos_2014"}}, {"type": "node", "id": 10586812231, "lat": 1.6803397, "lon": 33.9875565, "tags": {"building": "yes", "name": "Olupe(ominya)", "place": "village", "source": "Ubos_2014"}}, {"type": "node", "id": 10586812232, "lat": 1.6699341, "lon": 34.0101694, "tags": {"building": "yes", "name": "Agule(ominya)", "place": "village", "source": "Ubos_2014"}}, {"type": "node", "id": 10586812233, "lat": 1.6965594, "lon": 33.9937007, "tags": {"building": "yes", "name": "Akwakel", "place": "village", "source": "Ubos_2014"}}, {"type": "node", "id": 10586812234, "lat": 1.6821649, "lon": 33.9787664, "tags": {"building": "yes", "name": "Kangaida", "place": "village", "source": "Ubos_2014"}}, {"type": "node", "id": 10586812235, "lat": 1.7125266, "lon": 33.9558093, "tags": {"building": "yes", "name": "Ongokia", "place": "village", "source": "Ubos_2014"}}, {"type": "node", "id": 10586812236, "lat": 1.714573, "lon": 33.9756287, "tags": {"building": "yes", "name": "Ongatunyo Ominya", "place": "village", "source": "Ubos_2014"}}, {"type": "node", "id": 10586812237, "lat": 1.726984, "lon": 33.9568103, "tags": {"building": "yes", "name": "Ominya", "place": "village", "source": "Ubos_2014"}}, {"type": "node", "id": 10586812238, "lat": 1.7235767, "lon": 33.9678087, "tags": {"building": "yes", "name": "Sudan", "place": "village", "source": "Ubos_2014"}}, {"type": "node", "id": 10586812239, "lat": 1.7367868, "lon": 33.9786383, "tags": {"building": "yes", "name": "Morunyang", "place": "village", "source": "Ubos_2014"}}, {"type": "node", "id": 10586812240, "lat": 1.7514458, "lon": 33.9766842, "tags": {"building": "yes", "name": "Omiroo", "place": "village", "source": "Ubos_2014"}}, {"type": "node", "id": 10586812241, "lat": 1.7266451, "lon": 33.9882988, "tags": {"building": "yes", "name": "Akisim(apuuton)", "place": "village", "source": "Ubos_2014"}}, {"type": "node", "id": 10586812242, "lat": 1.7298466, "lon": 34.0134336, "tags": {"building": "yes", "name": "Olet", "place": "village", "source": "Ubos_2014"}}, {"type": "node", "id": 10586812243, "lat": 1.6508874, "lon": 33.944704, "tags": {"building": "yes", "name": "Magara", "place": "village", "source": "Ubos_2014"}}, {"type": "node", "id": 10586812244, "lat": 1.6897567, "lon": 33.9518451, "tags": {"building": "yes", "name": "Aler", "place": "village", "source": "Ubos_2014"}}, {"type": "node", "id": 10586812245, "lat": 1.6521432, "lon": 33.9763072, "tags": {"building": "yes", "name": "Ajeles", "place": "village", "source": "Ubos_2014"}}, {"type": "node", "id": 10586812246, "lat": 1.674384, "lon": 33.9437181, "tags": {"building": "yes", "name": "Akurao", "place": "village", "source": "Ubos_2014"}}, {"type": "node", "id": 10586812247, "lat": 1.6851859, "lon": 33.9655955, "tags": {"building": "yes", "name": "Onyurutu", "place": "village", "source": "Ubos_2014"}}, {"type": "node", "id": 10586831201, "lat": 2.0120657, "lon": 34.1087112, "tags": {"building": "yes", "name": "Osiomit", "place": "village", "source": "Ubos_2014"}}, {"type": "node", "id": 10586831202, "lat": 1.8631939, "lon": 34.0801411, "tags": {"building": "yes", "name": "Apeleun (bisina)", "place": "village", "source": "Ubos_2014"}}, {"type": "node", "id": 10586831203, "lat": 1.8134286, "lon": 34.172308, "tags": {"building": "yes", "name": "Ogugut", "place": "village", "source": "Ubos_2014"}}, {"type": "node", "id": 10586831204, "lat": 1.7895928, "lon": 34.1610716, "tags": {"building": "yes", "name": "Rwemi", "place": "village", "source": "Ubos_2014"}}, {"type": "node", "id": 10586831930, "lat": 1.8038164, "lon": 33.9964119, "tags": {"name": "Napakol", "place": "village", "source": "Ubos_2014"}}, {"type": "node", "id": 10586831931, "lat": 1.8313386, "lon": 34.0016151, "tags": {"name": "Akoboi(omodoi)", "place": "village", "source": "Ubos_2014"}}, {"type": "node", "id": 10586831932, "lat": 1.8098704, "lon": 34.0297229, "tags": {"name": "Atirir", "place": "village", "source": "Ubos_2014"}}, {"type": "node", "id": 10586831933, "lat": 1.7896956, "lon": 34.0109344, "tags": {"name": "Aboloi", "place": "village", "source": "Ubos_2014"}}, {"type": "node", "id": 10586831934, "lat": 1.8297707, "lon": 34.0258738, "tags": {"name": "Apeleun (omodoi)", "place": "village", "source": "Ubos_2014"}}, {"type": "node", "id": 10586831935, "lat": 1.7663804, "lon": 33.9498222, "tags": {"name": "Okeresio", "place": "village", "source": "Ubos_2014"}}, {"type": "node", "id": 10586831936, "lat": 1.7662978, "lon": 33.9604375, "tags": {"name": "Moru B", "place": "village", "source": "Ubos_2014"}}, {"type": "node", "id": 10586831937, "lat": 1.7773229, "lon": 33.9502536, "tags": {"name": "Atete", "place": "village", "source": "Ubos_2014"}}, {"type": "node", "id": 10586831938, "lat": 1.8039473, "lon": 33.978336, "tags": {"name": "Adugulu", "place": "village", "source": "Ubos_2014"}}, {"type": "node", "id": 10586831939, "lat": 1.7914931, "lon": 33.9643218, "tags": {"name": "Amukurat(aparisia)", "place": "village", "source": "Ubos_2014"}}, {"type": "node", "id": 10586831940, "lat": 1.8027727, "lon": 33.9603024, "tags": {"name": "Otuko (aparisia)", "place": "village", "source": "Ubos_2014"}}, {"type": "node", "id": 10586831941, "lat": 1.795368, "lon": 33.9516748, "tags": {"name": "Acuna", "place": "village", "source": "Ubos_2014"}}, {"type": "node", "id": 10586831942, "lat": 1.8148695, "lon": 33.9712639, "tags": {"name": "Aparisia (aparisia)", "place": "village", "source": "Ubos_2014"}}, {"type": "node", "id": 10586831943, "lat": 1.8157029, "lon": 33.9579787, "tags": {"name": "Aguya", "place": "village", "source": "Ubos_2014"}}, {"type": "node", "id": 10586831944, "lat": 1.8260473, "lon": 33.965702, "tags": {"name": "Aparisia (aparisia)", "place": "village", "source": "Ubos_2014"}}, {"type": "node", "id": 10586831945, "lat": 1.8058478, "lon": 33.9868171, "tags": {"name": "Omodoi Central", "place": "village", "source": "Ubos_2014"}}, {"type": "node", "id": 10586831946, "lat": 1.8270619, "lon": 33.9884469, "tags": {"name": "Ocakatura", "place": "village", "source": "Ubos_2014"}}, {"type": "node", "id": 10586831948, "lat": 1.7675707, "lon": 34.0186291, "tags": {"name": "Okicira", "place": "village", "source": "Ubos_2014"}}, {"type": "node", "id": 10586831949, "lat": 1.7723385, "lon": 34.0438794, "tags": {"name": "Okile", "place": "village", "source": "Ubos_2014"}}, {"type": "node", "id": 10586831950, "lat": 1.7498879, "lon": 34.0182945, "tags": {"name": "Omaju", "place": "village", "source": "Ubos_2014"}}, {"type": "node", "id": 10586831951, "lat": 1.7263574, "lon": 34.0339636, "tags": {"name": "Agure (amusia)", "place": "village", "source": "Ubos_2014"}}, {"type": "node", "id": 10586831952, "lat": 1.8268855, "lon": 33.9789851, "tags": {"name": "Ocep", "place": "village", "source": "Ubos_2014"}}, {"type": "node", "id": 10586831958, "lat": 1.7606265, "lon": 33.9851237, "tags": {"name": "Omusungun", "place": "village", "source": "Ubos_2014"}}, {"type": "node", "id": 10586831959, "lat": 1.7753287, "lon": 33.9803844, "tags": {"name": "Ojijama", "place": "village", "source": "Ubos_2014"}}, {"type": "node", "id": 10586831960, "lat": 1.7621451, "lon": 33.9704407, "tags": {"name": "Orisai", "place": "village", "source": "Ubos_2014"}}, {"type": "node", "id": 10586831961, "lat": 1.7784427, "lon": 33.9687279, "tags": {"name": "Moru Complex", "place": "village", "source": "Ubos_2014"}}, {"type": "node", "id": 10586831962, "lat": 1.7571163, "lon": 33.9983374, "tags": {"name": "Omusungun B", "place": "village", "source": "Ubos_2014"}}, {"type": "node", "id": 10586831963, "lat": 1.7709675, "lon": 34.0003811, "tags": {"name": "Congo", "place": "village", "source": "Ubos_2014"}}, {"type": "node", "id": 10586831964, "lat": 1.7780279, "lon": 33.9963683, "tags": {"name": "Akisim(asuret)", "place": "village", "source": "Ubos_2014"}}, {"type": "node", "id": 10586831965, "lat": 1.7883617, "lon": 33.9836979, "tags": {"name": "Moru A(asuret)", "place": "village", "source": "Ubos_2014"}}, {"type": "node", "id": 10586831966, "lat": 1.7975632, "lon": 34.0390792, "tags": {"name": "Adokar(amusia)", "place": "village", "source": "Ubos_2014"}}, {"type": "node", "id": 10586879305, "lat": 1.775457, "lon": 34.1531394, "tags": {"building": "yes", "name": "Apeleun (pakwi)", "place": "village", "source": "Ubos_2014"}}, {"type": "node", "id": 10586879306, "lat": 1.8104662, "lon": 34.1317966, "tags": {"building": "yes", "name": "Special Area(pakwi)", "place": "village", "source": "Ubos_2014"}}, {"type": "node", "id": 10586879307, "lat": 1.7964902, "lon": 34.1675028, "tags": {"building": "yes", "name": "Amoo", "place": "village", "source": "Ubos_2014"}}, {"type": "node", "id": 10586879308, "lat": 1.7974656, "lon": 34.0986014, "tags": {"building": "yes", "name": "Akobo(ipakwi)", "place": "village", "source": "Ubos_2014"}}, {"type": "node", "id": 10586879309, "lat": 1.8114032, "lon": 34.1143413, "tags": {"building": "yes", "name": "Okibui (pakwi)", "place": "village", "source": "Ubos_2014"}}, {"type": "node", "id": 10586879310, "lat": 1.8064462, "lon": 34.1069082, "tags": {"building": "yes", "name": "Rwatama", "place": "village", "source": "Ubos_2014"}}, {"type": "node", "id": 10586879311, "lat": 1.7782472, "lon": 34.1074867, "tags": {"building": "yes", "name": "Adungulu", "place": "village", "source": "Ubos_2014"}}, {"type": "node", "id": 10586879312, "lat": 1.8108376, "lon": 34.091865, "tags": {"building": "yes", "name": "Alungar", "place": "village", "source": "Ubos_2014"}}, {"type": "node", "id": 10586879313, "lat": 1.8157368, "lon": 34.0885694, "tags": {"building": "yes", "name": "Akisim(bisina)", "place": "village", "source": "Ubos_2014"}}, {"type": "node", "id": 10586879314, "lat": 1.8266086, "lon": 34.119033, "tags": {"building": "yes", "name": "Opinanya", "place": "village", "source": "Ubos_2014"}}, {"type": "node", "id": 10586879315, "lat": 1.8256748, "lon": 34.1089514, "tags": {"building": "yes", "name": "Arukia", "place": "village", "source": "Ubos_2014"}}, {"type": "node", "id": 10586879316, "lat": 1.8353207, "lon": 34.1737753, "tags": {"building": "yes", "name": "Turukan", "place": "village", "source": "Ubos_2014"}}, {"type": "node", "id": 10586879317, "lat": 1.8302064, "lon": 34.1003778, "tags": {"building": "yes", "name": "Amoru(bisina)", "place": "village", "source": "Ubos_2014"}}, {"type": "node", "id": 10586879318, "lat": 1.8280771, "lon": 34.0870284, "tags": {"building": "yes", "name": "Akicira", "place": "village", "source": "Ubos_2014"}}, {"type": "node", "id": 10586879319, "lat": 1.8191607, "lon": 34.0749801, "tags": {"building": "yes", "name": "Ngero", "place": "village", "source": "Ubos_2014"}}, {"type": "node", "id": 10586879320, "lat": 1.834298, "lon": 34.0634158, "tags": {"building": "yes", "name": "Okuso", "place": "village", "source": "Ubos_2014"}}, {"type": "node", "id": 10586879321, "lat": 1.8450458, "lon": 34.07965, "tags": {"building": "yes", "name": "Apuuton(bisina)", "place": "village", "source": "Ubos_2014"}}, {"type": "node", "id": 10586879322, "lat": 1.8592954, "lon": 34.0639058, "tags": {"building": "yes", "name": "Agurur", "place": "village", "source": "Ubos_2014"}}, {"type": "node", "id": 10586879323, "lat": 1.8461243, "lon": 34.0517057, "tags": {"building": "yes", "name": "Olupe(bisina)", "place": "village", "source": "Ubos_2014"}}, {"type": "node", "id": 10586879324, "lat": 1.8469287, "lon": 34.0940903, "tags": {"building": "yes", "name": "Bisina", "place": "village", "source": "Ubos_2014"}}, {"type": "node", "id": 10586879325, "lat": 1.8432455, "lon": 34.1127425, "tags": {"building": "yes", "name": "Osobut", "place": "village", "source": "Ubos_2014"}}, {"type": "node", "id": 10586879326, "lat": 1.8514917, "lon": 34.1737478, "tags": {"building": "yes", "name": "Apuuton(kaikamosing)", "place": "village", "source": "Ubos_2014"}}, {"type": "node", "id": 10586879327, "lat": 1.8542542, "lon": 34.1211933, "tags": {"building": "yes", "name": "Apeleun (kaikamosing)", "place": "village", "source": "Ubos_2014"}}, {"type": "node", "id": 10586879328, "lat": 1.8597731, "lon": 34.1080787, "tags": {"building": "yes", "name": "Acegelekinei", "place": "village", "source": "Ubos_2014"}}, {"type": "node", "id": 10586879329, "lat": 1.8694549, "lon": 34.1765759, "tags": {"building": "yes", "name": "Adokar(kaikamosing)", "place": "village", "source": "Ubos_2014"}}, {"type": "node", "id": 10586879330, "lat": 1.8699994, "lon": 34.0365104, "tags": {"building": "yes", "name": "Okwamwomar", "place": "village", "source": "Ubos_2014"}}, {"type": "node", "id": 10586879331, "lat": 1.8898513, "lon": 34.165924, "tags": {"building": "yes", "name": "Kaikamosing", "place": "village", "source": "Ubos_2014"}}, {"type": "node", "id": 10586879332, "lat": 1.8762616, "lon": 34.0556875, "tags": {"building": "yes", "name": "Akosobwa", "place": "village", "source": "Ubos_2014"}}, {"type": "node", "id": 10586879333, "lat": 1.8859445, "lon": 34.0458697, "tags": {"building": "yes", "name": "Akosobwa", "place": "village", "source": "Ubos_2014"}}, {"type": "node", "id": 10586879334, "lat": 1.8865714, "lon": 34.067876, "tags": {"building": "yes", "name": "Akolikeje", "place": "village", "source": "Ubos_2014"}}, {"type": "node", "id": 10586879335, "lat": 1.8740447, "lon": 34.0989871, "tags": {"building": "yes", "name": "Okwee", "place": "village", "source": "Ubos_2014"}}, {"type": "node", "id": 10586879336, "lat": 1.8959295, "lon": 34.0813483, "tags": {"building": "yes", "name": "Atiira", "place": "village", "source": "Ubos_2014"}}, {"type": "node", "id": 10586879337, "lat": 1.8992828, "lon": 34.0343175, "tags": {"building": "yes", "name": "Tumtum", "place": "village", "source": "Ubos_2014"}}, {"type": "node", "id": 10586879338, "lat": 1.9133326, "lon": 34.0772599, "tags": {"building": "yes", "name": "Amiriai", "place": "village", "source": "Ubos_2014"}}, {"type": "node", "id": 10586879339, "lat": 1.9128334, "lon": 34.0606902, "tags": {"building": "yes", "name": "Opedongor", "place": "village", "source": "Ubos_2014"}}, {"type": "node", "id": 10586879340, "lat": 1.9218896, "lon": 34.0509365, "tags": {"building": "yes", "name": "Acoite", "place": "village", "source": "Ubos_2014"}}, {"type": "node", "id": 10586879341, "lat": 1.9117611, "lon": 34.121271, "tags": {"building": "yes", "name": "Ooloin", "place": "village", "source": "Ubos_2014"}}, {"type": "node", "id": 10586879342, "lat": 1.9162989, "lon": 34.1032636, "tags": {"building": "yes", "name": "Alengo", "place": "village", "source": "Ubos_2014"}}, {"type": "node", "id": 10586879343, "lat": 1.8941454, "lon": 34.0997499, "tags": {"building": "yes", "name": "Apuuton(ngariam)", "place": "village", "source": "Ubos_2014"}}, {"type": "node", "id": 10586879344, "lat": 1.9277471, "lon": 34.0877386, "tags": {"building": "yes", "name": "Acucu", "place": "village", "source": "Ubos_2014"}}, {"type": "node", "id": 10586879345, "lat": 1.9385789, "lon": 34.0670337, "tags": {"building": "yes", "name": "Akwarekia", "place": "village", "source": "Ubos_2014"}}, {"type": "node", "id": 10586879346, "lat": 1.9495509, "lon": 34.0830904, "tags": {"building": "yes", "name": "Amorwongora", "place": "village", "source": "Ubos_2014"}}, {"type": "node", "id": 10586879347, "lat": 1.9378282, "lon": 34.1704342, "tags": {"building": "yes", "name": "Oliangoi", "place": "village", "source": "Ubos_2014"}}, {"type": "node", "id": 10586879348, "lat": 1.9158398, "lon": 34.1767559, "tags": {"building": "yes", "name": "Orukurikio", "place": "village", "source": "Ubos_2014"}}, {"type": "node", "id": 10586879349, "lat": 1.9555074, "lon": 34.1765672, "tags": {"building": "yes", "name": "Otuko (acanga)", "place": "village", "source": "Ubos_2014"}}, {"type": "node", "id": 10586879350, "lat": 1.9185235, "lon": 34.037805, "tags": {"building": "yes", "name": "Akwaradada", "place": "village", "source": "Ubos_2014"}}, {"type": "node", "id": 10586879351, "lat": 1.9547723, "lon": 34.1216609, "tags": {"building": "yes", "name": "Aleles(acanga)", "place": "village", "source": "Ubos_2014"}}, {"type": "node", "id": 10586879352, "lat": 2.0017296, "lon": 34.1781984, "tags": {"building": "yes", "name": "Amuturo", "place": "village", "source": "Ubos_2014"}}, {"type": "node", "id": 10586879353, "lat": 1.9790841, "lon": 34.1317286, "tags": {"building": "yes", "name": "Oramun", "place": "village", "source": "Ubos_2014"}}, {"type": "node", "id": 10586879354, "lat": 1.9802248, "lon": 34.194376, "tags": {"building": "yes", "name": "Palam", "place": "village", "source": "Ubos_2014"}}, {"type": "node", "id": 10586879355, "lat": 1.9750777, "lon": 34.1117034, "tags": {"building": "yes", "name": "Arusiakan", "place": "village", "source": "Ubos_2014"}}, {"type": "node", "id": 10586879356, "lat": 2.0146046, "lon": 34.1693484, "tags": {"building": "yes", "name": "Aelenyang", "place": "village", "source": "Ubos_2014"}}, {"type": "node", "id": 10586879359, "lat": 1.9492856, "lon": 34.102086, "tags": {"building": "yes", "name": "Ngariam", "place": "village", "source": "Ubos_2014"}}, {"type": "node", "id": 10593656494, "lat": 1.9317734, "lon": 33.9520884, "tags": {"building": "yes", "name": "Aelenyang(aliakamer)", "place": "village", "source": "Ubos_2014"}}, {"type": "node", "id": 10593656495, "lat": 1.9261158, "lon": 33.9831606, "tags": {"building": "yes", "name": "Aburosinge(katakwi)", "place": "village", "source": "Ubos_2014"}}, {"type": "node", "id": 10593656496, "lat": 1.9169014, "lon": 33.9875862, "tags": {"building": "yes", "name": "Ocorimongin", "place": "village", "source": "Ubos_2014"}}, {"type": "node", "id": 10593656497, "lat": 1.9368433, "lon": 33.9728958, "tags": {"building": "yes", "name": "Aujongaba", "place": "village", "source": "Ubos_2014"}}, {"type": "node", "id": 10593656498, "lat": 1.9036533, "lon": 34.0014622, "tags": {"building": "yes", "name": "Agurigir", "place": "village", "source": "Ubos_2014"}}, {"type": "node", "id": 10593656499, "lat": 1.9022324, "lon": 33.9778503, "tags": {"building": "yes", "name": "Atekwa", "place": "village", "source": "Ubos_2014"}}, {"type": "node", "id": 10593656500, "lat": 1.8888617, "lon": 33.966478, "tags": {"building": "yes", "name": "Aleles(aleles)", "place": "village", "source": "Ubos_2014"}}, {"type": "node", "id": 10593656501, "lat": 1.8734801, "lon": 33.9656625, "tags": {"building": "yes", "name": "Moru Inyamat", "place": "village", "source": "Ubos_2014"}}, {"type": "node", "id": 10593656603, "lat": 1.9197121, "lon": 33.9609008}, {"type": "node", "id": 10593656604, "lat": 1.9255415, "lon": 33.9674255, "tags": {"building": "yes", "name": "Katakwi Central Forest Reserve", "place": "village", "source": "Ubos_2014"}}, {"type": "node", "id": 10593668105, "lat": 1.9417302, "lon": 33.9574651, "tags": {"building": "yes", "name": "Ajokopir", "place": "village", "source": "Ubos_2014"}}, {"type": "node", "id": 10593668106, "lat": 1.9723318, "lon": 33.9520347, "tags": {"building": "yes", "name": "Alogook", "place": "village", "source": "Ubos_2014"}}, {"type": "node", "id": 10593668107, "lat": 1.9573476, "lon": 33.9520242, "tags": {"building": "yes", "name": "Alogook", "place": "village", "source": "Ubos_2014"}}, {"type": "node", "id": 10593668112, "lat": 1.9191007, "lon": 34.0118847, "tags": {"building": "yes", "name": "Angobo", "place": "village", "source": "Ubos_2014"}}, {"type": "node", "id": 10593668113, "lat": 1.9445713, "lon": 34.0239259, "tags": {"building": "yes", "name": "Agurugur", "place": "village", "source": "Ubos_2014"}}, {"type": "node", "id": 10593668114, "lat": 1.944747, "lon": 33.993892, "tags": {"building": "yes", "name": "Apolin", "place": "village", "source": "Ubos_2014"}}, {"type": "node", "id": 10593668115, "lat": 1.9617095, "lon": 33.9762006, "tags": {"building": "yes", "name": "Olela", "place": "village", "source": "Ubos_2014"}}, {"type": "node", "id": 10593668116, "lat": 1.9738111, "lon": 33.9880903, "tags": {"building": "yes", "name": "Keelim", "place": "village", "source": "Ubos_2014"}}, {"type": "node", "id": 10593668117, "lat": 1.958522, "lon": 34.0036408, "tags": {"building": "yes", "name": "Aparisia (aparisia)", "place": "village", "source": "Ubos_2014"}}, {"type": "node", "id": 10593668118, "lat": 1.9302559, "lon": 33.9966632, "tags": {"building": "yes", "name": "Aburosinge(katakwi)", "place": "village", "source": "Ubos_2014"}}, {"type": "node", "id": 10593668119, "lat": 1.8951744, "lon": 33.9479061, "tags": {"building": "yes", "name": "Chele", "place": "village", "source": "Ubos_2014"}}, {"type": "node", "id": 10593668121, "lat": 1.8882098, "lon": 34.0081475, "tags": {"building": "yes", "name": "Oriau", "place": "village", "source": "Ubos_2014"}}, {"type": "node", "id": 10593668122, "lat": 1.8791246, "lon": 33.9810859, "tags": {"building": "yes", "name": "Acume", "place": "village", "source": "Ubos_2014"}}, {"type": "node", "id": 10593668123, "lat": 1.8530369, "lon": 34.0076537, "tags": {"building": "yes", "name": "Dadas", "place": "village", "source": "Ubos_2014"}}, {"type": "node", "id": 10593668124, "lat": 1.8431919, "lon": 33.9749347, "tags": {"building": "yes", "name": "Aterai(dadas)", "place": "village", "source": "Ubos_2014"}}, {"type": "node", "id": 10593668125, "lat": 1.8629149, "lon": 33.9811942, "tags": {"building": "yes", "name": "Akokoma", "place": "village", "source": "Ubos_2014"}}, {"type": "node", "id": 10593668126, "lat": 1.8314514, "lon": 33.9612952, "tags": {"building": "yes", "name": "Atuboi", "place": "village", "source": "Ubos_2014"}}, {"type": "node", "id": 10593668127, "lat": 1.8651856, "lon": 33.9618421, "tags": {"building": "yes", "name": "Akoboi(dadas)", "place": "village", "source": "Ubos_2014"}}, {"type": "node", "id": 10593668128, "lat": 1.8553966, "lon": 33.9700266, "tags": {"building": "yes", "name": "Okokoma", "place": "village", "source": "Ubos_2014"}}, {"type": "node", "id": 10593668130, "lat": 1.8714267, "lon": 34.0153009, "tags": {"building": "yes", "name": "Lalei(aleles)", "place": "village", "source": "Ubos_2014"}}, {"type": "node", "id": 10593668131, "lat": 1.8373202, "lon": 33.9541902, "tags": {"building": "yes", "name": "Amodingo", "place": "village", "source": "Ubos_2014"}}, {"type": "node", "id": 10593668132, "lat": 1.853538, "lon": 33.9555128, "tags": {"building": "yes", "name": "Akobo(ialukucok)", "place": "village", "source": "Ubos_2014"}}, {"type": "node", "id": 10593677805, "lat": 1.9098101, "lon": 33.9507484, "tags": {"building": "yes", "name": "Ajeluk Cell", "place": "village", "source": "Ubos_2014"}}, {"type": "node", "id": 10593677806, "lat": 1.908349, "lon": 33.9580553, "tags": {"building": "yes", "name": "Angopet Cell", "place": "village", "source": "Ubos_2014"}}, {"type": "node", "id": 10593677807, "lat": 1.912434, "lon": 33.958415}, {"type": "node", "id": 10593677808, "lat": 1.9140809, "lon": 33.9606783, "tags": {"building": "yes", "name": "Central Cell", "place": "village", "source": "Ubos_2014"}}, {"type": "node", "id": 10593677809, "lat": 1.9051003, "lon": 33.9546868, "tags": {"building": "yes", "name": "Pamba", "place": "village", "source": "Ubos_2014"}}, {"type": "node", "id": 10593677810, "lat": 1.9147686, "lon": 33.9553816, "tags": {"building": "yes", "name": "Katanga Cell", "place": "village", "source": "Ubos_2014"}}, {"type": "node", "id": 10593677811, "lat": 1.9166144, "lon": 33.9749998, "tags": {"building": "yes", "name": "Aleles Magoro", "place": "village", "source": "Ubos_2014"}}, {"type": "node", "id": 10593688746, "lat": 1.7183612, "lon": 34.1007265, "tags": {"building": "yes", "name": "Apeero", "place": "village", "source": "Ubos_2014"}}, {"type": "node", "id": 10593688747, "lat": 1.652683, "lon": 34.1095606, "tags": {"building": "yes", "name": "Agule(opeta)", "place": "village", "source": "Ubos_2014"}}, {"type": "node", "id": 10593688748, "lat": 1.6739069, "lon": 34.1051001, "tags": {"building": "yes", "name": "Lalei(opeta)", "place": "village", "source": "Ubos_2014"}}, {"type": "node", "id": 10593688749, "lat": 1.6801197, "lon": 34.1741134, "tags": {"building": "yes", "name": "Kide", "place": "village", "source": "Ubos_2014"}}, {"type": "node", "id": 10593688750, "lat": 1.6840142, "lon": 34.1079629, "tags": {"building": "yes", "name": "Kide", "place": "village", "source": "Ubos_2014"}}, {"type": "node", "id": 10593688751, "lat": 1.6845514, "lon": 34.0984319, "tags": {"building": "yes", "name": "Akisim(opeta)", "place": "village", "source": "Ubos_2014"}}, {"type": "node", "id": 10593688752, "lat": 1.6893727, "lon": 34.0800293, "tags": {"building": "yes", "name": "Apeleun (kamenu)", "place": "village", "source": "Ubos_2014"}}, {"type": "node", "id": 10593688753, "lat": 1.7218345, "lon": 34.1667967, "tags": {"building": "yes", "name": "Apeero", "place": "village", "source": "Ubos_2014"}}, {"type": "node", "id": 10593688754, "lat": 1.7038646, "lon": 34.1009962, "tags": {"building": "yes", "name": "Akwooro(magoro)", "place": "village", "source": "Ubos_2014"}}, {"type": "node", "id": 10593688755, "lat": 1.6964746, "lon": 34.1077363, "tags": {"building": "yes", "name": "Kanapa", "place": "village", "source": "Ubos_2014"}}, {"type": "node", "id": 10593688756, "lat": 1.7024785, "lon": 34.1680728, "tags": {"building": "yes", "name": "Kanapa", "place": "village", "source": "Ubos_2014"}}, {"type": "node", "id": 10593688757, "lat": 1.6927927, "lon": 34.1021158, "tags": {"building": "yes", "name": "Akwooro(magoro)", "place": "village", "source": "Ubos_2014"}}, {"type": "node", "id": 10593688758, "lat": 1.7283747, "lon": 34.123705, "tags": {"building": "yes", "name": "Ajamaka", "place": "village", "source": "Ubos_2014"}}, {"type": "node", "id": 10593688759, "lat": 1.737092, "lon": 34.1643584, "tags": {"building": "yes", "name": "Atom", "place": "village", "source": "Ubos_2014"}}, {"type": "node", "id": 10593688760, "lat": 1.7375322, "lon": 34.1019574, "tags": {"building": "yes", "name": "Angaro", "place": "village", "source": "Ubos_2014"}}, {"type": "node", "id": 10593688761, "lat": 1.6634476, "lon": 34.0846626, "tags": {"building": "yes", "name": "Akisim(opeta)", "place": "village", "source": "Ubos_2014"}}, {"type": "node", "id": 10593688762, "lat": 1.6659712, "lon": 34.068665, "tags": {"building": "yes", "name": "Obwokomor", "place": "village", "source": "Ubos_2014"}}, {"type": "node", "id": 10593688763, "lat": 1.6835892, "lon": 34.0585883, "tags": {"building": "yes", "name": "Okorio", "place": "village", "source": "Ubos_2014"}}, {"type": "node", "id": 10593688764, "lat": 1.6917531, "lon": 34.0503965, "tags": {"building": "yes", "name": "Kamenu", "place": "village", "source": "Ubos_2014"}}, {"type": "node", "id": 10593688765, "lat": 1.7011672, "lon": 34.0918183, "tags": {"building": "yes", "name": "Apuuton(kamenu)", "place": "village", "source": "Ubos_2014"}}, {"type": "node", "id": 10593688766, "lat": 1.7112582, "lon": 34.0798172, "tags": {"building": "yes", "name": "Agiritom", "place": "village", "source": "Ubos_2014"}}, {"type": "node", "id": 10593688767, "lat": 1.728208, "lon": 34.0788031, "tags": {"building": "yes", "name": "Aleles(kamenu)", "place": "village", "source": "Ubos_2014"}}, {"type": "node", "id": 10593688768, "lat": 1.729368, "lon": 34.0906634, "tags": {"building": "yes", "name": "Magoro Trc", "place": "village", "source": "Ubos_2014"}}, {"type": "node", "id": 10593688769, "lat": 1.7410727, "lon": 34.0782295, "tags": {"building": "yes", "name": "Orimau A", "place": "village", "source": "Ubos_2014"}}, {"type": "node", "id": 10593688770, "lat": 1.7518718, "lon": 34.109272, "tags": {"building": "yes", "name": "Oolir", "place": "village", "source": "Ubos_2014"}}, {"type": "node", "id": 10593688771, "lat": 1.7604246, "lon": 34.1784062, "tags": {"building": "yes", "name": "Oolir", "place": "village", "source": "Ubos_2014"}}, {"type": "node", "id": 10593688772, "lat": 1.7518311, "lon": 34.0897892, "tags": {"building": "yes", "name": "Ariau A", "place": "village", "source": "Ubos_2014"}}, {"type": "node", "id": 10593688773, "lat": 1.6680326, "lon": 34.0434419, "tags": {"building": "yes", "name": "Okorio", "place": "village", "source": "Ubos_2014"}}, {"type": "node", "id": 10593688774, "lat": 1.767989, "lon": 34.1033638, "tags": {"building": "yes", "name": "Kipinyang", "place": "village", "source": "Ubos_2014"}}, {"type": "node", "id": 10593688775, "lat": 1.7740897, "lon": 34.0863643, "tags": {"building": "yes", "name": "Oriu B", "place": "village", "source": "Ubos_2014"}}, {"type": "node", "id": 10593688776, "lat": 1.7897989, "lon": 34.0787179, "tags": {"building": "yes", "name": "Ariau B", "place": "village", "source": "Ubos_2014"}}, {"type": "node", "id": 10593688777, "lat": 1.7888508, "lon": 34.0892443, "tags": {"building": "yes", "name": "Adurukoi(omasai)", "place": "village", "source": "Ubos_2014"}}, {"type": "node", "id": 10593688778, "lat": 1.8065599, "lon": 34.0649776, "tags": {"building": "yes", "name": "Kiiya", "place": "village", "source": "Ubos_2014"}}, {"type": "node", "id": 10758797615, "lat": 1.912451, "lon": 33.9585489}, {"type": "node", "id": 10758797616, "lat": 1.9124676, "lon": 33.9585333}, {"type": "node", "id": 10758797617, "lat": 1.9125445, "lon": 33.9586484}, {"type": "node", "id": 10758797618, "lat": 1.912561, "lon": 33.9586328}, {"type": "node", "id": 10758797619, "lat": 1.9123432, "lon": 33.9585004}, {"type": "node", "id": 10758797620, "lat": 1.9125115, "lon": 33.9586794}, {"type": "node", "id": 10758797621, "lat": 1.9126022, "lon": 33.9585941}, {"type": "node", "id": 10758825066, "lat": 1.9196362, "lon": 33.9609203}, {"type": "node", "id": 10758825067, "lat": 1.9195883, "lon": 33.9609438}, {"type": "node", "id": 10758825068, "lat": 1.9195952, "lon": 33.9609579}, {"type": "node", "id": 10758825069, "lat": 1.9196432, "lon": 33.9609345}, {"type": "node", "id": 10758825070, "lat": 1.9196167, "lon": 33.9610202}, {"type": "node", "id": 10758825071, "lat": 1.9196813, "lon": 33.9609886}, {"type": "node", "id": 10758825072, "lat": 1.9196631, "lon": 33.961115}, {"type": "node", "id": 10758825073, "lat": 1.9197277, "lon": 33.9610834}, {"type": "node", "id": 10758825074, "lat": 1.9195218, "lon": 33.9609939}, {"type": "node", "id": 10758825075, "lat": 1.9195968, "lon": 33.9611474}, {"type": "node", "id": 10758825076, "lat": 1.9197872, "lon": 33.9610543}, {"type": "node", "id": 10926668918, "lat": 1.8600336, "lon": 34.3285027, "tags": {"name": "Pian Upe Game Reserve", "place": "village", "source": "Ubos_2021"}}, {"type": "node", "id": 10926668946, "lat": 1.7499856, "lon": 34.3173429, "tags": {"name": "Akinawari", "place": "village", "source": "Ubos_2021"}}, {"type": "node", "id": 11043721934, "lat": 1.998077, "lon": 34.2934796, "tags": {"name": "Nacoria", "place": "village", "source": "UBOS-2014"}}, {"type": "node", "id": 11043721935, "lat": 2.007341, "lon": 34.2605206, "tags": {"name": "Makok", "place": "village", "source": "UBOS-2014"}}, {"type": "node", "id": 11043721937, "lat": 1.9483247, "lon": 34.2649838, "tags": {"name": "Naminit", "place": "village", "source": "UBOS-2014"}}, {"type": "way", "id": 1156934965, "nodes": [10593656603, 10758825076, 10758825073, 10758825071, 10758825070, 10758825072, 10758825075, 10758825074, 10758825068, 10758825067, 10758825066, 10758825069, 10593656603], "tags": {"building": "yes", "name": "Special Area(northern Ward)", "place": "village", "source": "Ubos_2014"}}, {"type": "way", "id": 1156935393, "nodes": [10593677807, 10758797621, 10758797618, 10758797616, 10758797615, 10758797617, 10758797620, 10758797619, 10593677807], "tags": {"building": "yes", "name": "Angopet Cell", "place": "village", "source": "Ubos_2014"}}]}