{"version": 0.6, "generator": "Overpass API 0.7.61.5 4133829e", "osm3s": {"timestamp_osm_base": "2024-03-06T11:16:45Z", "copyright": "The data included in this document is from www.openstreetmap.org. The data is made available under ODbL."}, "elements": [{"type": "node", "id": 117585516, "lat": 30.5429486, "lon": 47.8239074, "tags": {"source": "Landsat imagery"}}, {"type": "node", "id": 237489444, "lat": 30.3917664, "lon": 47.7027042, "tags": {"capital": "6", "int_name": "Al Zubayr - \u0627\u0644\u0632\u0628\u064a\u0631", "name": "\u0627\u0644\u0632\u0628\u064a\u0631", "name:ar": "\u0627\u0644\u0632\u0628\u064a\u0631", "name:de": "Zubair", "name:en": "Az Zubayr", "name:es": "Az Zubayr", "name:et": "Az-Zubayr", "name:eu": "Zubair", "name:fa": "\u0632\u0628\u06cc\u0631", "name:fr": "Az Zubayr", "name:he": "\u05d0\u05dc \u05d6\u05d5\u05d1\u05d9\u05e8", "name:hr": "Az-Zubajr", "name:ja": "\u30ba\u30d0\u30a4\u30eb", "name:ml": "\u0d05\u0d7d-\u0d38\u0d41\u0d2c\u0d48\u0d7c", "name:pl": "Az-Zubajr", "name:ru": "\u042d\u0437-\u0417\u0443\u0431\u0430\u0439\u0440", "place": "city", "population": "370000", "population:date": "2014", "source:population": "https://ar.wikipedia.org/wiki/%D8%A7%D9%84%D8%B2%D8%A8%D9%8A%D8%B1_(%D8%A7%D9%84%D8%B9%D8%B1%D8%A7%D9%82)", "wikidata": "Q227509", "wikipedia": "en:Az Zubayr"}}, {"type": "node", "id": 297237681, "lat": 30.5143866, "lon": 47.7930571}, {"type": "node", "id": 428339490, "lat": 30.4952371, "lon": 47.8090981, "tags": {"alt_name:en": "Al Basrah", "capital": "4", "int_name": "Al- Basrah - \u0627\u0644\u0628\u0635\u0631\u0629", "name": "\u0627\u0644\u0628\u0635\u0631\u0629", "name:ar": "\u0628\u0635\u0631\u0629", "name:ckb": "\u0628\u06d5\u0633\u0631\u06d5", "name:cs": "Basra", "name:de": "Basra", "name:el": "\u0392\u03b1\u03c3\u03cc\u03c1\u03b1", "name:en": "Basra", "name:es": "Basora", "name:et": "Basra", "name:eu": "Basra", "name:fa": "\u0628\u0635\u0631\u0647", "name:fi": "Basra", "name:fr": "Bassorah", "name:he": "\u05d1\u05e6\u05e8\u05d4", "name:hi": "\u092c\u0938\u0930\u093e", "name:hr": "Basra", "name:hu": "Baszra", "name:it": "B\u00e0ssora", "name:ja": "\u30d0\u30b9\u30e9", "name:ku": "Besre", "name:ml": "\u0d2c\u0d38\u0d31", "name:pl": "Basra", "name:pt": "Ba\u00e7or\u00e1", "name:ru": "\u0411\u0430\u0441\u0440\u0430", "name:sk": "Basra", "name:te": "\u0c2c\u0c38\u0c4d\u0c30\u0c3e\u0c39\u0c4d", "name:tr": "Basra", "name:tt": "\u0411\u04d9\u0441\u0440\u04d9", "name:uk": "\u0411\u0430\u0441\u0440\u0430", "place": "city", "population": "2150000", "wikidata": "Q48195", "wikipedia": "en:Basra"}}, {"type": "node", "id": 608486818, "lat": 30.498637, "lon": 47.7948}, {"type": "node", "id": 608486861, "lat": 30.4979309, "lon": 47.7915299}, {"type": "node", "id": 608486893, "lat": 30.4954216, "lon": 47.7849255}, {"type": "node", "id": 608486913, "lat": 30.4952053, "lon": 47.7850747}, {"type": "node", "id": 608497405, "lat": 30.4959431, "lon": 47.7846}, {"type": "node", "id": 608497408, "lat": 30.4968856, "lon": 47.7840019}, {"type": "node", "id": 608497411, "lat": 30.497376, "lon": 47.7836622}, {"type": "node", "id": 608497414, "lat": 30.4997509, "lon": 47.7820753}, {"type": "node", "id": 608497417, "lat": 30.5034424, "lon": 47.779627}, {"type": "node", "id": 608497420, "lat": 30.5070782, "lon": 47.7771956}, {"type": "node", "id": 608497449, "lat": 30.4836139, "lon": 47.7919499}, {"type": "node", "id": 608497483, "lat": 30.4839782, "lon": 47.7926239}, {"type": "node", "id": 608497484, "lat": 30.4884312, "lon": 47.7895884}, {"type": "node", "id": 608497485, "lat": 30.4909875, "lon": 47.7878957}, {"type": "node", "id": 608553472, "lat": 30.4873126, "lon": 47.7992754}, {"type": "node", "id": 608553493, "lat": 30.4926112, "lon": 47.7920791}, {"type": "node", "id": 608553495, "lat": 30.492843, "lon": 47.7926748}, {"type": "node", "id": 608553496, "lat": 30.4937427, "lon": 47.7949866}, {"type": "node", "id": 608553518, "lat": 30.4891456, "lon": 47.798054}, {"type": "node", "id": 610514719, "lat": 30.4878276, "lon": 47.7900114}, {"type": "node", "id": 610514730, "lat": 30.4919769, "lon": 47.7904494}, {"type": "node", "id": 610514797, "lat": 30.4842741, "lon": 47.7932142}, {"type": "node", "id": 610514808, "lat": 30.4865129, "lon": 47.7909036}, {"type": "node", "id": 610515115, "lat": 30.4991617, "lon": 47.7824829}, {"type": "node", "id": 610516704, "lat": 30.5040805, "lon": 47.7792072}, {"type": "node", "id": 610516709, "lat": 30.5060283, "lon": 47.7779032}, {"type": "node", "id": 610516767, "lat": 30.5095382, "lon": 47.782183}, {"type": "node", "id": 610520448, "lat": 30.4787052, "lon": 47.7821239}, {"type": "node", "id": 610921277, "lat": 30.5184753, "lon": 47.7698738}, {"type": "node", "id": 610927624, "lat": 30.528556, "lon": 47.7868411}, {"type": "node", "id": 610933654, "lat": 30.5357998, "lon": 47.7922941}, {"type": "node", "id": 610945253, "lat": 30.5283503, "lon": 47.7865791}, {"type": "node", "id": 610945254, "lat": 30.5307531, "lon": 47.7841973}, {"type": "node", "id": 610945259, "lat": 30.5270149, "lon": 47.7878249}, {"type": "node", "id": 610945264, "lat": 30.5338396, "lon": 47.7851414}, {"type": "node", "id": 611475452, "lat": 30.511715, "lon": 47.7854108}, {"type": "node", "id": 611475458, "lat": 30.4985455, "lon": 47.7927952}, {"type": "node", "id": 611876764, "lat": 30.4984826, "lon": 47.794153}, {"type": "node", "id": 611876871, "lat": 30.5009452, "lon": 47.8006499}, {"type": "node", "id": 611887780, "lat": 30.5199702, "lon": 47.7775855}, {"type": "node", "id": 1874733932, "lat": 30.4987993, "lon": 47.7953733}, {"type": "node", "id": 1874733934, "lat": 30.4985437, "lon": 47.7944468}, {"type": "node", "id": 1874733935, "lat": 30.498357, "lon": 47.7936093}, {"type": "node", "id": 2487905893, "lat": 30.780377, "lon": 47.636888, "tags": {"alt_name": "\u0623\u0628\u0648 \u063a\u0631\u0628", "int_name": "Ab\u016b Gharb, \u0627\u0628\u0648 \u063a\u0631\u0628, Abu Gharb, \u0627\u0628\u0648 \u063a\u0631\u0628", "is_in": "Iraq , \u062c\u0645\u0647\u0648\u0631\u064a\u0629 \u0627\u0644\u0639\u0631\u0627\u0642", "name": "\u0623\u0628\u0648 \u063a\u0631\u0628", "name:ar": "\u0642\u0631\u064a\u0629 \u0627\u0644\u0628\u0639\u0627\u062c", "name:ar1": "\u0623\u0628\u0648 \u063a\u0631\u0628", "name:de": "Abu Gharb", "name:en": "Albaaj", "name:fr": "Albaaj", "name:ku": "Albaaj", "place": "village"}}, {"type": "node", "id": 2487905912, "lat": 30.7671188, "lon": 47.6264259, "tags": {"alt_name": "\u0645\u0646\u0637\u0642\u0629 \u0627\u0644\u0646\u0647\u0631\u0648\u0627\u0646", "int_name": "Min\u0163aqat an Nahraw\u0101n, Mintaqat an Nahrawan", "is_in": "Iraq , \u062c\u0645\u0647\u0648\u0631\u064a\u0629 \u0627\u0644\u0639\u0631\u0627\u0642", "name": "\u0645\u0646\u0637\u0642\u0629 \u0627\u0644\u0646\u0647\u0631\u0648\u0627\u0646", "name:ar": "\u0645\u0646\u0637\u0642\u0629 \u0627\u0644\u0646\u0647\u0631\u0627\u0646", "name:ar1": "\u0645\u0646\u0637\u0642\u0629 \u0627\u0644\u0646\u0647\u0631\u0648\u0627\u0646", "name:de": "Mintaqat an Nahrawan", "name:en": "Mintaqat an Nahrawan", "name:fr": "Mintaqat an Nahrawan", "place": "village"}}, {"type": "node", "id": 2487905949, "lat": 30.772185, "lon": 47.649472, "tags": {"alt_name": "\u0642\u0631\u064a\u0629 \u0633\u064a\u062f \u0645\u0634\u064a\u062d", "int_name": "Qaryat Sayyid Mush\u012b\u1e29, \u0642\u0631\u064a\u0629 \u0633\u064a\u062f \u0645\u0634\u064a\u062d, Qaryat Sayyid Mushih, \u0642\u0631\u064a\u0629 \u0633\u064a\u062f \u0645\u0634\u064a\u062d", "name": "\u0642\u0631\u064a\u0629 \u0633\u064a\u062f \u0645\u0634\u064a\u062d", "name:ar": "\u0642\u0631\u064a\u0629 \u0627\u0644\u0628\u0648\u0645\u0634\u064a\u062d", "name:ar1": "\u0642\u0631\u064a\u0629 \u0633\u064a\u062f \u0645\u0634\u064a\u062d", "name:de": "Qaryat Sayyid Mushih", "name:en": "Qaryat Albomshih", "name:fr": "Qaryat Sayyid Mushih", "place": "village"}}, {"type": "node", "id": 2487913436, "lat": 30.575278, "lon": 47.785556, "tags": {"alt_name": "\u0623\u0628\u0648 \u0628\u0634\u064a\u0631", "int_name": "Al Fayhaa", "is_in": "Iraq , \u062c\u0645\u0647\u0648\u0631\u064a\u0629 \u0627\u0644\u0639\u0631\u0627\u0642", "name": "\u0623\u0628\u0648 \u0628\u0634\u064a\u0631", "name:ar": "\u0627\u0644\u0641\u06cc\u062d\u0627\u0621", "name:ar1": "\u0623\u0628\u0648 \u0628\u0634\u064a\u0631", "name:de": "Al Fayhaw", "name:en": "Al Fayhaa", "name:fr": "Al Fayhaa", "place": "village"}}, {"type": "node", "id": 2487913440, "lat": 30.642682, "lon": 47.748352, "tags": {"alt_name": "\u0627\u0644\u0639\u0646\u0628\u0631\u064a", "int_name": "Al Anbar\u012b, \u0627\u0644\u0639\u0646\u0628\u0631\u064a, Al Anbari, \u0627\u0644\u0639\u0646\u0628\u0631\u064a", "is_in": "Iraq , \u062c\u0645\u0647\u0648\u0631\u064a\u0629 \u0627\u0644\u0639\u0631\u0627\u0642", "name": "\u0627\u0644\u0639\u0646\u0628\u0631\u064a", "name:ar": "\u0627\u0644\u0639\u0646\u0628\u0631\u064a", "name:ar1": "\u0627\u0644\u0639\u0646\u0628\u0631\u064a", "name:de": "Al Anbari", "name:en": "Al Anbari", "name:fr": "Al Anbari", "name:ku": "\u0628\u064a\u062a \u0627\u0628\u0648 \u0627\u064a\u0645\u0646", "place": "village"}}, {"type": "node", "id": 2487913443, "lat": 30.586446, "lon": 47.760937, "tags": {"alt_name": "\u0627\u0644\u0628\u062f\u0631\u0627\u0646", "int_name": "Al Badr\u0101n, \u0627\u0644\u0628\u062f\u0631\u0627\u0646, Al Badran, \u0627\u0644\u0628\u062f\u0631\u0627\u0646", "is_in": "Iraq , \u062c\u0645\u0647\u0648\u0631\u064a\u0629 \u0627\u0644\u0639\u0631\u0627\u0642", "name": "\u0627\u0644\u0628\u062f\u0631\u0627\u0646", "name:ar": "\u0627\u0644\u0628\u062f\u0631\u0627\u0646", "name:ar1": "\u0627\u0644\u0628\u062f\u0631\u0627\u0646", "name:de": "Al Badran", "name:en": "Al Badran", "name:fr": "Al Badran", "place": "town"}}, {"type": "node", "id": 2487913451, "lat": 30.718611, "lon": 47.720833, "tags": {"alt_name": "\u0647\u0631\u062b\u0629", "int_name": "Al H\u0101rithah, Hartha, Harthah, Al Harithah, Hartha, Harthah", "is_in": "Iraq , \u062c\u0645\u0647\u0648\u0631\u064a\u0629 \u0627\u0644\u0639\u0631\u0627\u0642", "name": "\u0647\u0627\u0631\u062b\u0647", "name:ar": "\u062d\u064a \u0627\u0644\u0639\u0627\u0645\u0644 \u062f\u0648\u0631 \u0645\u0639\u0645\u0644 \u0627\u0644\u0648\u0631\u0642", "name:ar1": "\u0647\u0631\u062b\u0629", "name:de": "Al Harithah", "name:en": "Al Harithah", "name:fr": "Al Harithah", "place": "village"}}, {"type": "node", "id": 2487913454, "lat": 30.6471426, "lon": 47.7470601, "tags": {"alt_name": "\u0627\u0644\u062d\u0632\u064a\u0628\u0629", "int_name": "Al \u1e28az\u012bbah, \u0627\u0644\u062d\u0632\u064a\u0628\u0629, Al Hazibah, \u0627\u0644\u062d\u0632\u064a\u0628\u0629", "is_in": "Iraq , \u062c\u0645\u0647\u0648\u0631\u064a\u0629 \u0627\u0644\u0639\u0631\u0627\u0642", "name": "\u0627\u0644\u062d\u0632\u064a\u0628\u0629", "name:ar": "\u0627\u0644\u062e\u0631\u064a\u0628\u0629", "name:ar1": "\u0627\u0644\u062d\u0632\u064a\u0628\u0629", "name:de": "Al Hazibah", "name:en": "Al Hazibah", "name:fr": "Al Hazibah", "place": "village"}}, {"type": "node", "id": 2487913458, "lat": 30.592783, "lon": 47.788423, "tags": {"alt_name": "\u0627\u0644\u062c\u0648\u064a\u0629", "int_name": "Al Jaw\u012byah, \u0627\u0644\u062c\u0648\u064a\u0629, Al Jawiyah, \u0627\u0644\u062c\u0648\u064a\u0629", "is_in": "Iraq , \u062c\u0645\u0647\u0648\u0631\u064a\u0629 \u0627\u0644\u0639\u0631\u0627\u0642", "name": "\u0627\u0644\u062c\u0648\u064a\u0629", "name:ar": "\u0627\u0644\u062c\u0648\u064a\u0645\u0647", "name:ar1": "\u0627\u0644\u062c\u0648\u064a\u0629", "name:de": "Al Jawiyah", "name:en": "Al Jawiyah", "name:fr": "Al Jawiyah", "place": "village"}}, {"type": "node", "id": 2487913472, "lat": 30.637118, "lon": 47.749759, "tags": {"alt_name": "\u0627\u0644\u0644\u0634\u0645\u0627\u0646", "int_name": "Al Lishm\u0101n, Al Mish\u0101n, Limshan, \u0627\u0644\u0644\u0634\u0645\u0627\u0646, Al Lishman, Al Mishan, Limshan, \u0627\u0644\u0644\u0634\u0645\u0627\u0646", "is_in": "Iraq , \u062c\u0645\u0647\u0648\u0631\u064a\u0629 \u0627\u0644\u0639\u0631\u0627\u0642", "name": "\u0627\u0644\u0644\u0634\u0645\u0627\u0646", "name:ar": "\u0627\u0644\u0645\u0634\u0627\u0646.\u0648\u0627\u0644\u0639\u0631\u0627\u0646", "name:ar1": "\u0627\u0644\u0644\u0634\u0645\u0627\u0646", "name:de": "Al Lishman", "name:en": "Al mshan", "name:fr": "Al Lishman", "place": "village"}}, {"type": "node", "id": 2487913476, "lat": 30.5564872, "lon": 47.7902642, "tags": {"alt_name": "\u0627\u0644\u0645\u0639\u0642\u0644", "int_name": "Al Maqil, Maqil, Magil, Magill, Makil, Margeel Port, Margil, \u0627\u0644\u0645\u0639\u0642\u0644, Al Maqil, Maqil, Magil, Magill, Makil, Margeel Port, Margil, \u0627\u0644\u0645\u0639\u0642\u0644", "is_in": "Iraq , \u062c\u0645\u0647\u0648\u0631\u064a\u0629 \u0627\u0644\u0639\u0631\u0627\u0642", "name": "\u0627\u0644\u0645\u0639\u0642\u0644", "name:ar": "\u0627\u0644\u0645\u0639\u0642\u0644", "name:ar1": "\u0627\u0644\u0645\u0639\u0642\u0644", "name:de": "Al Maqil", "name:en": "Al Maqil", "name:fr": "Al Maqil", "place": "village"}}, {"type": "node", "id": 2487913487, "lat": 30.581152, "lon": 47.784308, "tags": {"alt_name": "\u0627\u0644\u0633\u062f\u064a\u0629", "int_name": "As Sid\u012bah, \u0627\u0644\u0633\u062f\u064a\u0629, As Sidiah, \u0627\u0644\u0633\u062f\u064a\u0629", "is_in": "Iraq , \u062c\u0645\u0647\u0648\u0631\u064a\u0629 \u0627\u0644\u0639\u0631\u0627\u0642", "name": "\u0627\u0644\u0633\u062f\u064a\u0629", "name:ar1": "\u0627\u0644\u0633\u062f\u064a\u0629", "name:de": "As Sidiah", "name:en": "As Sidiah", "name:fr": "As Sidiah", "place": "village"}}, {"type": "node", "id": 2487913490, "lat": 30.67896, "lon": 47.771952, "tags": {"alt_name": "\u0628\u064a\u0648\u062a \u0628\u0627\u0628 \u062c\u0644\u064a\u0631", "int_name": "Bab al Jal\u012bya, B\u0101b Jal\u012b, B\u0101b Jal\u012byah, Buy\u016bt B\u0101b Jal\u012br, \u0628\u064a\u0648\u062a \u0628\u0627\u0628 \u062c\u0644\u064a\u0631, Bab al Jaliya, Bab Jali, Bab Jaliyah, Buyut Bab Jalir, \u0628\u064a\u0648\u062a \u0628\u0627\u0628 \u062c\u0644\u064a\u0631", "is_in": "Iraq , \u062c\u0645\u0647\u0648\u0631\u064a\u0629 \u0627\u0644\u0639\u0631\u0627\u0642", "name": "\u0628\u064a\u0648\u062a \u0628\u0627\u0628 \u062c\u0644\u064a\u0631", "name:ar": "\u0628\u064a\u0648\u062a \u0628\u0627\u0628 \u062c\u0644\u064a\u0639", "name:ar1": "\u0628\u064a\u0648\u062a \u0628\u0627\u0628 \u062c\u0644\u064a\u0631", "name:de": "Bab al Jaliya", "name:en": "Bab al Jaliya", "name:fr": "Bab al Jaliya", "place": "village"}}, {"type": "node", "id": 2487913511, "lat": 30.578611, "lon": 47.809722, "tags": {"alt_name": "\u0643\u0628\u0633\u064a", "int_name": "Chabaisi, Kabasi, Kib\u0101s\u012b, Chabaisi, Kabasi, Kibasi", "is_in": "Iraq , \u062c\u0645\u0647\u0648\u0631\u064a\u0629 \u0627\u0644\u0639\u0631\u0627\u0642", "name": "\u0627\u0644\u0643\u0628\u0627\u0633\u064a", "name:ar1": "\u0643\u0628\u0633\u064a", "name:de": "Chabaisi", "name:en": "Chabaisi", "name:fr": "Chabaisi", "place": "village"}}, {"type": "node", "id": 2487913532, "lat": 30.570833, "lon": 47.792222, "tags": {"alt_name": "\u0641\u064a\u0631\u0648\u0632\u064a\u0629", "int_name": "Fayr\u016bz\u012byah, Fir\u016bz\u012bya, F\u012br\u016bz\u012byah, Fayruziyah, Firuziya, Firuziyah", "is_in": "Iraq , \u062c\u0645\u0647\u0648\u0631\u064a\u0629 \u0627\u0644\u0639\u0631\u0627\u0642", "name": "\u0627\u0644\u0631\u0645\u0644\u0629", "name:ar": "\u0627\u0644\u0631\u0645\u0644\u0629", "name:ar1": "\u0641\u064a\u0631\u0648\u0632\u064a\u0629", "name:de": "Fayruziyah", "name:en": "Al Ramlla", "name:fr": "Fayruziyah", "place": "village"}}, {"type": "node", "id": 2487913661, "lat": 30.591259, "lon": 47.75892, "tags": {"alt_name": "\u0645\u0646\u0637\u0642\u0629 \u0627\u0644\u0637\u064a\u0641", "int_name": "Min\u0163aqah al \u0162\u012bf, Min\u0163aqat a\u0163 \u0162\u012bf, \u0645\u0646\u0637\u0642\u0629 \u0627\u0644\u0637\u064a\u0641, Mintaqah al Tif, Mintaqat at Tif, \u0645\u0646\u0637\u0642\u0629 \u0627\u0644\u0637\u064a\u0641", "is_in": "Iraq , \u062c\u0645\u0647\u0648\u0631\u064a\u0629 \u0627\u0644\u0639\u0631\u0627\u0642", "name": "\u0645\u0646\u0637\u0642\u0629 \u0627\u0644\u0635\u064a\u0646\u062e.", "name:ar": "\u0627\u0644\u0635\u064a\u0646\u062e", "name:ar1": "\u0645\u0646\u0637\u0642\u0629 \u0627\u0644\u0637\u064a\u0641", "name:de": "Mintaqah al Tif", "name:en": "Mintaqah al Latif", "name:fr": "Mintaqah al Tif", "place": "hamlet"}}, {"type": "node", "id": 2487913717, "lat": 30.5915211, "lon": 47.7537301, "tags": {"alt_name": "\u0646\u0627\u062d\u064a\u0629 \u0627\u0644\u0643\u0631\u0645\u0629", "int_name": "N\u0101\u1e29iyat al Karmah, \u0646\u0627\u062d\u064a\u0629 \u0627\u0644\u0643\u0631\u0645\u0629, Nahiyat al Karmah, \u0646\u0627\u062d\u064a\u0629 \u0627\u0644\u0643\u0631\u0645\u0629", "is_in": "Iraq , \u062c\u0645\u0647\u0648\u0631\u064a\u0629 \u0627\u0644\u0639\u0631\u0627\u0642", "name": "\u0646\u0627\u062d\u064a\u0629 \u0627\u0644\u0643\u0631\u0645\u0629", "name:ar": "\u0627\u0644\u0644\u0637\u064a\u0641", "name:ar1": "\u0646\u0627\u062d\u064a\u0629 \u0627\u0644\u0643\u0631\u0645\u0629", "name:de": "Nahiyat al Karmah", "name:en": "Nahiyat al Karmah", "name:fr": "Nahiyat al Karmah", "place": "village"}}, {"type": "node", "id": 2487913887, "lat": 30.714731, "lon": 47.722819, "tags": {"alt_name": "\u0642\u0631\u064a\u0629 \u062d\u0636\u0627\u0628\u0648", "int_name": "Qaryat \u1e28a\u1e11\u0101b\u016b, Qaryat Kha\u1e11\u0101y\u016b, \u0642\u0631\u064a\u0629 \u062d\u0636\u0627\u0628\u0648, Qaryat Hadabu, Qaryat Khadayu, \u0642\u0631\u064a\u0629 \u062d\u0636\u0627\u0628\u0648", "name": "\u0642\u0631\u064a\u0629 \u062d\u0636\u0627\u0628\u0648", "name:ar": "\u062d\u064a \u0627\u0644\u0645\u0646\u062a\u0638\u0631 \u0633\u0627\u0628\u0642\u0622 \u062e\u0636\u0627\u0628\u0648", "name:ar1": "\u0642\u0631\u064a\u0629 \u062d\u0636\u0627\u0628\u0648", "name:de": "Qaryat Hadabu", "name:en": "Qaryat Hadabu", "name:fr": "Qaryat Hadabu", "place": "village"}}, {"type": "node", "id": 2487917906, "lat": 30.4471759, "lon": 48.098052, "tags": {"alt_name": "\u0627\u0644\u06a9\u0635\u0627\u0635\u06cc\u0641", "int_name": "Al Kha\u015f\u0101\u015f\u012bf, Umm al Kha\u015f\u0101\u015f\u012bf, \u0627\u0644\u0643\u0635\u0627\u0635\u064a\u0641, Al Khasasif, Umm al Khasasif, \u0627\u0644\u0643\u0635\u0627\u0635\u064a\u0641", "is_in": "Iraq , \u062c\u0645\u0647\u0648\u0631\u064a\u0629 \u0627\u0644\u0639\u0631\u0627\u0642", "name": "\u0623\u0645 \u0627\u0644\u062e\u0635\u0627\u0635\u06cc\u0641", "name:ar": "\u0623\u0645 \u0627\u0644\u062e\u0635\u0627\u0635\u064a\u0641", "name:ar1": "\u0627\u0644\u0643\u0635\u0627\u0635\u064a\u0641", "name:de": "Al Khasasif", "name:en": "Al Khasasif", "name:fr": "Al Khasasif", "place": "village"}}, {"type": "node", "id": 2487917925, "lat": 30.4458104, "lon": 48.1003626, "tags": {"alt_name": "\u062e\u0633\u0627\u0633\u06cc\u0641", "int_name": "Khas\u0101s\u012bf, Khasasif", "is_in": "Iraq , \u062c\u0645\u0647\u0648\u0631\u064a\u0629 \u0627\u0644\u0639\u0631\u0627\u0642", "name": "\u062e\u0633\u0627\u0633\u06cc\u0641", "name:ar": "\u062e\u0633\u0627\u0633\u064a\u0641", "name:ar1": "\u062e\u0633\u0627\u0633\u064a\u0641", "name:de": "Khasasif", "name:en": "Khasasif", "name:fr": "Khasasif", "place": "village"}}, {"type": "node", "id": 2487917935, "lat": 30.454167, "lon": 48.003333, "tags": {"alt_name": "\u0645\u0646\u0627\u0632\u0644", "int_name": "Man\u0101zil, Manazil", "is_in": "Iraq , \u062c\u0645\u0647\u0648\u0631\u064a\u0629 \u0627\u0644\u0639\u0631\u0627\u0642", "name": "\u0645\u0646\u0627\u0632\u0644", "name:ar": "\u0643\u0648\u062a \u0628\u0627\u0632\u0644", "name:ar1": "\u0645\u0646\u0627\u0632\u0644", "name:de": "Manazil", "name:en": "Manazil", "name:fr": "Manazil", "place": "village"}}, {"type": "node", "id": 2487917978, "lat": 30.4476719, "lon": 48.1009517, "tags": {"alt_name": "\u0642\u0631\u06cc\u0629 \u0623\u0645 \u0627\u0644\u062e\u0635\u0627\u0635\u06cc\u0641", "int_name": "Qaryat Umm al Kha\u015f\u0101\u015f\u012bf, Qaryat Umm al Khasasif", "is_in": "Iraq , \u062c\u0645\u0647\u0648\u0631\u064a\u0629 \u0627\u0644\u0639\u0631\u0627\u0642", "name": "\u0642\u0631\u06cc\u0629 \u0623\u0645 \u0627\u0644\u062e\u0635\u0627\u0635\u06cc\u0641", "name:ar": "\u0642\u0631\u064a\u0629 \u0623\u0645 \u0627\u0644\u062e\u0635\u0627\u0635\u064a\u0641", "name:ar1": "\u0642\u0631\u064a\u0629 \u0623\u0645 \u0627\u0644\u062e\u0635\u0627\u0635\u064a\u0641", "name:de": "Qaryat Umm al Khasasif", "name:en": "Qaryat Umm al Khasasif", "name:fr": "Qaryat Umm al Khasasif", "place": "village"}}, {"type": "node", "id": 2487917997, "lat": 30.452852, "lon": 48.090683, "tags": {"alt_name": "\u0642\u0631\u06cc\u0629 \u0627\u0644\u0641\u06cc\u0627\u0636\u06cc", "int_name": "Qaryat al Fayy\u0101\u1e11\u012b, \u0642\u0631\u064a\u0629 \u0627\u0644\u0641\u064a\u0627\u0636\u064a, Qaryat al Fayyadi, \u0642\u0631\u064a\u0629 \u0627\u0644\u0641\u064a\u0627\u0636\u064a", "name": "\u0642\u0631\u064a\u0629 \u0627\u0644\u0641\u064a\u0627\u0636\u064a", "name:ar": "\u0642\u0631\u064a\u0629 \u0627\u0644\u0641\u064a\u0627\u0636\u064a", "name:de": "Qaryat al Fayyadi", "name:en": "Qaryat al Fayyadi", "name:fr": "Qaryat al Fayyadi", "place": "village"}}, {"type": "node", "id": 2487918000, "lat": 30.463891, "lon": 48.040936, "tags": {"alt_name": "\u0642\u0631\u064a\u0629 \u0627\u0644\u0637\u0648\u064a\u0644\u0629", "int_name": "Qaryat a\u0163 \u0162aw\u012blah, \u0642\u0631\u064a\u0629 \u0627\u0644\u0637\u0648\u064a\u0644\u0629, Qaryat at Tawilah, \u0642\u0631\u064a\u0629 \u0627\u0644\u0637\u0648\u064a\u0644\u0629", "name": "\u0642\u0631\u064a\u0629 \u0627\u0644\u0637\u0648\u064a\u0644\u0629", "name:ar": "\u0642\u0631\u064a\u0629 \u0627\u0644\u0637\u0648\u064a\u0644\u0629", "name:de": "Qaryat at Tawilah", "name:en": "Qaryat at Tawilah", "name:fr": "Qaryat at Tawilah", "place": "village"}}, {"type": "node", "id": 2487918582, "lat": 30.4474719, "lon": 47.9757737, "tags": {"alt_name": "\u0623\u0628\u0648 \u0627\u0644\u062e\u0635\u064a\u0628", "capital": "6", "int_name": "Abul Khasib - \u0627\u0628\u0648 \u0627\u0644\u062e\u0635\u064a\u0628", "is_in": "Iraq , \u062c\u0645\u0647\u0648\u0631\u064a\u0629 \u0627\u0644\u0639\u0631\u0627\u0642", "is_in:country": "Iraq", "is_in:country_code": "IQ", "name": "\u0623\u0628\u0648 \u0627\u0644\u062e\u0635\u064a\u0628", "name:ar": "\u0623\u0628\u0648 \u0627\u0644\u062e\u0635\u064a\u0628", "name:de": "Abu al Khasib", "name:en": "Abu Al-Khaseeb", "name:es": "Abu al Khasib", "name:fr": "Abu al Khasib", "name:ja": "\u30a2\u30d3\u30e5\u30fc \u30a2\u30eb\u30fb\u30ab\u30b7\u30d6", "name:ru": "\u0410\u0431\u0443-\u044d\u043b\u044c-\u0425\u0430\u0441\u0438\u0431", "place": "town", "population": "240300", "population:date": "2012", "source:population": "https://ar.wikipedia.org/wiki/%D8%A3%D8%A8%D9%88_%D8%A7%D9%84%D8%AE%D8%B5%D9%8A%D8%A8", "wikidata": "Q2618523", "wikipedia": "en:Abu Al-Khaseeb"}}, {"type": "node", "id": 2487918593, "lat": 30.4886727, "lon": 47.8356842, "tags": {"is_in": "Iraq , \u062c\u0645\u0647\u0648\u0631\u064a\u0629 \u0627\u0644\u0639\u0631\u0627\u0642", "name": "\u0627\u0644\u0645\u0637\u064a\u062d\u0629", "name:ar": "\u0627\u0644\u0645\u0637\u064a\u062d\u0629", "name:en": "Al Matiyah", "place": "village"}}, {"type": "node", "id": 2487918602, "lat": 30.4955325, "lon": 47.8169302, "tags": {"alt_name": "\u0627\u0644\u0628\u0635\u0631\u0629 \u0627\u0644\u0642\u062f\u064a\u0645\u0629", "int_name": "Al Ba\u015frah al Qad\u012bmah, Al Ba\u015frat al Qad\u012bmah, \u0627\u0644\u0628\u0635\u0631\u0629 \u0627\u0644\u0642\u062f\u064a\u0645\u0629, Al Basrah al Qadimah, Al Basrat al Qadimah, \u0627\u0644\u0628\u0635\u0631\u0629 \u0627\u0644\u0642\u062f\u064a\u0645\u0629", "is_in": "Iraq , \u062c\u0645\u0647\u0648\u0631\u064a\u0629 \u0627\u0644\u0639\u0631\u0627\u0642", "name": "\u0627\u0644\u0628\u0635\u0631\u0629 \u0627\u0644\u0642\u062f\u064a\u0645\u0629", "name:ar": "\u0627\u0644\u0628\u0635\u0631\u0629 \u0627\u0644\u0642\u062f\u064a\u0645\u0629", "name:ar1": "\u0627\u0644\u0628\u0635\u0631\u0629 \u0627\u0644\u0642\u062f\u064a\u0645\u0629", "name:de": "Alt-Basra", "name:en": "Old Basra", "name:fr": "Basra La Antique", "place": "village"}}, {"type": "node", "id": 2487918675, "lat": 30.581223, "lon": 47.824996, "tags": {"alt_name": "\u0627\u0644\u062c\u0628\u0627\u0633 \u0627\u0644\u0643\u0628\u064a\u0631", "int_name": "Al Jabb\u0101s al Kab\u012br, \u0627\u0644\u062c\u0628\u0627\u0633 \u0627\u0644\u0643\u0628\u064a\u0631, Al Jabbas al Kabir, \u0627\u0644\u062c\u0628\u0627\u0633 \u0627\u0644\u0643\u0628\u064a\u0631", "is_in": "Iraq , \u062c\u0645\u0647\u0648\u0631\u064a\u0629 \u0627\u0644\u0639\u0631\u0627\u0642", "name": "\u0627\u0644\u0643\u0628\u0627\u0633\u064a \u0627\u0644\u0643\u0628\u064a\u0631", "name:ar1": "\u0627\u0644\u062c\u0628\u0627\u0633 \u0627\u0644\u0643\u0628\u064a\u0631", "name:de": "Al Jabbas al Kabir", "name:en": "Al Jabbas al Kabir", "name:fr": "Al Jabbas al Kabir", "place": "village"}}, {"type": "node", "id": 2487918732, "lat": 30.4795687, "lon": 47.8626511, "tags": {"alt_name": "\u0627\u0644\u0639\u0648\u064a\u0633\u0627\u0646", "int_name": "Al Uways\u0101n, Al Uwaysan", "is_in": "Iraq , \u062c\u0645\u0647\u0648\u0631\u064a\u0629 \u0627\u0644\u0639\u0631\u0627\u0642", "name": "\u0627\u0644\u0639\u0648\u064a\u0633\u0627\u0646", "name:ar": "\u0627\u0644\u0639\u0648\u064a\u0633\u0627\u0646", "name:ar1": "\u0627\u0644\u0639\u0648\u064a\u0633\u0627\u0646", "name:de": "Al Uwaysan", "name:en": "Al Uwaysan", "name:fr": "Al Uwaysan", "place": "village"}}, {"type": "node", "id": 2487918742, "lat": 30.479896, "lon": 47.870544, "tags": {"alt_name": "\u0623\u0645\u062d\u0648\u0644\u0629", "int_name": "Am\u1e29\u016blah, \u0627\u0645\u062d\u0648\u0644\u0629, Amhulah, \u0627\u0645\u062d\u0648\u0644\u0629", "is_in": "Iraq , \u062c\u0645\u0647\u0648\u0631\u064a\u0629 \u0627\u0644\u0639\u0631\u0627\u0642", "name": "\u0623\u0645\u062d\u0648\u0644\u0629", "name:ar": "\u0645\u062d\u064a\u0644\u0629\u0645\u062d\u064a\u0644\u0629", "name:ar1": "\u0623\u0645\u062d\u0648\u0644\u0629", "name:de": "Amhulah", "name:fr": "Amhulah", "name:la": "\u0645\u062d\u064a\u0644\u0629", "place": "village"}}, {"type": "node", "id": 2487918793, "lat": 30.396051, "lon": 47.628172, "tags": {"alt_name": "\u0627\u0644\u0634\u0639\u064a\u0628\u0629 \u0627\u0644\u0642\u062f\u064a\u0645\u0629", "int_name": "Ash Sha\u012bbah, Ash Shuaybah, Ash Shuaybah al Qad\u012bmah, Shaaibeh, Shaibah, Shuaiba, Shuaybah, Shuaibah, \u0627\u0644\u0634\u0639\u064a\u0628\u0629, Ash Shaibah, Ash Shuaybah, Ash Shuaybah al Qadimah, Shaaibeh, Shaibah, Shuaiba, Shuaybah, Shuaibah, \u0627\u0644\u0634\u0639\u064a\u0628\u0629", "is_in": "Iraq , \u062c\u0645\u0647\u0648\u0631\u064a\u0629 \u0627\u0644\u0639\u0631\u0627\u0642", "name": "\u0627\u0644\u0634\u0639\u064a\u0628\u0629 \u0627\u0644\u0642\u062f\u064a\u0645\u0629", "name:ar": "\u0627\u0644\u0634\u0639\u064a\u0628\u0629 \u0627\u0644\u0642\u062f\u064a\u0645\u0629", "name:ar1": "\u0627\u0644\u0634\u0639\u064a\u0628\u0629 \u0627\u0644\u0642\u062f\u064a\u0645\u0629", "name:de": "Ash Shaibah", "name:en": "Ash Shaibah", "name:fr": "Ash Shaibah", "name:ru": "\u042d\u0448-\u0428\u0443\u0430\u0439\u0431\u0430", "place": "village", "population": "1500"}}, {"type": "node", "id": 2487918798, "lat": 30.527081, "lon": 47.860848, "tags": {"alt_name": "\u0627\u0644\u062a\u0646\u0648\u0645\u0629", "int_name": "At Tann\u016bmah, Tann\u016bma, Tann\u016bmah, Tan\u016bma, Tan\u016bmah, \u0627\u0644\u062a\u0646\u0648\u0645\u0629, At Tannumah, Tannuma, Tannumah, Tanuma, Tanumah, \u0627\u0644\u062a\u0646\u0648\u0645\u0629", "is_in": "Iraq , \u062c\u0645\u0647\u0648\u0631\u064a\u0629 \u0627\u0644\u0639\u0631\u0627\u0642", "name": "\u0627\u0644\u062a\u0646\u0648\u0645\u0629", "name:ar": "\u0627\u0644\u062a\u0646\u0648\u0645\u0629", "name:ar1": "\u0627\u0644\u062a\u0646\u0648\u0645\u0629", "name:de": "At Tannumah", "name:en": "At Tannumah", "name:fr": "At Tannumah", "name:ru": "\u042d\u0442-\u0422\u0430\u043d\u043d\u0443\u043c\u0430", "place": "town"}}, {"type": "node", "id": 2487918804, "lat": 30.447778, "lon": 47.657222, "tags": {"alt_name": "\u0627\u0644\u0637\u0648\u0628\u0629 \u0627\u0644\u062d\u0645\u0631\u0627\u0621", "int_name": "A\u0163 \u0162\u016bbah al \u1e28amr\u0101, At Tubah al Hamra", "is_in": "Iraq , \u062c\u0645\u0647\u0648\u0631\u064a\u0629 \u0627\u0644\u0639\u0631\u0627\u0642", "name": "\u0627\u0644\u0634\u0639\u064a\u0628\u0629 /\u062f\u0648\u0631 \u0627\u0644\u0645\u0635\u0641\u0649", "name:ar": "\u0627\u0644\u0637\u0648\u0628\u0629 \u0627\u0644\u062d\u0645\u0631\u0627\u0621", "name:ar1": "\u0627\u0644\u0637\u0648\u0628\u0629 \u0627\u0644\u062d\u0645\u0631\u0627\u0621", "name:de": "At Tubah al Hamra", "name:en": "At Tubah al Hamra", "name:fr": "At Tubah al Hamra", "place": "village"}}, {"type": "node", "id": 2487918805, "lat": 30.51876, "lon": 47.821783, "tags": {"alt_name": "\u0627\u0644\u0637\u0648\u064a\u0633\u0629", "int_name": "A\u0163 \u0162uwaysah, \u0627\u0644\u0637\u0648\u064a\u0633\u0629, At Tuwaysah, \u0627\u0644\u0637\u0648\u064a\u0633\u0629", "is_in": "Iraq , \u062c\u0645\u0647\u0648\u0631\u064a\u0629 \u0627\u0644\u0639\u0631\u0627\u0642", "name": "\u0627\u0644\u0637\u0648\u064a\u0633\u0629", "name:ar": "\u0627\u0644\u0637\u0648\u064a\u0633\u0629", "name:ar1": "\u0627\u0644\u0637\u0648\u064a\u0633\u0629", "name:de": "At Tuwaysah", "name:en": "At Tuwaysah", "name:fr": "At Tuwaysah", "place": "village"}}, {"type": "node", "id": 2487918818, "lat": 30.436403, "lon": 47.989929, "tags": {"alt_name": "\u0628\u0627\u0628 \u0623\u0645 \u0627\u0644\u0637\u0648\u064a\u0644", "int_name": "B\u0101b Umm a\u0163 \u0162aw\u012bl, Umm a\u0163 \u0162aw\u012bl, \u0627\u0645 \u0627\u0644\u0637\u0648\u064a\u0644, Bab Umm at Tawil, Umm at Tawil, \u0627\u0645 \u0627\u0644\u0637\u0648\u064a\u0644", "is_in": "Iraq , \u062c\u0645\u0647\u0648\u0631\u064a\u0629 \u0627\u0644\u0639\u0631\u0627\u0642", "name": "\u0628\u0627\u0628 \u0623\u0645 \u0627\u0644\u0637\u0648\u064a\u0644", "name:ar": "\u0628\u0627\u0628 \u0637\u0648\u064a\u0644", "name:ar1": "\u0628\u0627\u0628 \u0623\u0645 \u0627\u0644\u0637\u0648\u064a\u0644", "name:de": "Bab Umm at Tawil", "name:en": "Bab Tawil", "name:fr": "Bab Umm at Tawil", "place": "village"}}, {"type": "node", "id": 2487918822, "lat": 30.4545798, "lon": 47.8685619, "tags": {"is_in": "Iraq , \u062c\u0645\u0647\u0648\u0631\u064a\u0629 \u0627\u0644\u0639\u0631\u0627\u0642", "name": "\u0628\u0644\u062f \u0645\u062d\u0632\u0645", "name:ar": "\u0628\u0644\u062f \u0645\u062d\u0632\u0645", "name:en": "Balad Mahzam", "place": "village"}}, {"type": "node", "id": 2487918826, "lat": 30.45737, "lon": 47.993731, "tags": {"alt_name": "\u0628\u0644\u062f \u0633\u0644\u0637\u0627\u062a", "int_name": "Balad Sal\u0163\u0101t, \u0628\u0644\u062f \u0633\u0644\u0637\u0627\u062a, Balad Saltat, \u0628\u0644\u062f \u0633\u0644\u0637\u0627\u062a", "is_in": "Iraq , \u062c\u0645\u0647\u0648\u0631\u064a\u0629 \u0627\u0644\u0639\u0631\u0627\u0642", "name": "\u0628\u0644\u062f \u0633\u0644\u0637\u0627\u062a", "name:ar": "\u0628\u0627\u0628 \u0645\u064a\u062f\u0627\u0646", "name:ar1": "\u0628\u0644\u062f \u0633\u0644\u0637\u0627\u062a", "name:de": "Balad Saltat", "name:en": "Balad Saltat", "name:fr": "Balad Saltat", "place": "village"}}, {"type": "node", "id": 2487918828, "lat": 30.468342, "lon": 47.880695, "tags": {"alt_name": "\u0628\u0644\u062f \u0633\u0645\u0631", "int_name": "Balad Sumar, \u0628\u0644\u062f \u0633\u0645\u0631, Balad Sumar, \u0628\u0644\u062f \u0633\u0645\u0631", "is_in": "Iraq , \u062c\u0645\u0647\u0648\u0631\u064a\u0629 \u0627\u0644\u0639\u0631\u0627\u0642", "name": "\u0628\u0644\u062f \u0633\u0645\u0631", "name:ar": "\u0628\u0644\u062f \u0633\u0644\u0627\u0645\u0647", "name:ar1": "\u0628\u0644\u062f \u0633\u0645\u0631", "name:de": "Balad Sumar", "name:en": "Balad Sumar", "name:fr": "Balad Sumar", "place": "village"}}, {"type": "node", "id": 2487918836, "lat": 30.569167, "lon": 47.813889, "tags": {"alt_name": "\u0628\u0631\u0628\u0627\u0631\u0629", "int_name": "Barb\u0101rah, Birb\u0101ra, Birb\u0101rah, Barbarah, Birbara, Birbarah", "is_in": "Iraq , \u062c\u0645\u0647\u0648\u0631\u064a\u0629 \u0627\u0644\u0639\u0631\u0627\u0642", "name": "\u0628\u0631\u0628\u0627\u0631\u0629", "name:ar": "\u0628\u0631\u0628\u0627\u0631\u0629", "name:ar1": "\u0628\u0631\u0628\u0627\u0631\u0629", "name:de": "Barbarah", "name:en": "Barbarah", "name:fr": "Barbarah", "name:ru": "\u0411\u0438\u0440\u0431\u0430\u0440\u0430", "place": "village"}}, {"type": "node", "id": 2487918849, "lat": 30.482763, "lon": 47.978108, "tags": {"alt_name": "\u0645\u0646\u0637\u0642\u0629 \u0646\u0647\u0631 \u062c\u0627\u0633\u0645", "int_name": "Duhaym\u012b J\u0101sim, J\u0101sim, Min\u0163aqat Nahr J\u0101sim, \u0645\u0646\u0637\u0642\u0629 \u0646\u0647\u0631 \u062c\u0627\u0633\u0645, Duhaymi Jasim, Jasim, Mintaqat Nahr Jasim, \u0645\u0646\u0637\u0642\u0629 \u0646\u0647\u0631 \u062c\u0627\u0633\u0645", "is_in": "Iraq , \u062c\u0645\u0647\u0648\u0631\u064a\u0629 \u0627\u0644\u0639\u0631\u0627\u0642", "name": "\u0645\u0646\u0637\u0642\u0629 \u0646\u0647\u0631 \u062c\u0627\u0633\u0645", "name:ar": "\u0645\u0646\u0637\u0642\u0629 \u0646\u0647\u0631 \u062c\u0627\u0633\u0645", "name:ar1": "\u0645\u0646\u0637\u0642\u0629 \u0646\u0647\u0631 \u062c\u0627\u0633\u0645", "name:de": "Duhaymi Jasim", "name:en": "Duhaymi Jasim", "name:fr": "Duhaymi Jasim", "name:ku-Arab": "\u0646\u0647\u0631 \u062c\u0627\u0633\u0645", "place": "village"}}, {"type": "node", "id": 2487918893, "lat": 30.4751674, "lon": 47.8412821, "tags": {"is_in": "Iraq , \u062c\u0645\u0647\u0648\u0631\u064a\u0629 \u0627\u0644\u0639\u0631\u0627\u0642", "name": "\u0627\u0645 \u0627\u0644\u0646\u0639\u0627\u062c", "name:ar": "\u0627\u0645 \u0627\u0644\u0646\u0639\u0627\u062c", "place": "village"}}, {"type": "node", "id": 2487918933, "lat": 30.5002408, "lon": 47.8833034, "tags": {"alt_name": "\u0643\u0648\u062a \u0627\u0644\u0632\u064a\u0631", "int_name": "K\u016bt az Zair, K\u016bt az Z\u012br, Kut az Zair, Kut az Zir", "is_in": "Iraq , \u062c\u0645\u0647\u0648\u0631\u064a\u0629 \u0627\u0644\u0639\u0631\u0627\u0642", "name": "\u0643\u0648\u062a \u0627\u0644\u0632\u064a\u0631", "name:ar": "\u0643\u0648\u062a \u0627\u0644\u0632\u064a\u0631", "name:de": "Kut az Zair", "name:en": "Kut az Zair", "name:fr": "Kut az Zair", "place": "village"}}, {"type": "node", "id": 2487919024, "lat": 30.754167, "lon": 47.655556, "tags": {"alt_name": "\u0646\u0647\u0631 \u0639\u0645\u0631", "int_name": "Nahr Umar, Nahr Amr, Nahr Umr, Umr, Nahr Umar, Nahr Amr, Nahr Umr, Umr", "is_in": "Iraq , \u062c\u0645\u0647\u0648\u0631\u064a\u0629 \u0627\u0644\u0639\u0631\u0627\u0642", "name": "\u0646\u0647\u0631 \u0639\u0645\u0631", "name:ar": "\u0646\u0647\u0631 \u0628\u0646 \u0639\u0645\u0631", "name:ar1": "\u0646\u0647\u0631 \u0639\u0645\u0631", "name:de": "Nahr Umar", "name:en": "Nahr Umar", "name:fr": "Nahr Umar", "place": "village"}}, {"type": "node", "id": 2487919053, "lat": 30.5325876, "lon": 47.857481, "tags": {"alt_name": "\u0634\u0637 \u0627\u0644\u0639\u0631\u0628", "capital": "6", "int_name": "\u0634\u0637 \u0627\u0644\u0639\u0631\u0628, Shatt al Arab", "is_in": "Iraq , \u062c\u0645\u0647\u0648\u0631\u064a\u0629 \u0627\u0644\u0639\u0631\u0627\u0642", "is_in:country_code": "IQ", "name": "\u0634\u0637 \u0627\u0644\u0639\u0631\u0628", "name:ar": "\u0634\u0637 \u0627\u0644\u0639\u0631\u0628", "name:de": "Schatt al-Arab", "name:en": "Shatt al Arab", "name:es": "Shatt al-Arab", "name:fr": "Chatt-el-Arab", "place": "town"}}, {"type": "node", "id": 2487919060, "lat": 30.729668, "lon": 47.636815, "tags": {"alt_name": "\u0642\u0631\u064a\u0629 \u0637\u0644\u0627\u0639 \u0646\u0647\u0631 \u0639\u0645\u0631", "int_name": "Qaryat \u0162all\u0101 Nahr Umar, \u0642\u0631\u064a\u0629 \u0637\u0644\u0627\u0639 \u0646\u0647\u0631 \u0639\u0645\u0631, Qaryat Talla Nahr Umar, \u0642\u0631\u064a\u0629 \u0637\u0644\u0627\u0639 \u0646\u0647\u0631 \u0639\u0645\u0631", "name": "\u0642\u0631\u064a\u0629 \u0637\u0644\u0627\u0639 \u0646\u0647\u0631 \u0639\u0645\u0631", "name:ar": "\u0627\u0644\u0634\u063a\u0627\u0646\u0628\u0647 \u0628\u064a\u062a \u0627\u0628\u0648 \u0634\u0643\u064a\u0644\u0647", "name:ar1": "\u0642\u0631\u064a\u0629 \u0637\u0644\u0627\u0639 \u0646\u0647\u0631 \u0639\u0645\u0631", "name:de": "Qaryat Talla Nahr Umar", "name:en": "Qaryat Talla Nahr Umar", "name:fr": "Qaryat Talla Nahr Umar", "place": "village"}}, {"type": "node", "id": 2487919095, "lat": 30.455922, "lon": 47.98671, "tags": {"alt_name": "\u0634\u064a\u062e \u0625\u0628\u0631\u0627\u0647\u064a\u0645", "int_name": "Shaykh Ibr\u0101h\u012bm, \u0634\u064a\u062e \u0627\u0628\u0631\u0627\u0647\u064a\u0645, Shaykh Ibrahim, \u0634\u064a\u062e \u0627\u0628\u0631\u0627\u0647\u064a\u0645", "is_in": "Iraq , \u062c\u0645\u0647\u0648\u0631\u064a\u0629 \u0627\u0644\u0639\u0631\u0627\u0642", "name": "\u0634\u064a\u062e \u0625\u0628\u0631\u0627\u0647\u064a\u0645", "name:ar": "\u0628\u0644\u062f \u0633\u0644\u0637\u0627\u0646", "name:ar1": "\u0634\u064a\u062e \u0625\u0628\u0631\u0627\u0647\u064a\u0645", "name:de": "Shaykh Ibrahim", "name:en": "balad sultan", "name:fr": "Shaykh Ibrahim", "place": "village"}}, {"type": "node", "id": 2487919102, "lat": 30.549444, "lon": 47.828611, "tags": {"alt_name": "\u0634\u0648\u0645\u0627\u0646", "int_name": "Nahar Hassan", "is_in": "Iraq , \u062c\u0645\u0647\u0648\u0631\u064a\u0629 \u0627\u0644\u0639\u0631\u0627\u0642", "name": "\u0634\u0648\u0645\u0627\u0646", "name:ar": "\u0646\u0647\u0631 \u062d\u0633\u0646", "name:ar1": "\u0634\u0648\u0645\u0627\u0646", "name:de": "Nahar Hassan", "name:en": "Nahar Hassan", "name:fr": "Nahar Hassan", "place": "village"}}, {"type": "node", "id": 2510508039, "lat": 30.4978833, "lon": 47.792145}, {"type": "node", "id": 2622282723, "lat": 30.4948646, "lon": 47.7853081}, {"type": "node", "id": 3011505485, "lat": 30.5181793, "lon": 47.7689379}, {"type": "node", "id": 3063165019, "lat": 30.5074126, "lon": 47.7778736}, {"type": "node", "id": 3118126503, "lat": 30.4694643, "lon": 47.6507444}, {"type": "node", "id": 3118126506, "lat": 30.4695812, "lon": 47.6545665}, {"type": "node", "id": 3118126510, "lat": 30.4699532, "lon": 47.6476127}, {"type": "node", "id": 3118126515, "lat": 30.4696782, "lon": 47.6559029}, {"type": "node", "id": 3118126517, "lat": 30.4696617, "lon": 47.6525506}, {"type": "node", "id": 3118126518, "lat": 30.4702324, "lon": 47.6468542}, {"type": "node", "id": 3118126527, "lat": 30.470697, "lon": 47.6494375}, {"type": "node", "id": 3118132129, "lat": 30.4707608, "lon": 47.6480073}, {"type": "node", "id": 3118132148, "lat": 30.4719092, "lon": 47.645754}, {"type": "node", "id": 3118132157, "lat": 30.4721568, "lon": 47.6455728}, {"type": "node", "id": 3118132164, "lat": 30.4723642, "lon": 47.6427837}, {"type": "node", "id": 3118132174, "lat": 30.4730296, "lon": 47.6554721}, {"type": "node", "id": 3118132193, "lat": 30.4736787, "lon": 47.6547691}, {"type": "node", "id": 3118132207, "lat": 30.4747032, "lon": 47.6459606}, {"type": "node", "id": 3118132211, "lat": 30.4749115, "lon": 47.6540437}, {"type": "node", "id": 3118132215, "lat": 30.475617, "lon": 47.6475881}, {"type": "node", "id": 3118132220, "lat": 30.4774933, "lon": 47.6563414}, {"type": "node", "id": 3118132223, "lat": 30.4764501, "lon": 47.6570521}, {"type": "node", "id": 3118132227, "lat": 30.4767753, "lon": 47.6568228}, {"type": "node", "id": 3118132231, "lat": 30.478583, "lon": 47.6553403}, {"type": "node", "id": 3118132233, "lat": 30.4776678, "lon": 47.6512006}, {"type": "node", "id": 3118132241, "lat": 30.4787982, "lon": 47.6535932}, {"type": "node", "id": 3492805805, "lat": 30.4921982, "lon": 47.7991177, "tags": {"name": "\u062d\u064a \u0627\u0644\u0643\u0641\u0627\u0621\u0627\u062a", "place": "village"}}, {"type": "node", "id": 3492818749, "lat": 30.5443909, "lon": 47.7589275, "tags": {"name": "\u062d\u064a \u0627\u0644\u0647\u0627\u062f\u064a", "place": "village"}}, {"type": "node", "id": 3492820459, "lat": 30.539207, "lon": 47.7530588, "tags": {"name": "\u0627\u0644\u0643\u0632\u064a\u0632\u0629", "place": "village"}}, {"type": "node", "id": 3492826268, "lat": 30.5564484, "lon": 47.7804174, "tags": {"name": "\u0627\u0644\u0645\u0639\u0642\u0644", "place": "village"}}, {"type": "node", "id": 3492853414, "lat": 30.5768273, "lon": 47.7695812, "tags": {"name": "\u0627\u0644\u0646\u062c\u064a\u0628\u064a\u0629", "place": "village"}}, {"type": "node", "id": 3492920594, "lat": 30.5250338, "lon": 47.833247, "tags": {"name": "\u0627\u0644\u0639\u0634\u0627\u0631", "place": "village"}}, {"type": "node", "id": 3493443274, "lat": 30.4981764, "lon": 47.8409628, "tags": {"name": "\u0645\u0646\u0627\u0648\u064a \u0644\u062c\u0645", "name:ar": "\u0645\u0646\u0627\u0648\u064a \u0644\u062c\u0645", "place": "village"}}, {"type": "node", "id": 3493446635, "lat": 30.4752105, "lon": 47.8268651, "tags": {"name": "\u062d\u064a \u0627\u0644\u0632\u064a\u062a\u0648\u0646", "name:ar": "\u062d\u064a \u0627\u0644\u0632\u064a\u062a\u0648\u0646 \u0627\u0644\u062b\u0627\u0646\u064a\u0629", "place": "village"}}, {"type": "node", "id": 3493453658, "lat": 30.5071431, "lon": 47.8208462, "tags": {"name": "\u0627\u0644\u0628\u0635\u0631\u0629 \u0627\u0644\u0642\u062f\u064a\u0645\u0629", "place": "village"}}, {"type": "node", "id": 3493455393, "lat": 30.5042683, "lon": 47.8199664, "tags": {"name": "\u0627\u0644\u062a\u062d\u0633\u064a\u0646\u064a\u0629 \u0627\u0644\u0642\u062f\u064a\u0645\u0629", "place": "village"}}, {"type": "node", "id": 3493456488, "lat": 30.5050171, "lon": 47.8020708, "tags": {"name": "\u0643\u0648\u062a \u0627\u0644\u062d\u062c\u0627\u062c", "place": "village"}}, {"type": "node", "id": 3493457233, "lat": 30.5132622, "lon": 47.7991525, "tags": {"name": "\u0627\u0644\u062d\u0633\u0627\u0648\u064a\u0629", "name:ar": "\u0627\u0644\u0639\u0627\u0645\u0631\u064a\u0629", "place": "village"}}, {"type": "node", "id": 3493464579, "lat": 30.5221721, "lon": 47.8342251, "tags": {"name": "\u0627\u0644\u0639\u0634\u0627\u0631", "place": "village"}}, {"type": "node", "id": 3494914248, "lat": 30.3894801, "lon": 47.7128908, "tags": {"name": "\u0627\u0644\u0632\u0647\u064a\u0631\u064a\u0629", "name:ar": "\u0627\u0644\u0632\u0647\u064a\u0631\u064a\u0629", "place": "village"}}, {"type": "node", "id": 3494949383, "lat": 30.396458, "lon": 47.7007243, "tags": {"name": "\u0627\u0644\u0631\u0634\u064a\u062f\u064a\u0629", "name:ar": "\u0627\u0644\u0631\u0634\u064a\u062f\u064a\u0629", "place": "village"}}, {"type": "node", "id": 3494950440, "lat": 30.4040645, "lon": 47.7060243, "tags": {"name": "\u0645\u062d\u0644\u0629 \u0627\u0644\u0634\u0645\u0627\u0644", "name:ar": "\u0645\u062d\u0644\u0629 \u0627\u0644\u0634\u0645\u0627\u0644", "place": "village"}}, {"type": "node", "id": 3494950462, "lat": 30.3987344, "lon": 47.7110025, "tags": {"name": "\u062d\u064a \u0627\u0644\u0645\u0644\u0627\u064a\u064a\u0646", "name:ar": "\u062d\u064a \u0627\u0644\u0645\u0644\u0627\u064a\u064a\u0646", "place": "village"}}, {"type": "node", "id": 3494958047, "lat": 30.386861, "lon": 47.7159324, "tags": {"name": "\u0627\u0644\u062c\u0627\u0647\u0632\u0629", "name:ar": "\u0627\u0644\u062c\u0627\u0647\u0632\u0629", "place": "village"}}, {"type": "node", "id": 3494959164, "lat": 30.3876014, "lon": 47.7191189, "tags": {"name": "\u062d\u064a \u0627\u0644\u0634\u0647\u062f\u0627\u0621", "name:ar": "\u062d\u064a \u0627\u0644\u0634\u0647\u062f\u0627\u0621", "place": "village"}}, {"type": "node", "id": 3494961481, "lat": 30.3782072, "lon": 47.7298638, "tags": {"name": "\u0627\u0644\u062d\u064a \u0627\u0644\u0639\u0633\u0643\u0631\u064a", "name:ar": "\u0627\u0644\u062d\u064a \u0627\u0644\u0639\u0633\u0643\u0631\u064a", "place": "village"}}, {"type": "node", "id": 3494964211, "lat": 30.3876847, "lon": 47.7086422, "tags": {"name": "\u0627\u0644\u062c\u0645\u0647\u0648\u0631\u064a\u0629", "name:ar": "\u0627\u0644\u062c\u0645\u0647\u0648\u0631\u064a\u0629", "place": "village"}}, {"type": "node", "id": 3494973156, "lat": 30.382872, "lon": 47.7029559, "tags": {"name": "\u0645\u062d\u0644\u0629 \u0627\u0644\u0643\u0648\u062a \u0627\u0644\u0627\u0648\u0644\u0649", "name:ar": "\u0645\u062d\u0644\u0629 \u0627\u0644\u0643\u0648\u062a \u0627\u0644\u0627\u0648\u0644\u0649", "place": "village"}}, {"type": "node", "id": 3494977517, "lat": 30.3939038, "lon": 47.6862618, "tags": {"name": "\u0645\u062d\u0644\u0629 \u0627\u0644\u0639\u0631\u0628 \u0627\u0644\u062b\u0627\u0646\u064a\u0629", "name:ar": "\u0645\u062d\u0644\u0629 \u0627\u0644\u0639\u0631\u0628 \u0627\u0644\u062b\u0627\u0646\u064a\u0629", "place": "village"}}, {"type": "node", "id": 3494981315, "lat": 30.3913125, "lon": 47.7007886, "tags": {"name": "\u0627\u0644\u0631\u0634\u064a\u062f\u064a\u0629 \u0627\u0644\u0627\u0648\u0644\u0649", "name:ar": "\u0627\u0644\u0631\u0634\u064a\u062f\u064a\u0629 \u0627\u0644\u0627\u0648\u0644\u0649", "place": "village"}}, {"type": "node", "id": 3494992872, "lat": 30.3706151, "lon": 47.7314816, "tags": {"name": "\u062d\u064a \u0627\u0644\u0635\u062d\u0641\u064a\u064a\u0646", "name:ar": "\u062d\u064a \u0627\u0644\u0635\u062d\u0641\u064a\u064a\u0646", "place": "village"}}, {"type": "node", "id": 3495005074, "lat": 30.3793653, "lon": 47.707858, "tags": {"name": "\u062d\u064a \u0627\u0644\u0645\u0639\u0644\u0645\u064a\u0646", "name:ar": "\u062d\u064a \u0627\u0644\u0645\u0639\u0644\u0645\u064a\u0646", "place": "village"}}, {"type": "node", "id": 4067195304, "lat": 30.5045772, "lon": 47.7788874}, {"type": "node", "id": 4068120539, "lat": 30.5463919, "lon": 47.7855115}, {"type": "node", "id": 4068120540, "lat": 30.5451892, "lon": 47.7823741}, {"type": "node", "id": 4068120541, "lat": 30.5428699, "lon": 47.7847345}, {"type": "node", "id": 4068120542, "lat": 30.5444266, "lon": 47.7873197}, {"type": "node", "id": 4068815422, "lat": 30.5519444, "lon": 47.7880344, "tags": {"name": "16 \u062d\u0648\u0634", "place": "village"}}, {"type": "node", "id": 4079803940, "lat": 30.5190594, "lon": 47.7879411, "tags": {"name": "\u0634\u0642\u0642 \u0627\u0644\u062d\u0635\u0648", "place": "hamlet"}}, {"type": "node", "id": 4081177724, "lat": 30.5155774, "lon": 47.7855663, "tags": {"name": "\u0634\u0642\u0642 \u0627\u0644\u0645\u0648\u0641\u0642\u064a\u0629", "name:en": "Shouqiq Almoufaqia", "place": "hamlet"}}, {"type": "node", "id": 4106295844, "lat": 30.4982688, "lon": 47.7932272}, {"type": "node", "id": 4142776939, "lat": 30.5424471, "lon": 47.7570836, "tags": {"name": "\u062d\u064a \u0627\u0644\u0645\u062b\u0644\u062b - \u0627\u0644\u0647\u0627\u062f\u064a 3", "place": "hamlet"}}, {"type": "node", "id": 4142777089, "lat": 30.5485616, "lon": 47.7646394, "tags": {"name": "5 \u0645\u064a\u0644", "place": "town"}}, {"type": "node", "id": 4600086412, "lat": 30.4678228, "lon": 47.7948803}, {"type": "node", "id": 4600086413, "lat": 30.4666669, "lon": 47.7939683}, {"type": "node", "id": 4600086414, "lat": 30.4657514, "lon": 47.7954489}, {"type": "node", "id": 4600086415, "lat": 30.4669443, "lon": 47.7964682}, {"type": "node", "id": 4600086416, "lat": 30.4667686, "lon": 47.7967793}, {"type": "node", "id": 4600086417, "lat": 30.4655942, "lon": 47.7957601}, {"type": "node", "id": 4600086418, "lat": 30.4646417, "lon": 47.7980238}, {"type": "node", "id": 4600086419, "lat": 30.4656127, "lon": 47.7987641}, {"type": "node", "id": 4831594578, "lat": 30.4613311, "lon": 47.7821724}, {"type": "node", "id": 4831595761, "lat": 30.4635544, "lon": 47.7840123}, {"type": "node", "id": 4843334023, "lat": 30.7835842, "lon": 47.6343922, "tags": {"addr:postcode": "61020", "addr:street": "\u0634\u0627\u0631\u0639 \u0633\u0627\u062f\u0647 \u0627\u0644\u0628\u0639\u0627\u062c", "email": "mm.iq2002@gmail.com", "internet_access": "wlan", "name": "\u0642\u0631\u064a\u0629 \u0627\u0644\u0628\u0639\u0627\u062c", "name:ar": "\u0642\u0631\u064a\u0629 \u0627\u0644\u0628\u0639\u0627\u062c", "name:en": "Albaaj", "opening_hours": "24/7", "phone": "+9647832626150", "place": "village"}}, {"type": "node", "id": 4932683546, "lat": 30.493986, "lon": 47.78591}, {"type": "node", "id": 4964778492, "lat": 30.4949313, "lon": 47.7852624}, {"type": "node", "id": 4966762478, "lat": 30.4825382, "lon": 47.8076505}, {"type": "node", "id": 4966762479, "lat": 30.4804301, "lon": 47.8059125}, {"type": "node", "id": 4966762480, "lat": 30.4790987, "lon": 47.8081655}, {"type": "node", "id": 4966762481, "lat": 30.4754001, "lon": 47.8039169}, {"type": "node", "id": 4966762482, "lat": 30.4762508, "lon": 47.801106}, {"type": "node", "id": 4966762483, "lat": 30.466444, "lon": 47.7935878}, {"type": "node", "id": 4966762484, "lat": 30.4686757, "lon": 47.7903251}, {"type": "node", "id": 4966762488, "lat": 30.4539086, "lon": 47.7806783}, {"type": "node", "id": 4966762489, "lat": 30.4513744, "lon": 47.783854}, {"type": "node", "id": 4966762490, "lat": 30.4468423, "lon": 47.7917933}, {"type": "node", "id": 4966762491, "lat": 30.4478413, "lon": 47.7925873}, {"type": "node", "id": 4966762492, "lat": 30.4433851, "lon": 47.7995459}, {"type": "node", "id": 4966762493, "lat": 30.4427171, "lon": 47.8085732}, {"type": "node", "id": 4966762494, "lat": 30.450431, "lon": 47.8147959}, {"type": "node", "id": 4966762496, "lat": 30.4531056, "lon": 47.8098825}, {"type": "node", "id": 4966762497, "lat": 30.458954, "lon": 47.8143703}, {"type": "node", "id": 4966762498, "lat": 30.4623882, "lon": 47.8206319}, {"type": "node", "id": 4966762500, "lat": 30.4697564, "lon": 47.8303387}, {"type": "node", "id": 4966762502, "lat": 30.4754518, "lon": 47.8225621}, {"type": "node", "id": 4966762503, "lat": 30.4782839, "lon": 47.8188556}, {"type": "node", "id": 4966762504, "lat": 30.4793406, "lon": 47.8166896}, {"type": "node", "id": 4966762558, "lat": 30.5279241, "lon": 47.7894317}, {"type": "node", "id": 4966762575, "lat": 30.5338952, "lon": 47.7947696}, {"type": "node", "id": 4966762606, "lat": 30.5492051, "lon": 47.7765277}, {"type": "node", "id": 5237610734, "lat": 30.4734374, "lon": 47.643782}, {"type": "node", "id": 5390649516, "lat": 30.5523257, "lon": 47.7901036, "tags": {"name": "\u0627\u0645 \u0627\u0644\u0635\u0628\u0648\u0631", "place": "village"}}, {"type": "node", "id": 5406915044, "lat": 30.3573878, "lon": 47.7155179, "tags": {"name": "\u0627\u0644\u0645\u062f\u064a\u0646\u0629 \u0627\u0644\u0643\u0631\u0641\u0627\u0646\u064a\u0647", "name:ar": "\u0627\u0644\u0645\u062f\u064a\u0646\u0629 \u0627\u0644\u0643\u0631\u0641\u0627\u0646\u064a\u0647", "place": "village"}}, {"type": "node", "id": 5607666241, "lat": 30.4982864, "lon": 47.7830757}, {"type": "node", "id": 5869280720, "lat": 30.4662037, "lon": 47.7862158}, {"type": "node", "id": 5869280723, "lat": 30.4595986, "lon": 47.7807507}, {"type": "node", "id": 5970613272, "lat": 30.4894843, "lon": 47.7889106}, {"type": "node", "id": 6022527054, "lat": 30.5050055, "lon": 47.7786129}, {"type": "node", "id": 6247501141, "lat": 30.4928663, "lon": 47.786677}, {"type": "node", "id": 6813793865, "lat": 30.498328, "lon": 47.793111}, {"type": "node", "id": 6842654037, "lat": 30.5392579, "lon": 47.7874044}, {"type": "node", "id": 6842654038, "lat": 30.5430425, "lon": 47.7829444}, {"type": "node", "id": 6842654039, "lat": 30.5373879, "lon": 47.7854922}, {"type": "node", "id": 6842654042, "lat": 30.5471622, "lon": 47.7663682}, {"type": "node", "id": 6842654043, "lat": 30.5525186, "lon": 47.7728302}, {"type": "node", "id": 6842654044, "lat": 30.5412293, "lon": 47.7732757}, {"type": "node", "id": 6842654045, "lat": 30.5408282, "lon": 47.7803601}, {"type": "node", "id": 6842722850, "lat": 30.5535004, "lon": 47.7654055}, {"type": "node", "id": 6842722851, "lat": 30.5497841, "lon": 47.7693912}, {"type": "node", "id": 6842722852, "lat": 30.5525677, "lon": 47.7726578}, {"type": "node", "id": 6842722853, "lat": 30.5569094, "lon": 47.7714509}, {"type": "node", "id": 6842722854, "lat": 30.5561637, "lon": 47.7690279}, {"type": "node", "id": 6842722855, "lat": 30.5557751, "lon": 47.7681904}, {"type": "node", "id": 6842722856, "lat": 30.555341, "lon": 47.7674627}, {"type": "node", "id": 6842722857, "lat": 30.5548053, "lon": 47.7667187}, {"type": "node", "id": 6857489177, "lat": 30.5338239, "lon": 47.781223}, {"type": "node", "id": 6857489178, "lat": 30.5409786, "lon": 47.7730661}, {"type": "node", "id": 6857489179, "lat": 30.5403374, "lon": 47.7864905}, {"type": "node", "id": 6857489180, "lat": 30.539945, "lon": 47.786885}, {"type": "node", "id": 6857489181, "lat": 30.5395382, "lon": 47.7868184}, {"type": "node", "id": 6857489182, "lat": 30.5388873, "lon": 47.7861682}, {"type": "node", "id": 6872626785, "lat": 30.5316618, "lon": 47.8736893, "tags": {"addr:street": "\u0634\u0627\u0631\u0639 \u0627\u0644\u0644\u0648\u0627\u0621", "name": "\u0627\u0644\u0628\u064a\u0628\u0627\u0646 - \u0627\u0644\u0627\u0643\u0648\u0627\u062a \u0627\u0644\u062b\u0627\u0644\u062b\u0629", "place": "town"}}, {"type": "node", "id": 6875265544, "lat": 30.5104945, "lon": 47.7838483}, {"type": "node", "id": 6875265545, "lat": 30.5113409, "lon": 47.7602817}, {"type": "node", "id": 6875265551, "lat": 30.5071548, "lon": 47.7771414}, {"type": "node", "id": 6875265553, "lat": 30.5067405, "lon": 47.7765222}, {"type": "node", "id": 7086494152, "lat": 30.5352227, "lon": 47.7852311}, {"type": "node", "id": 7217715563, "lat": 30.5508365, "lon": 47.7625861}, {"type": "node", "id": 7217715564, "lat": 30.5474357, "lon": 47.7663748}, {"type": "node", "id": 7217715565, "lat": 30.5498055, "lon": 47.7692418}, {"type": "node", "id": 7217715566, "lat": 30.5533921, "lon": 47.7653216}, {"type": "node", "id": 7592936073, "lat": 30.4681358, "lon": 47.7877605}, {"type": "node", "id": 7629765420, "lat": 30.5628191, "lon": 47.7631216, "tags": {"name": "\u0627\u0644\u062f\u0627\u0648\u062f\u064a\u0629", "place": "village"}}, {"type": "node", "id": 7761365986, "lat": 30.5131662, "lon": 47.8231247, "tags": {"name": "\u062f\u0648\u0631 \u062d\u0648\u0627\u0634 \u0627\u0644\u0634\u0631\u0637\u0629", "place": "village"}}, {"type": "node", "id": 8638942106, "lat": 30.4608152, "lon": 47.781749}, {"type": "node", "id": 8735478698, "lat": 30.4682258, "lon": 47.7909772}, {"type": "node", "id": 8735478701, "lat": 30.4696036, "lon": 47.789}, {"type": "node", "id": 8962027771, "lat": 30.5412414, "lon": 47.8262007}, {"type": "node", "id": 8962027772, "lat": 30.542445, "lon": 47.8249079}, {"type": "node", "id": 8962027773, "lat": 30.5431103, "lon": 47.8241381}, {"type": "node", "id": 9376237951, "lat": 30.4685103, "lon": 47.7880778}, {"type": "node", "id": 9757202117, "lat": 30.3637755, "lon": 47.7261339, "tags": {"name": "\u062d\u064a \u0627\u0644\u0634\u0647\u062f\u0627\u0621 2", "place": "village"}}, {"type": "node", "id": 9979520375, "lat": 30.5423672, "lon": 47.8720486}, {"type": "node", "id": 9979520376, "lat": 30.5451536, "lon": 47.8758029}, {"type": "node", "id": 9979520377, "lat": 30.5294986, "lon": 47.882678}, {"type": "node", "id": 9979520378, "lat": 30.5327482, "lon": 47.8844108}, {"type": "node", "id": 9979520379, "lat": 30.5302032, "lon": 47.8836436}, {"type": "node", "id": 9979520380, "lat": 30.5347981, "lon": 47.8849339}, {"type": "node", "id": 9979520381, "lat": 30.5368798, "lon": 47.8766823, "tags": {"access": "private", "barrier": "lift_gate"}}, {"type": "node", "id": 9979520386, "lat": 30.5394285, "lon": 47.8809408}, {"type": "node", "id": 9979520389, "lat": 30.5366558, "lon": 47.8768627, "tags": {"access": "private", "barrier": "lift_gate"}}, {"type": "node", "id": 10221007764, "lat": 30.4567426, "lon": 47.7784436}, {"type": "node", "id": 10312509920, "lat": 30.4594958, "lon": 47.8178263}, {"type": "node", "id": 10312510180, "lat": 30.4650865, "lon": 47.8239552}, {"type": "node", "id": 10572261254, "lat": 30.5498746, "lon": 47.7692941}, {"type": "node", "id": 10572261255, "lat": 30.5498228, "lon": 47.7692229}, {"type": "node", "id": 10656221174, "lat": 30.4738782, "lon": 47.6545401}, {"type": "node", "id": 10698732605, "lat": 30.6635358, "lon": 47.7407519, "tags": {"addr:street": "\u0637\u0631\u064a\u0642 \u0628\u0635\u0631\u0629 \u0639\u0645\u0627\u0631\u0629", "name": "\u062d\u064a \u0627\u0644\u0627\u0646\u062a\u0635\u0627\u0631", "name:en": "Hay AL INTISAR", "place": "village"}}, {"type": "node", "id": 10907415676, "lat": 30.4984667, "lon": 47.7928945}, {"type": "node", "id": 10907478473, "lat": 30.4983941, "lon": 47.7929999}, {"type": "node", "id": 10939316808, "lat": 30.4375346, "lon": 47.9265904}, {"type": "node", "id": 10939316809, "lat": 30.4386178, "lon": 47.927189}, {"type": "node", "id": 10939316810, "lat": 30.4424174, "lon": 47.9160262}, {"type": "node", "id": 10939316811, "lat": 30.4409863, "lon": 47.9152617}, {"type": "node", "id": 10945729012, "lat": 30.5307466, "lon": 47.793938}, {"type": "node", "id": 10945729013, "lat": 30.5305413, "lon": 47.7941244}, {"type": "node", "id": 11237768232, "lat": 30.5041016, "lon": 47.8410608}, {"type": "node", "id": 11237768233, "lat": 30.5078271, "lon": 47.8372124}, {"type": "node", "id": 11237768234, "lat": 30.5126766, "lon": 47.8440798}, {"type": "node", "id": 11237768235, "lat": 30.5085706, "lon": 47.8477612}, {"type": "node", "id": 11237768236, "lat": 30.5054839, "lon": 47.8433657}, {"type": "node", "id": 11237783437, "lat": 30.5049819, "lon": 47.8428603}, {"type": "node", "id": 11237783438, "lat": 30.5048158, "lon": 47.842657}, {"type": "node", "id": 11237783439, "lat": 30.504467, "lon": 47.8420486}, {"type": "node", "id": 11237783440, "lat": 30.504349, "lon": 47.841529}, {"type": "node", "id": 11237783441, "lat": 30.5110652, "lon": 47.8414558}, {"type": "node", "id": 11237783442, "lat": 30.5068542, "lon": 47.8448685}, {"type": "node", "id": 11237783443, "lat": 30.5063602, "lon": 47.8440571}, {"type": "node", "id": 11237783444, "lat": 30.5058783, "lon": 47.8436742}, {"type": "node", "id": 11237815830, "lat": 30.5169002, "lon": 47.8366118}, {"type": "node", "id": 11237815831, "lat": 30.5169215, "lon": 47.8364634}, {"type": "node", "id": 11237815832, "lat": 30.5169144, "lon": 47.8363107}, {"type": "node", "id": 11237815833, "lat": 30.5168753, "lon": 47.836154}, {"type": "node", "id": 11237815834, "lat": 30.5167923, "lon": 47.8359605}, {"type": "node", "id": 11237815835, "lat": 30.5166593, "lon": 47.8357339}, {"type": "node", "id": 11237815836, "lat": 30.516507, "lon": 47.8355795}, {"type": "node", "id": 11237825437, "lat": 30.5163504, "lon": 47.8354924}, {"type": "node", "id": 11237825438, "lat": 30.5167717, "lon": 47.8369861}, {"type": "node", "id": 11237825439, "lat": 30.5168294, "lon": 47.8368611}, {"type": "node", "id": 11237825440, "lat": 30.5158362, "lon": 47.8396036}, {"type": "node", "id": 11237825441, "lat": 30.5104881, "lon": 47.8402435}, {"type": "node", "id": 11237825442, "lat": 30.5080304, "lon": 47.837039}, {"type": "node", "id": 11237825443, "lat": 30.5126612, "lon": 47.8326979}, {"type": "node", "id": 11237825444, "lat": 30.5121322, "lon": 47.8327215}, {"type": "node", "id": 11237825445, "lat": 30.5125307, "lon": 47.8327458}, {"type": "node", "id": 11237825446, "lat": 30.5123165, "lon": 47.832753}, {"type": "node", "id": 11237825447, "lat": 30.5129417, "lon": 47.8437101}, {"type": "node", "id": 11237825448, "lat": 30.5127873, "lon": 47.8437005}, {"type": "node", "id": 11237825449, "lat": 30.5128605, "lon": 47.8437239}, {"type": "node", "id": 11237825450, "lat": 30.5109599, "lon": 47.8409138}, {"type": "node", "id": 11237825451, "lat": 30.5031637, "lon": 47.830634}, {"type": "node", "id": 11237825452, "lat": 30.5069291, "lon": 47.8267607}, {"type": "node", "id": 11237825453, "lat": 30.5072421, "lon": 47.8266745}, {"type": "node", "id": 11237825454, "lat": 30.5074887, "lon": 47.82685}, {"type": "node", "id": 11237825455, "lat": 30.5078972, "lon": 47.8273825}, {"type": "node", "id": 11237825456, "lat": 30.5119034, "lon": 47.8319181}, {"type": "node", "id": 11237825457, "lat": 30.5120585, "lon": 47.8321301}, {"type": "node", "id": 11237825458, "lat": 30.5120597, "lon": 47.8323565}, {"type": "node", "id": 11237825459, "lat": 30.5119297, "lon": 47.8325365}, {"type": "node", "id": 11237825460, "lat": 30.5078459, "lon": 47.8368259}, {"type": "node", "id": 11237825461, "lat": 30.5031779, "lon": 47.8307949}, {"type": "node", "id": 11237825462, "lat": 30.503214, "lon": 47.8304368}, {"type": "node", "id": 11237825463, "lat": 30.503176, "lon": 47.830534}, {"type": "node", "id": 11237825464, "lat": 30.5031603, "lon": 47.8307145}, {"type": "node", "id": 11237825465, "lat": 30.5076524, "lon": 47.8370503}, {"type": "node", "id": 11237825466, "lat": 30.5046528, "lon": 47.8401446}, {"type": "node", "id": 11237825467, "lat": 30.5014228, "lon": 47.8383465}, {"type": "node", "id": 11237825468, "lat": 30.499118, "lon": 47.8365396}, {"type": "node", "id": 11237825469, "lat": 30.4986952, "lon": 47.8349757}, {"type": "node", "id": 11237825470, "lat": 30.5027046, "lon": 47.8309455}, {"type": "node", "id": 11237825471, "lat": 30.5027801, "lon": 47.8308988}, {"type": "node", "id": 11237825472, "lat": 30.5028444, "lon": 47.8309007}, {"type": "node", "id": 11237825473, "lat": 30.5029457, "lon": 47.8309399}, {"type": "node", "id": 11237825474, "lat": 30.5030309, "lon": 47.831007}, {"type": "node", "id": 11237825475, "lat": 30.498596, "lon": 47.8350937}, {"type": "node", "id": 11237825476, "lat": 30.4985653, "lon": 47.8351807}, {"type": "node", "id": 11237825477, "lat": 30.4985557, "lon": 47.8352822}, {"type": "node", "id": 11237825478, "lat": 30.4985609, "lon": 47.8353814}, {"type": "node", "id": 11237825479, "lat": 30.4985835, "lon": 47.8354898}, {"type": "node", "id": 11237825480, "lat": 30.4986206, "lon": 47.8355863}, {"type": "node", "id": 11237825481, "lat": 30.4995871, "lon": 47.8370742}, {"type": "node", "id": 11237825482, "lat": 30.4999584, "lon": 47.8373967}, {"type": "node", "id": 11237825486, "lat": 30.5023435, "lon": 47.8390629}, {"type": "node", "id": 11237825487, "lat": 30.5040364, "lon": 47.8404961}, {"type": "node", "id": 11237825488, "lat": 30.5043955, "lon": 47.8403332}, {"type": "node", "id": 11237825489, "lat": 30.5036756, "lon": 47.8404144}, {"type": "node", "id": 11237825490, "lat": 30.5032568, "lon": 47.8400803}, {"type": "node", "id": 11237825491, "lat": 30.5034552, "lon": 47.8402572}, {"type": "node", "id": 11237825492, "lat": 30.5038694, "lon": 47.840499}, {"type": "node", "id": 11237825493, "lat": 30.5042196, "lon": 47.840433}, {"type": "node", "id": 11237825494, "lat": 30.5039468, "lon": 47.8405088}, {"type": "node", "id": 11237867737, "lat": 30.5134615, "lon": 47.8258768}, {"type": "node", "id": 11237867738, "lat": 30.513517, "lon": 47.8258913}, {"type": "node", "id": 11237867739, "lat": 30.5135618, "lon": 47.8259516}, {"type": "node", "id": 11237867740, "lat": 30.5135904, "lon": 47.826068}, {"type": "node", "id": 11237867741, "lat": 30.5136227, "lon": 47.8261532}, {"type": "node", "id": 11237867742, "lat": 30.5135886, "lon": 47.8262488}, {"type": "node", "id": 11237867743, "lat": 30.513474, "lon": 47.8263985}, {"type": "node", "id": 11237867744, "lat": 30.5109222, "lon": 47.8294445}, {"type": "node", "id": 11237867745, "lat": 30.510873, "lon": 47.8294646}, {"type": "node", "id": 11237867746, "lat": 30.5108297, "lon": 47.8294562}, {"type": "node", "id": 11237867747, "lat": 30.5078612, "lon": 47.8260311}, {"type": "node", "id": 11237867748, "lat": 30.5078246, "lon": 47.8259595}, {"type": "node", "id": 11237867749, "lat": 30.5078221, "lon": 47.8258556}, {"type": "node", "id": 11237867750, "lat": 30.5078309, "lon": 47.8257429}, {"type": "node", "id": 11237867751, "lat": 30.5078813, "lon": 47.8256185}, {"type": "node", "id": 11237867752, "lat": 30.5079166, "lon": 47.8255571}, {"type": "node", "id": 11237867753, "lat": 30.5103745, "lon": 47.8226469}, {"type": "node", "id": 11237867754, "lat": 30.5104732, "lon": 47.822572}, {"type": "node", "id": 11237867755, "lat": 30.5105908, "lon": 47.8225786}, {"type": "node", "id": 11237867756, "lat": 30.5107121, "lon": 47.822605}, {"type": "node", "id": 11237867757, "lat": 30.5108468, "lon": 47.8227041}, {"type": "node", "id": 11237867758, "lat": 30.5109359, "lon": 47.8228406}, {"type": "node", "id": 11237867759, "lat": 30.5109909, "lon": 47.8229991}, {"type": "node", "id": 11237867760, "lat": 30.5110592, "lon": 47.823228}, {"type": "node", "id": 11237867761, "lat": 30.5112734, "lon": 47.82389}, {"type": "node", "id": 11237867762, "lat": 30.5114684, "lon": 47.8242117}, {"type": "node", "id": 11237867763, "lat": 30.5119917, "lon": 47.8250043}, {"type": "node", "id": 11237867764, "lat": 30.5122682, "lon": 47.8253413}, {"type": "node", "id": 11237867765, "lat": 30.5125643, "lon": 47.8255304}, {"type": "node", "id": 11237867766, "lat": 30.5128896, "lon": 47.8257264}, {"type": "node", "id": 11237867767, "lat": 30.5131789, "lon": 47.825831}, {"type": "node", "id": 11237867772, "lat": 30.5142047, "lon": 47.810727}, {"type": "node", "id": 11237867773, "lat": 30.5142694, "lon": 47.8108431}, {"type": "node", "id": 11237867774, "lat": 30.5142959, "lon": 47.8110275}, {"type": "node", "id": 11237867775, "lat": 30.514243, "lon": 47.8113177}, {"type": "node", "id": 11237867776, "lat": 30.5138606, "lon": 47.812772}, {"type": "node", "id": 11237867777, "lat": 30.5136563, "lon": 47.8144826}, {"type": "node", "id": 11237867778, "lat": 30.512404, "lon": 47.8189626}, {"type": "node", "id": 11237867779, "lat": 30.5074427, "lon": 47.8130281}, {"type": "node", "id": 11237867780, "lat": 30.506975, "lon": 47.8108977}, {"type": "node", "id": 11237867781, "lat": 30.5066544, "lon": 47.8094741}, {"type": "node", "id": 11237867782, "lat": 30.5069912, "lon": 47.8086592}, {"type": "node", "id": 11237867783, "lat": 30.5071325, "lon": 47.8085726}, {"type": "node", "id": 11237867784, "lat": 30.5093987, "lon": 47.8074307}, {"type": "node", "id": 11237867785, "lat": 30.5107851, "lon": 47.8080372}, {"type": "node", "id": 11237867786, "lat": 30.5128034, "lon": 47.8090337}, {"type": "node", "id": 11237867787, "lat": 30.5130726, "lon": 47.8092472}, {"type": "node", "id": 11237867788, "lat": 30.5139578, "lon": 47.8103056}, {"type": "node", "id": 11237867789, "lat": 30.5086586, "lon": 47.819066}, {"type": "node", "id": 11237867790, "lat": 30.5087573, "lon": 47.8195417}, {"type": "node", "id": 11237867791, "lat": 30.5107188, "lon": 47.8215626}, {"type": "node", "id": 11237867792, "lat": 30.5090483, "lon": 47.8199632}, {"type": "node", "id": 11237867793, "lat": 30.5088912, "lon": 47.8197793}, {"type": "node", "id": 11237867794, "lat": 30.5116253, "lon": 47.8204234}, {"type": "node", "id": 11237867795, "lat": 30.5130752, "lon": 47.8176177}, {"type": "node", "id": 11237867796, "lat": 30.5134711, "lon": 47.8159196}, {"type": "node", "id": 11237867797, "lat": 30.5132873, "lon": 47.8167961}, {"type": "node", "id": 11237867798, "lat": 30.5113002, "lon": 47.8020704}, {"type": "node", "id": 11237867799, "lat": 30.5092048, "lon": 47.7968754}, {"type": "node", "id": 11237867800, "lat": 30.5057646, "lon": 47.7988698}, {"type": "node", "id": 11237867801, "lat": 30.5075695, "lon": 47.8040621}, {"type": "node", "id": 11237867802, "lat": 30.5094412, "lon": 47.803153}, {"type": "node", "id": 11237867803, "lat": 30.5158482, "lon": 47.7957822}, {"type": "node", "id": 11237867804, "lat": 30.5159313, "lon": 47.7953863}, {"type": "node", "id": 11237867805, "lat": 30.5215004, "lon": 47.8044053}, {"type": "node", "id": 11237867806, "lat": 30.5186287, "lon": 47.8067895}, {"type": "node", "id": 11237867807, "lat": 30.5179598, "lon": 47.8054091}, {"type": "node", "id": 11237867808, "lat": 30.5177368, "lon": 47.8046682}, {"type": "node", "id": 11237867809, "lat": 30.5175882, "lon": 47.8041759}, {"type": "node", "id": 11237867810, "lat": 30.5176101, "lon": 47.8038461}, {"type": "node", "id": 11237867811, "lat": 30.5176844, "lon": 47.8031559}, {"type": "node", "id": 11237867812, "lat": 30.51768, "lon": 47.8025571}, {"type": "node", "id": 11237867813, "lat": 30.5175838, "lon": 47.802009}, {"type": "node", "id": 11237867814, "lat": 30.5174396, "lon": 47.8014863}, {"type": "node", "id": 11237867815, "lat": 30.5171335, "lon": 47.8006794}, {"type": "node", "id": 11237867816, "lat": 30.5163204, "lon": 47.7986748}, {"type": "node", "id": 11237867817, "lat": 30.5160231, "lon": 47.7978578}, {"type": "node", "id": 11237867818, "lat": 30.5158613, "lon": 47.7973655}, {"type": "node", "id": 11237867819, "lat": 30.5157608, "lon": 47.7969697}, {"type": "node", "id": 11237867820, "lat": 30.5157826, "lon": 47.7965942}, {"type": "node", "id": 11238010788, "lat": 30.4954363, "lon": 47.8068503}, {"type": "node", "id": 11238010789, "lat": 30.4946741, "lon": 47.8086815}, {"type": "node", "id": 11238010790, "lat": 30.4946499, "lon": 47.8089484}, {"type": "node", "id": 11238010791, "lat": 30.4947528, "lon": 47.8091871}, {"type": "node", "id": 11238010792, "lat": 30.4958298, "lon": 47.8105915}, {"type": "node", "id": 11238010793, "lat": 30.4966603, "lon": 47.8085983}, {"type": "node", "id": 11238010794, "lat": 30.4971909, "lon": 47.8087699}, {"type": "node", "id": 11238010795, "lat": 30.4983201, "lon": 47.8092084}, {"type": "node", "id": 11238010796, "lat": 30.4986951, "lon": 47.8092479}, {"type": "node", "id": 11238010797, "lat": 30.4989674, "lon": 47.8093587}, {"type": "node", "id": 11238010798, "lat": 30.4991525, "lon": 47.8095029}, {"type": "node", "id": 11238010799, "lat": 30.4996182, "lon": 47.809573}, {"type": "node", "id": 11238010800, "lat": 30.4999817, "lon": 47.8094586}, {"type": "node", "id": 11238010801, "lat": 30.5001656, "lon": 47.8093903}, {"type": "node", "id": 11238010802, "lat": 30.5003525, "lon": 47.8093322}, {"type": "node", "id": 11238010803, "lat": 30.5004599, "lon": 47.8093219}, {"type": "node", "id": 11238010804, "lat": 30.5005394, "lon": 47.8093612}, {"type": "node", "id": 11238010805, "lat": 30.5010191, "lon": 47.8073015}, {"type": "node", "id": 11238010806, "lat": 30.5005924, "lon": 47.8073767}, {"type": "node", "id": 11238010807, "lat": 30.4999052, "lon": 47.8075731}, {"type": "node", "id": 11238010808, "lat": 30.4991194, "lon": 47.8076431}, {"type": "node", "id": 11238010809, "lat": 30.4987706, "lon": 47.807679}, {"type": "node", "id": 11238010810, "lat": 30.4979053, "lon": 47.8076158}, {"type": "node", "id": 11238010811, "lat": 30.4973093, "lon": 47.8074552}, {"type": "node", "id": 11238010812, "lat": 30.496007, "lon": 47.8070317}, {"type": "node", "id": 11238010813, "lat": 30.498299, "lon": 47.8076183}, {"type": "node", "id": 11238010814, "lat": 30.4977902, "lon": 47.8075985}, {"type": "node", "id": 11238010815, "lat": 30.4966339, "lon": 47.8071564}, {"type": "node", "id": 11238010816, "lat": 30.4993719, "lon": 47.8095847}, {"type": "node", "id": 11238010817, "lat": 30.4994951, "lon": 47.809591}, {"type": "node", "id": 11238010818, "lat": 30.4992596, "lon": 47.809553}, {"type": "node", "id": 11238010819, "lat": 30.4841221, "lon": 47.8046414}, {"type": "node", "id": 11238010820, "lat": 30.4836843, "lon": 47.8051424}, {"type": "node", "id": 11238010821, "lat": 30.4809332, "lon": 47.8130221}, {"type": "node", "id": 11238010822, "lat": 30.4797538, "lon": 47.8164118}, {"type": "node", "id": 11238010823, "lat": 30.4797662, "lon": 47.8167947}, {"type": "node", "id": 11238010824, "lat": 30.4799096, "lon": 47.8170194}, {"type": "node", "id": 11238010825, "lat": 30.4853292, "lon": 47.8210102}, {"type": "node", "id": 11238010826, "lat": 30.4854398, "lon": 47.821023}, {"type": "node", "id": 11238010827, "lat": 30.4857193, "lon": 47.8208496}, {"type": "node", "id": 11238010828, "lat": 30.4900821, "lon": 47.814448}, {"type": "node", "id": 11238010829, "lat": 30.4901596, "lon": 47.8142136}, {"type": "node", "id": 11238010830, "lat": 30.4901873, "lon": 47.8140017}, {"type": "node", "id": 11238010831, "lat": 30.4901596, "lon": 47.813777}, {"type": "node", "id": 11238010835, "lat": 30.4797336, "lon": 47.8167111}, {"type": "node", "id": 11238010836, "lat": 30.4797186, "lon": 47.8165615}, {"type": "node", "id": 11238015637, "lat": 30.4797149, "lon": 47.8166386}, {"type": "node", "id": 11238015638, "lat": 30.4797316, "lon": 47.8164843}, {"type": "node", "id": 11238015639, "lat": 30.47983, "lon": 47.8169108}, {"type": "node", "id": 11238015640, "lat": 30.4831513, "lon": 47.806733}, {"type": "node", "id": 11238015641, "lat": 30.4840243, "lon": 47.8046094}, {"type": "node", "id": 11238015642, "lat": 30.4839019, "lon": 47.8046745}, {"type": "node", "id": 11238015643, "lat": 30.4837836, "lon": 47.804829}, {"type": "node", "id": 11238015644, "lat": 30.4860006, "lon": 47.8213371}, {"type": "node", "id": 11238015645, "lat": 30.4904863, "lon": 47.8145337}, {"type": "node", "id": 11238015646, "lat": 30.4905455, "lon": 47.8144952}, {"type": "node", "id": 11238015647, "lat": 30.4906025, "lon": 47.8144735}, {"type": "node", "id": 11238015648, "lat": 30.4906678, "lon": 47.8144964}, {"type": "node", "id": 11238015649, "lat": 30.4907332, "lon": 47.8145638}, {"type": "node", "id": 11238015650, "lat": 30.4911206, "lon": 47.815453}, {"type": "node", "id": 11238015651, "lat": 30.4933886, "lon": 47.8184479}, {"type": "node", "id": 11238015652, "lat": 30.4934193, "lon": 47.8185516}, {"type": "node", "id": 11238015653, "lat": 30.4934221, "lon": 47.8186716}, {"type": "node", "id": 11238015654, "lat": 30.4934332, "lon": 47.8188369}, {"type": "node", "id": 11238015655, "lat": 30.4934025, "lon": 47.8190411}, {"type": "node", "id": 11238015656, "lat": 30.4934165, "lon": 47.819148}, {"type": "node", "id": 11238015657, "lat": 30.4934444, "lon": 47.8193004}, {"type": "node", "id": 11238015658, "lat": 30.4935444, "lon": 47.8194165}, {"type": "node", "id": 11238015659, "lat": 30.4942232, "lon": 47.8201761}, {"type": "node", "id": 11238015660, "lat": 30.4904389, "lon": 47.8251549}, {"type": "node", "id": 11238015661, "lat": 30.4904075, "lon": 47.8251682}, {"type": "node", "id": 11238015662, "lat": 30.490356, "lon": 47.8251682}, {"type": "node", "id": 11238015663, "lat": 30.4860101, "lon": 47.8214293}, {"type": "node", "id": 11238015664, "lat": 30.49063, "lon": 47.8253174}, {"type": "node", "id": 11238015665, "lat": 30.4945916, "lon": 47.8200874}, {"type": "node", "id": 11238015666, "lat": 30.5026144, "lon": 47.8306343}, {"type": "node", "id": 11238015667, "lat": 30.4954886, "lon": 47.8300783}, {"type": "node", "id": 11238015668, "lat": 30.4921967, "lon": 47.8268008}, {"type": "node", "id": 11238015670, "lat": 30.5025861, "lon": 47.8304365}, {"type": "node", "id": 11238015671, "lat": 30.5026092, "lon": 47.8305081}, {"type": "node", "id": 11238015672, "lat": 30.5026232, "lon": 47.830575}, {"type": "node", "id": 11238015673, "lat": 30.5025149, "lon": 47.8308152}, {"type": "node", "id": 11238015674, "lat": 30.5025761, "lon": 47.8307248}, {"type": "node", "id": 11238015675, "lat": 30.4971844, "lon": 47.832405}, {"type": "node", "id": 11238015676, "lat": 30.4967503, "lon": 47.8316263}, {"type": "node", "id": 11238015677, "lat": 30.4964138, "lon": 47.8311429}, {"type": "node", "id": 11238015678, "lat": 30.4986284, "lon": 47.834755}, {"type": "node", "id": 11238015679, "lat": 30.4980951, "lon": 47.8344036}, {"type": "node", "id": 11238015680, "lat": 30.498255, "lon": 47.8347551}, {"type": "node", "id": 11238015681, "lat": 30.4983028, "lon": 47.8348313}, {"type": "node", "id": 11238015682, "lat": 30.4985328, "lon": 47.8348462}, {"type": "node", "id": 11238015683, "lat": 30.4984159, "lon": 47.8348761}, {"type": "node", "id": 11238015684, "lat": 30.4984744, "lon": 47.8348702}, {"type": "node", "id": 11238015685, "lat": 30.4983515, "lon": 47.8348638}, {"type": "node", "id": 11238015686, "lat": 30.4961385, "lon": 47.8320547}, {"type": "node", "id": 11238015687, "lat": 30.490972, "lon": 47.8405099}, {"type": "node", "id": 11238015688, "lat": 30.4921164, "lon": 47.8413016}, {"type": "node", "id": 11238015689, "lat": 30.4960976, "lon": 47.8469792}, {"type": "node", "id": 11238015690, "lat": 30.4974767, "lon": 47.8458156}, {"type": "node", "id": 11238015691, "lat": 30.4968037, "lon": 47.8446861}, {"type": "node", "id": 11238015692, "lat": 30.498137, "lon": 47.8433945}, {"type": "node", "id": 11238015693, "lat": 30.4982629, "lon": 47.8431724}, {"type": "node", "id": 11238015694, "lat": 30.4997894, "lon": 47.8453277}, {"type": "node", "id": 11238015695, "lat": 30.50062, "lon": 47.8443989}, {"type": "node", "id": 11238015696, "lat": 30.5008251, "lon": 47.8440437}, {"type": "node", "id": 11238015697, "lat": 30.5009932, "lon": 47.8435207}, {"type": "node", "id": 11238015698, "lat": 30.5012353, "lon": 47.8428573}, {"type": "node", "id": 11238015699, "lat": 30.5015783, "lon": 47.8422289}, {"type": "node", "id": 11238015700, "lat": 30.5021399, "lon": 47.8415655}, {"type": "node", "id": 11238015701, "lat": 30.5026039, "lon": 47.8411049}, {"type": "node", "id": 11238015702, "lat": 30.5023887, "lon": 47.8405}, {"type": "node", "id": 11238015703, "lat": 30.5020289, "lon": 47.83986}, {"type": "node", "id": 11238015704, "lat": 30.5014573, "lon": 47.8392628}, {"type": "node", "id": 11238015705, "lat": 30.5005209, "lon": 47.8385916}, {"type": "node", "id": 11238015706, "lat": 30.4991807, "lon": 47.837573}, {"type": "node", "id": 11238015707, "lat": 30.4987705, "lon": 47.8372178}, {"type": "node", "id": 11238015708, "lat": 30.4985666, "lon": 47.8368682}, {"type": "node", "id": 11238015709, "lat": 30.4982351, "lon": 47.836263}, {"type": "node", "id": 11238015710, "lat": 30.4980735, "lon": 47.8358106}, {"type": "node", "id": 11238015711, "lat": 30.4978519, "lon": 47.8352015}, {"type": "node", "id": 11238015712, "lat": 30.4968152, "lon": 47.8334891}, {"type": "node", "id": 11238015713, "lat": 30.4956455, "lon": 47.8330758}, {"type": "node", "id": 11238015714, "lat": 30.4954879, "lon": 47.8332568}, {"type": "node", "id": 11238015715, "lat": 30.4950221, "lon": 47.8344584}, {"type": "node", "id": 11238015716, "lat": 30.4949965, "lon": 47.8342245}, {"type": "node", "id": 11238015717, "lat": 30.4950727, "lon": 47.8338197}, {"type": "node", "id": 11238015718, "lat": 30.4951003, "lon": 47.8335035}, {"type": "node", "id": 11238015719, "lat": 30.4952732, "lon": 47.8333376}, {"type": "node", "id": 11238015720, "lat": 30.495164, "lon": 47.8333962}, {"type": "node", "id": 11238015721, "lat": 30.4943309, "lon": 47.8362155}, {"type": "node", "id": 11238015722, "lat": 30.494437, "lon": 47.8357244}, {"type": "node", "id": 11238015723, "lat": 30.4944069, "lon": 47.8355863}, {"type": "node", "id": 11238015724, "lat": 30.4945873, "lon": 47.8349284}, {"type": "node", "id": 11238015725, "lat": 30.4943255, "lon": 47.8352238}, {"type": "node", "id": 11238015726, "lat": 30.4942024, "lon": 47.8354677}, {"type": "node", "id": 11238015727, "lat": 30.4940519, "lon": 47.8353636}, {"type": "node", "id": 11238015728, "lat": 30.4941328, "lon": 47.835249}, {"type": "node", "id": 11238015729, "lat": 30.4946158, "lon": 47.8346598}, {"type": "node", "id": 11238015730, "lat": 30.494765, "lon": 47.8345143}, {"type": "node", "id": 11238015731, "lat": 30.4935789, "lon": 47.8370189}, {"type": "node", "id": 11238015732, "lat": 30.493273, "lon": 47.8369791}, {"type": "node", "id": 11238015733, "lat": 30.49311, "lon": 47.8373107}, {"type": "node", "id": 11238015734, "lat": 30.4924345, "lon": 47.8381974}, {"type": "node", "id": 11238015735, "lat": 30.4920317, "lon": 47.8386388}, {"type": "node", "id": 11238015736, "lat": 30.4915896, "lon": 47.8407806}, {"type": "node", "id": 11238015745, "lat": 30.4919845, "lon": 47.8411066}, {"type": "node", "id": 11238015746, "lat": 30.4925625, "lon": 47.8418612}, {"type": "node", "id": 11238015747, "lat": 30.4933742, "lon": 47.842113}, {"type": "node", "id": 11238015748, "lat": 30.4930237, "lon": 47.8421546}, {"type": "node", "id": 11238015749, "lat": 30.4936887, "lon": 47.8424136}, {"type": "node", "id": 11238015750, "lat": 30.4936182, "lon": 47.8422932}, {"type": "node", "id": 11238015751, "lat": 30.493764, "lon": 47.8427075}, {"type": "node", "id": 11238015752, "lat": 30.4937894, "lon": 47.843208}, {"type": "node", "id": 11238015753, "lat": 30.4938326, "lon": 47.843601}, {"type": "node", "id": 11238015754, "lat": 30.4939804, "lon": 47.8438182}, {"type": "node", "id": 11238015755, "lat": 30.4945527, "lon": 47.8443363}, {"type": "node", "id": 11238015756, "lat": 30.495331, "lon": 47.8449894}, {"type": "node", "id": 11238015757, "lat": 30.495964, "lon": 47.8468258}, {"type": "node", "id": 11238015758, "lat": 30.4963158, "lon": 47.8470407}, {"type": "node", "id": 11238015759, "lat": 30.496026, "lon": 47.8469157}, {"type": "node", "id": 11238015760, "lat": 30.4962002, "lon": 47.8470175}, {"type": "node", "id": 11238015761, "lat": 30.4965463, "lon": 47.8468684}, {"type": "node", "id": 11238015762, "lat": 30.4967524, "lon": 47.8465487}, {"type": "node", "id": 11238015763, "lat": 30.4973904, "lon": 47.8460447}, {"type": "node", "id": 11238015764, "lat": 30.4974542, "lon": 47.8459135}, {"type": "node", "id": 11238015765, "lat": 30.4974433, "lon": 47.8456067}, {"type": "node", "id": 11238015766, "lat": 30.4970985, "lon": 47.8442734}, {"type": "node", "id": 11238015767, "lat": 30.497586, "lon": 47.8441802}, {"type": "node", "id": 11238015768, "lat": 30.4979268, "lon": 47.8439711}, {"type": "node", "id": 11238015769, "lat": 30.4981249, "lon": 47.843708}, {"type": "node", "id": 11238082002, "lat": 30.5009564, "lon": 47.8388372}, {"type": "node", "id": 11238082003, "lat": 30.5017431, "lon": 47.8395282}, {"type": "node", "id": 11238082004, "lat": 30.5004395, "lon": 47.8448849}, {"type": "node", "id": 11238082005, "lat": 30.5026699, "lon": 47.8412928}, {"type": "node", "id": 11238082006, "lat": 30.5035699, "lon": 47.8437647}, {"type": "node", "id": 11238082007, "lat": 30.50402, "lon": 47.8441887}, {"type": "node", "id": 11238082008, "lat": 30.5050247, "lon": 47.8445446}, {"type": "node", "id": 11238082009, "lat": 30.5053639, "lon": 47.844643}, {"type": "node", "id": 11238082010, "lat": 30.5069928, "lon": 47.8479834}, {"type": "node", "id": 11238082011, "lat": 30.5078167, "lon": 47.8486797}, {"type": "node", "id": 11238082012, "lat": 30.4899017, "lon": 47.8493211}, {"type": "node", "id": 11238082013, "lat": 30.4962431, "lon": 47.8496771}, {"type": "node", "id": 11238082014, "lat": 30.4951043, "lon": 47.8601251}, {"type": "node", "id": 11238082015, "lat": 30.4910786, "lon": 47.8574818}, {"type": "node", "id": 11238082016, "lat": 30.4927793, "lon": 47.851133}, {"type": "node", "id": 11238082017, "lat": 30.4892031, "lon": 47.8550959}, {"type": "node", "id": 11238082018, "lat": 30.4879139, "lon": 47.8542457}, {"type": "node", "id": 11238082019, "lat": 30.4871897, "lon": 47.8539945}, {"type": "node", "id": 11238082020, "lat": 30.4892961, "lon": 47.8498585}, {"type": "node", "id": 11238082021, "lat": 30.4857316, "lon": 47.8544203}, {"type": "node", "id": 11238082022, "lat": 30.4861217, "lon": 47.85359}, {"type": "node", "id": 11238082023, "lat": 30.4876719, "lon": 47.8516229}, {"type": "node", "id": 11238082024, "lat": 30.4896716, "lon": 47.8494442}, {"type": "node", "id": 11238082025, "lat": 30.4901688, "lon": 47.8492699}, {"type": "node", "id": 11238082026, "lat": 30.4904398, "lon": 47.8493087}, {"type": "node", "id": 11238082027, "lat": 30.4908183, "lon": 47.8495506}, {"type": "node", "id": 11238082028, "lat": 30.490632, "lon": 47.8494056}, {"type": "node", "id": 11238082029, "lat": 30.4925959, "lon": 47.851054}, {"type": "node", "id": 11238082030, "lat": 30.4938079, "lon": 47.8509921}, {"type": "node", "id": 11238082031, "lat": 30.4932846, "lon": 47.8511725}, {"type": "node", "id": 11238082032, "lat": 30.4930139, "lon": 47.8511807}, {"type": "node", "id": 11238082033, "lat": 30.4935508, "lon": 47.851112}, {"type": "node", "id": 11238082034, "lat": 30.4980898, "lon": 47.8478575}, {"type": "node", "id": 11238082035, "lat": 30.5001412, "lon": 47.8451582}, {"type": "node", "id": 11238082036, "lat": 30.5031098, "lon": 47.8426848}, {"type": "node", "id": 11238088037, "lat": 30.5008526, "lon": 47.8442621}, {"type": "node", "id": 11238088038, "lat": 30.5014188, "lon": 47.8429006}, {"type": "node", "id": 11238088039, "lat": 30.5017917, "lon": 47.8422456}, {"type": "node", "id": 11238088040, "lat": 30.4972767, "lon": 47.8619606}, {"type": "node", "id": 11238088041, "lat": 30.508911, "lon": 47.851193}, {"type": "node", "id": 11238088042, "lat": 30.5090811, "lon": 47.8509308}, {"type": "node", "id": 11238088043, "lat": 30.5090659, "lon": 47.8506833}, {"type": "node", "id": 11238088044, "lat": 30.5089263, "lon": 47.8502738}, {"type": "node", "id": 11238088045, "lat": 30.5087867, "lon": 47.8500087}, {"type": "node", "id": 11238088046, "lat": 30.5046442, "lon": 47.8514814}, {"type": "node", "id": 11238088047, "lat": 30.5039231, "lon": 47.852097}, {"type": "node", "id": 11238088048, "lat": 30.5027951, "lon": 47.8531067}, {"type": "node", "id": 11238088049, "lat": 30.5016102, "lon": 47.8541711}, {"type": "node", "id": 11238088050, "lat": 30.4811731, "lon": 47.8639702}, {"type": "node", "id": 11238088051, "lat": 30.4807584, "lon": 47.8647571}, {"type": "node", "id": 11238088052, "lat": 30.480792, "lon": 47.8650268}, {"type": "node", "id": 11238088053, "lat": 30.4810653, "lon": 47.8646459}, {"type": "node", "id": 11238088054, "lat": 30.4813782, "lon": 47.8643119}, {"type": "node", "id": 11238088055, "lat": 30.4814758, "lon": 47.8643369}, {"type": "node", "id": 11238088056, "lat": 30.4816799, "lon": 47.8647509}, {"type": "node", "id": 11238088057, "lat": 30.490341, "lon": 47.8713365}, {"type": "node", "id": 11238088058, "lat": 30.4931465, "lon": 47.8673548}, {"type": "node", "id": 11238088059, "lat": 30.4887463, "lon": 47.8635689}, {"type": "node", "id": 11238088060, "lat": 30.4910805, "lon": 47.857944}, {"type": "node", "id": 11238088061, "lat": 30.4878501, "lon": 47.8544821}, {"type": "node", "id": 11238088062, "lat": 30.486879, "lon": 47.8542866}, {"type": "node", "id": 11238088063, "lat": 30.4865038, "lon": 47.8544851}, {"type": "node", "id": 11238088064, "lat": 30.4855152, "lon": 47.8545906}, {"type": "node", "id": 11238088065, "lat": 30.4847125, "lon": 47.8564122}, {"type": "node", "id": 11238088066, "lat": 30.4843294, "lon": 47.8574811}, {"type": "node", "id": 11238088067, "lat": 30.4841643, "lon": 47.8578621}, {"type": "node", "id": 11238088068, "lat": 30.4842509, "lon": 47.8576725}, {"type": "node", "id": 11238088069, "lat": 30.484034, "lon": 47.8580949}, {"type": "node", "id": 11238088070, "lat": 30.483925, "lon": 47.8582746}, {"type": "node", "id": 11238088071, "lat": 30.4836307, "lon": 47.8587287}, {"type": "node", "id": 11238088072, "lat": 30.4832083, "lon": 47.8595478}, {"type": "node", "id": 11238088073, "lat": 30.4826893, "lon": 47.860726}, {"type": "node", "id": 11238088074, "lat": 30.4821259, "lon": 47.8618976}, {"type": "node", "id": 11238088075, "lat": 30.4816463, "lon": 47.8629664}, {"type": "node", "id": 11238088076, "lat": 30.4809985, "lon": 47.8643661}, {"type": "node", "id": 11238088077, "lat": 30.480889, "lon": 47.8645615}, {"type": "node", "id": 11238088078, "lat": 30.4806528, "lon": 47.8648854}, {"type": "node", "id": 11238088081, "lat": 30.4814318, "lon": 47.8643126}, {"type": "node", "id": 11238088082, "lat": 30.48157, "lon": 47.8644584}, {"type": "node", "id": 11238088083, "lat": 30.4818869, "lon": 47.8648747}, {"type": "node", "id": 11238088084, "lat": 30.4823893, "lon": 47.8652437}, {"type": "node", "id": 11238088085, "lat": 30.4820455, "lon": 47.8649862}, {"type": "node", "id": 11238088086, "lat": 30.4821103, "lon": 47.8653223}, {"type": "node", "id": 11238088087, "lat": 30.4820623, "lon": 47.8651549}, {"type": "node", "id": 11238088088, "lat": 30.4821878, "lon": 47.8653529}, {"type": "node", "id": 11238088089, "lat": 30.4822885, "lon": 47.8652983}, {"type": "node", "id": 11238088090, "lat": 30.4825206, "lon": 47.865298}, {"type": "node", "id": 11238088091, "lat": 30.4825969, "lon": 47.8654562}, {"type": "node", "id": 11238088092, "lat": 30.4826532, "lon": 47.8655991}, {"type": "node", "id": 11238088093, "lat": 30.4828725, "lon": 47.8656958}, {"type": "node", "id": 11238088094, "lat": 30.4835241, "lon": 47.8659749}, {"type": "node", "id": 11238088095, "lat": 30.4832514, "lon": 47.8659587}, {"type": "node", "id": 11238088096, "lat": 30.4830748, "lon": 47.8659601}, {"type": "node", "id": 11238088097, "lat": 30.4844736, "lon": 47.8666987}, {"type": "node", "id": 11238088098, "lat": 30.4842743, "lon": 47.8666644}, {"type": "node", "id": 11238088099, "lat": 30.483847, "lon": 47.8663803}, {"type": "node", "id": 11238088101, "lat": 30.484071, "lon": 47.8666466}, {"type": "node", "id": 11238088102, "lat": 30.4846706, "lon": 47.8668371}, {"type": "node", "id": 11238088103, "lat": 30.4848308, "lon": 47.8670537}, {"type": "node", "id": 11238088104, "lat": 30.4854592, "lon": 47.8674422}, {"type": "node", "id": 11238088105, "lat": 30.4858018, "lon": 47.8677045}, {"type": "node", "id": 11238088106, "lat": 30.4864518, "lon": 47.8681213}, {"type": "node", "id": 11238088107, "lat": 30.4879788, "lon": 47.8689759}, {"type": "node", "id": 11238088108, "lat": 30.4874812, "lon": 47.8687863}, {"type": "node", "id": 11238088109, "lat": 30.4871744, "lon": 47.8686509}, {"type": "node", "id": 11238088110, "lat": 30.4868357, "lon": 47.8683326}, {"type": "node", "id": 11238088111, "lat": 30.4884384, "lon": 47.869428}, {"type": "node", "id": 11238088112, "lat": 30.4892856, "lon": 47.8701427}, {"type": "node", "id": 11238088113, "lat": 30.4887776, "lon": 47.8698594}, {"type": "node", "id": 11238088114, "lat": 30.4894191, "lon": 47.8703582}, {"type": "node", "id": 11238088115, "lat": 30.4924153, "lon": 47.8687593}, {"type": "node", "id": 11238088116, "lat": 30.4901383, "lon": 47.8566813}, {"type": "node", "id": 11238088117, "lat": 30.4890328, "lon": 47.8553909}, {"type": "node", "id": 11238088118, "lat": 30.487361, "lon": 47.8542807}, {"type": "node", "id": 11238088119, "lat": 30.4887661, "lon": 47.8628412}, {"type": "node", "id": 11238088120, "lat": 30.4889471, "lon": 47.8641104}, {"type": "node", "id": 11238088121, "lat": 30.4887199, "lon": 47.8632051}, {"type": "node", "id": 11238088122, "lat": 30.4888296, "lon": 47.8638521}, {"type": "node", "id": 11238116239, "lat": 30.5514863, "lon": 47.7915951}, {"type": "node", "id": 11238116240, "lat": 30.5490496, "lon": 47.7958587}, {"type": "node", "id": 11238116241, "lat": 30.5433868, "lon": 47.7882763}, {"type": "node", "id": 11238116244, "lat": 30.5505655, "lon": 47.7906726}, {"type": "node", "id": 11238126261, "lat": 30.5356386, "lon": 47.8015662}, {"type": "node", "id": 11238126262, "lat": 30.545553, "lon": 47.7931798}, {"type": "node", "id": 11238126263, "lat": 30.5452453, "lon": 47.792821}, {"type": "node", "id": 11238126264, "lat": 30.5450054, "lon": 47.7925774}, {"type": "node", "id": 11238126265, "lat": 30.5440408, "lon": 47.7916032}, {"type": "node", "id": 11238126266, "lat": 30.5430901, "lon": 47.790651}, {"type": "node", "id": 11238126267, "lat": 30.5426788, "lon": 47.790185}, {"type": "node", "id": 11238126268, "lat": 30.5417696, "lon": 47.7892716}, {"type": "node", "id": 11238126269, "lat": 30.5412629, "lon": 47.7887294}, {"type": "node", "id": 11238126270, "lat": 30.5397207, "lon": 47.7872465}, {"type": "node", "id": 11238126271, "lat": 30.5395187, "lon": 47.7874824}, {"type": "node", "id": 11238126272, "lat": 30.5370211, "lon": 47.790721}, {"type": "node", "id": 11238126273, "lat": 30.5341415, "lon": 47.7944301}, {"type": "node", "id": 11238126274, "lat": 30.5342511, "lon": 47.7949949}, {"type": "node", "id": 11238126275, "lat": 30.5345243, "lon": 47.7963251}, {"type": "node", "id": 11238126276, "lat": 30.5351199, "lon": 47.7991229}, {"type": "node", "id": 11238126277, "lat": 30.5356671, "lon": 47.8017985}, {"type": "node", "id": 11238126278, "lat": 30.5358445, "lon": 47.802362}, {"type": "node", "id": 11238126279, "lat": 30.5361563, "lon": 47.8029639}, {"type": "node", "id": 11238126280, "lat": 30.5364136, "lon": 47.803231}, {"type": "node", "id": 11238126281, "lat": 30.5374428, "lon": 47.8042222}, {"type": "node", "id": 11238126282, "lat": 30.5377429, "lon": 47.804548}, {"type": "node", "id": 11238126283, "lat": 30.5380704, "lon": 47.8050119}, {"type": "node", "id": 11238126284, "lat": 30.5383861, "lon": 47.8055731}, {"type": "node", "id": 11238126285, "lat": 30.5397583, "lon": 47.8049418}, {"type": "node", "id": 11238126286, "lat": 30.5399551, "lon": 47.804892}, {"type": "node", "id": 11238126287, "lat": 30.5434372, "lon": 47.8034043}, {"type": "node", "id": 11238126288, "lat": 30.5440462, "lon": 47.8030761}, {"type": "node", "id": 11238126289, "lat": 30.5492685, "lon": 47.800027}, {"type": "node", "id": 11238126290, "lat": 30.5494538, "lon": 47.7998634}, {"type": "node", "id": 11238126291, "lat": 30.5495024, "lon": 47.7997333}, {"type": "node", "id": 11238126292, "lat": 30.5495362, "lon": 47.7995812}, {"type": "node", "id": 11238126293, "lat": 30.5495467, "lon": 47.7994855}, {"type": "node", "id": 11238126294, "lat": 30.5497644, "lon": 47.7993137}, {"type": "node", "id": 11238126295, "lat": 30.546041, "lon": 47.7938517}, {"type": "node", "id": 11238126296, "lat": 30.5458867, "lon": 47.7936161}, {"type": "node", "id": 11238126297, "lat": 30.5457219, "lon": 47.7933953}, {"type": "node", "id": 11238612400, "lat": 30.5190548, "lon": 47.807097}, {"type": "node", "id": 11238612401, "lat": 30.5217598, "lon": 47.804837}, {"type": "node", "id": 11238612402, "lat": 30.521827, "lon": 47.8048541}, {"type": "node", "id": 11238612403, "lat": 30.5219445, "lon": 47.8049492}, {"type": "node", "id": 11238612404, "lat": 30.5287678, "lon": 47.8156615}, {"type": "node", "id": 11238612405, "lat": 30.5288385, "lon": 47.8157873}, {"type": "node", "id": 11238612406, "lat": 30.5288833, "lon": 47.815916}, {"type": "node", "id": 11238612407, "lat": 30.5289068, "lon": 47.8160719}, {"type": "node", "id": 11238612408, "lat": 30.5288786, "lon": 47.8162444}, {"type": "node", "id": 11238612409, "lat": 30.5288031, "lon": 47.816362}, {"type": "node", "id": 11238612410, "lat": 30.52869, "lon": 47.8165317}, {"type": "node", "id": 11238612411, "lat": 30.5282138, "lon": 47.8172049}, {"type": "node", "id": 11238612412, "lat": 30.5278579, "lon": 47.8175524}, {"type": "node", "id": 11238612413, "lat": 30.5252384, "lon": 47.8196912}, {"type": "node", "id": 11238612414, "lat": 30.5251552, "lon": 47.8197582}, {"type": "node", "id": 11238612415, "lat": 30.5250953, "lon": 47.8197955}, {"type": "node", "id": 11238612416, "lat": 30.5250277, "lon": 47.8198342}, {"type": "node", "id": 11238612417, "lat": 30.52495, "lon": 47.8198522}, {"type": "node", "id": 11238612418, "lat": 30.5248424, "lon": 47.819829}, {"type": "node", "id": 11238612419, "lat": 30.5247825, "lon": 47.819793}, {"type": "node", "id": 11238612420, "lat": 30.5244936, "lon": 47.8190975}, {"type": "node", "id": 11238612421, "lat": 30.5242552, "lon": 47.8186323}, {"type": "node", "id": 11238612422, "lat": 30.5241662, "lon": 47.8184773}, {"type": "node", "id": 11238612423, "lat": 30.523975, "lon": 47.8182127}, {"type": "node", "id": 11238612424, "lat": 30.5238938, "lon": 47.8181063}, {"type": "node", "id": 11238612425, "lat": 30.5236581, "lon": 47.8177992}, {"type": "node", "id": 11238612426, "lat": 30.5234407, "lon": 47.8174921}, {"type": "node", "id": 11238612427, "lat": 30.5227256, "lon": 47.8164614}, {"type": "node", "id": 11238612428, "lat": 30.5221206, "lon": 47.8155249}, {"type": "node", "id": 11238612429, "lat": 30.5211619, "lon": 47.8142722}, {"type": "node", "id": 11238612430, "lat": 30.5207428, "lon": 47.8137735}, {"type": "node", "id": 11238612431, "lat": 30.5205778, "lon": 47.8135607}, {"type": "node", "id": 11238612432, "lat": 30.5203002, "lon": 47.8132657}, {"type": "node", "id": 11238612433, "lat": 30.5199649, "lon": 47.8129343}, {"type": "node", "id": 11238612434, "lat": 30.5197606, "lon": 47.8126454}, {"type": "node", "id": 11238612435, "lat": 30.5195851, "lon": 47.8124052}, {"type": "node", "id": 11238612436, "lat": 30.5194223, "lon": 47.8121458}, {"type": "node", "id": 11238635537, "lat": 30.5193423, "lon": 47.8119174}, {"type": "node", "id": 11238635538, "lat": 30.5192752, "lon": 47.8111341}, {"type": "node", "id": 11238635539, "lat": 30.5193055, "lon": 47.8105039}, {"type": "node", "id": 11238635540, "lat": 30.5194288, "lon": 47.8097207}, {"type": "node", "id": 11238635541, "lat": 30.5194482, "lon": 47.8094872}, {"type": "node", "id": 11238635542, "lat": 30.5194201, "lon": 47.8091709}, {"type": "node", "id": 11238635543, "lat": 30.5193379, "lon": 47.8085407}, {"type": "node", "id": 11238635544, "lat": 30.5192752, "lon": 47.8080437}, {"type": "node", "id": 11238635545, "lat": 30.5191001, "lon": 47.8074336}, {"type": "node", "id": 11238635546, "lat": 30.5190135, "lon": 47.80716}, {"type": "node", "id": 11238635547, "lat": 30.5258582, "lon": 47.7929782}, {"type": "node", "id": 11238635548, "lat": 30.5259484, "lon": 47.7930122}, {"type": "node", "id": 11238635549, "lat": 30.5260543, "lon": 47.7930593}, {"type": "node", "id": 11238635550, "lat": 30.5261287, "lon": 47.793143}, {"type": "node", "id": 11238635551, "lat": 30.526185, "lon": 47.7932948}, {"type": "node", "id": 11238635552, "lat": 30.5262166, "lon": 47.7935277}, {"type": "node", "id": 11238635553, "lat": 30.5271349, "lon": 47.7994843}, {"type": "node", "id": 11238635554, "lat": 30.5271559, "lon": 47.7996286}, {"type": "node", "id": 11238635555, "lat": 30.5271272, "lon": 47.7997839}, {"type": "node", "id": 11238635556, "lat": 30.527068, "lon": 47.7998838}, {"type": "node", "id": 11238635557, "lat": 30.5269514, "lon": 47.8000324}, {"type": "node", "id": 11238635558, "lat": 30.5219186, "lon": 47.804014}, {"type": "node", "id": 11238635559, "lat": 30.5218476, "lon": 47.8040232}, {"type": "node", "id": 11238635560, "lat": 30.5217331, "lon": 47.8039637}, {"type": "node", "id": 11238635561, "lat": 30.5216423, "lon": 47.8038537}, {"type": "node", "id": 11238635562, "lat": 30.5156982, "lon": 47.79432}, {"type": "node", "id": 11238635563, "lat": 30.5156001, "lon": 47.7941418}, {"type": "node", "id": 11238635564, "lat": 30.5154818, "lon": 47.7939285}, {"type": "node", "id": 11238635565, "lat": 30.5154113, "lon": 47.7937766}, {"type": "node", "id": 11238635566, "lat": 30.5153836, "lon": 47.7936043}, {"type": "node", "id": 11238635567, "lat": 30.5154189, "lon": 47.7934991}, {"type": "node", "id": 11238635568, "lat": 30.5155497, "lon": 47.7934144}, {"type": "node", "id": 11238635569, "lat": 30.5222345, "lon": 47.7917489}, {"type": "node", "id": 11238635570, "lat": 30.5239399, "lon": 47.7922094}, {"type": "node", "id": 11238635571, "lat": 30.5257364, "lon": 47.792923}, {"type": "node", "id": 11238635572, "lat": 30.5209335, "lon": 47.7916017}, {"type": "node", "id": 11242868751, "lat": 30.5383934, "lon": 47.8058256}, {"type": "node", "id": 11242868752, "lat": 30.539087, "lon": 47.8074111}, {"type": "node", "id": 11242868753, "lat": 30.5414556, "lon": 47.8102337}, {"type": "node", "id": 11242868754, "lat": 30.5419836, "lon": 47.8106581}, {"type": "node", "id": 11242868755, "lat": 30.5432585, "lon": 47.8122871}, {"type": "node", "id": 11242868756, "lat": 30.5453705, "lon": 47.8158983}, {"type": "node", "id": 11242868757, "lat": 30.5463861, "lon": 47.8143586}, {"type": "node", "id": 11242868758, "lat": 30.5504317, "lon": 47.8080624}, {"type": "node", "id": 11242868759, "lat": 30.5508232, "lon": 47.8074352}, {"type": "node", "id": 11242868760, "lat": 30.5509351, "lon": 47.8072711}, {"type": "node", "id": 11242868761, "lat": 30.5510765, "lon": 47.80723}, {"type": "node", "id": 11242868762, "lat": 30.5512147, "lon": 47.8072951}, {"type": "node", "id": 11242868763, "lat": 30.5513671, "lon": 47.8073824}, {"type": "node", "id": 11242868764, "lat": 30.5514337, "lon": 47.8075743}, {"type": "node", "id": 11242868765, "lat": 30.5514379, "lon": 47.8076965}, {"type": "node", "id": 11242868766, "lat": 30.5515861, "lon": 47.8078934}, {"type": "node", "id": 11242868767, "lat": 30.5512941, "lon": 47.8086812}, {"type": "node", "id": 11242868768, "lat": 30.5512705, "lon": 47.8087834}, {"type": "node", "id": 11242868769, "lat": 30.5514079, "lon": 47.8091922}, {"type": "node", "id": 11242868770, "lat": 30.5517321, "lon": 47.8095836}, {"type": "node", "id": 11242868771, "lat": 30.5519145, "lon": 47.8098055}, {"type": "node", "id": 11242868772, "lat": 30.552258, "lon": 47.8109248},